     2.10           OBSERVATION DATA    M (MIXED)           RINEX VERSION / TYPE
Pinnacle 1.00                           30-MAY-11 20:31     PGM / RUN BY / DATE
build April 19, 2002                                        COMMENT
-Unknown-           -Unknown-                               OBSERVER / AGENCY
         Begin Pinnacle project                             COMMENT
VG_GPS                                                      COMMENT
                                                            COMMENT
                                                            COMMENT
May 30, 2011 8:29:02 pm                                     COMMENT
                                                            COMMENT
                                                            COMMENT
C:\data\VG_GPS\projekt\Pinnacle.dbd                         COMMENT
         End Pinnacle project                               COMMENT
                                                            COMMENT
1001                                                        MARKER NAME
1001                                                        MARKER NUMBER
8QG4AWP4FEO         TPS HIPER           3.3 Dec,22,2008 p6  REC # / TYPE / VERS
-Unknown-           TPSPG_A1                                ANT # / TYPE
  3917256.5867  1190216.5774  4875462.7186                  APPROX POSITION XYZ
        1.3300        0.0000        0.0000                  ANTENNA: DELTA H/E/N
     1     1                                                WAVELENGTH FACT L1/2
     7    L1    L2    C1    P1    P2    D1    D2            # / TYPES OF OBSERV
     5.000                                                  INTERVAL
  2011     5    30     7    28   15.0000000     GPS         TIME OF FIRST OBS
  2011     5    30     7    57   50.0000000     GPS         TIME OF LAST OBS
    15                                                      LEAP SECONDS
    18                                                      # OF SATELLITES
   R 3   356   356   356   356   356   356   356            PRN / # OF OBS
   R 5   356   356   356   356   356   356   356            PRN / # OF OBS
   R 6   198   195   198   195   195   198   195            PRN / # OF OBS
   R14   356     0   356   356     0   356     0            PRN / # OF OBS
   R15   356   356   356   356   356   356   356            PRN / # OF OBS
   R16   289   289   289   289   289   289   289            PRN / # OF OBS
   R21   325   322   325   322   322   325   322            PRN / # OF OBS
   R22    77    75    77    75    75    77    75            PRN / # OF OBS
   G 2   336   308   336   308   308   336   308            PRN / # OF OBS
   G 4   356   356   356   356   356   356   356            PRN / # OF OBS
   G 7   356   356   356   356   356   356   356            PRN / # OF OBS
   G 8   243   243   243   243   243   243   243            PRN / # OF OBS
   G10   356   356   356   356   356   356   356            PRN / # OF OBS
   G13   356   356   356   356   356   356   356            PRN / # OF OBS
   G16   356   356   356   356   356   356   356            PRN / # OF OBS
   G20   356   356   356   356   356   356   356            PRN / # OF OBS
   G23   356   356   356   356   356   356   356            PRN / # OF OBS
   G30   320   319   320   319   319   320   319            PRN / # OF OBS
SE TPS 123782eb                                             COMMENT
                                                            END OF HEADER
 11  5 30  7 28 15.0000000  0 14G 4G 2G 7G23G10R21G13R 6R14G16R 3R 5
                                R15G20                              
 112593253.119    87735022.3354   21425784.057 8  21425784.28446  21425788.21146
      1963.117        1529.706  
 120039899.654    93537582.2474   22842829.377 5  22842830.48341  22842833.06741
      5061.339        3943.934  
 120334900.400    93767474.3444   22898971.239 7  22898970.99945  22898974.43545
      6335.124        4936.463  
 110397169.338    86023787.0614   21007883.478 8  21007882.87146  21007884.10846
      1102.305         858.939  
 113391594.200    88357107.2324   21577702.920 7  21577702.05845  21577706.94245
      5325.085        4149.421  
 120310738.286    93575041.115    22482936.011 5  22482936.756 5  22482937.286 5
      1494.022        1162.036  
 105673998.141    82343394.1344   20109093.583 8  20109093.22847  20109095.98746
      3105.729        2420.051  
 119632318.651    93047371.235    22419042.574 5  22419042.653 4  22419047.025 6
      6434.030        5004.234  
 108774723.974                    20405860.678 7  20405860.673 7                
      1231.878                  
 126282194.982    98401731.6594   24030701.531 6  24030701.17443  24030707.62343
      4578.207        3567.438  
 109154253.297    84897774.864    20469855.315 7  20469854.739 7  20469860.635 7
      1084.021         843.129  
 104198566.449    81043353.978    19492497.393 8  19492496.863 8  19492500.619 7
      3784.879        2943.797  
 108675965.887    84525775.238    20337225.443 7  20337226.103 7  20337230.275 7
      5911.095        4597.521  
 119062822.343    92776244.1884   22656902.112 7  22656901.77945  22656906.83345
      -203.180        -158.318  
 11  5 30  7 28 20.0000000  0 14G 4G 2G 7G23G10R21G13R 6R14G16R 3R 5
                                R15G20                              
 112583433.015    87727370.3034   21423915.353 7  21423915.54146  21423919.38346
      1964.763        1530.989  
 120014586.969    93517858.0724   22838014.767 4  22838013.85541  22838016.45441
      5063.609        3945.712  
 120303215.398    93742784.7404   22892942.162 7  22892941.72345  22892944.89245
      6338.803        4939.337  
 110391649.212    86019485.6594   21006833.073 8  21006832.27646  21006833.62846
      1105.576         861.504  
 113364960.240    88336353.4954   21572634.928 7  21572633.86845  21572638.77945
      5328.360        4151.970  
 120303263.461    93569227.362    22481539.195 5  22481539.311 5  22481540.581 5
      1495.296        1163.008  
 105658462.926    82331288.7684   20106136.739 8  20106136.96946  20106139.74646
      3108.293        2422.045  
 119600137.667    93022341.594    22413009.481 4  22413011.510 4  22413016.164 6
      6438.750        5007.919  
 108768562.103                    20404704.169 7  20404704.254 7                
      1232.640                  
 126259297.173    98383889.2264   24026344.694 6  24026343.91743  24026350.00143
      4580.661        3569.389  
 109148831.204    84893557.671    20468837.964 7  20468838.029 7  20468844.076 7
      1084.817         843.746  
 104179635.379    81028629.813    19488956.025 8  19488955.458 8  19488959.329 7
      3787.452        2945.804  
 108646406.129    84502784.320    20331693.834 7  20331694.010 7  20331698.528 7
      5912.554        4598.657  
 119063828.565    92777028.2484   22657093.550 7  22657093.31845  22657098.09445
      -199.369        -155.344  
 11  5 30  7 28 25.0000000  0 14G 4G 2G 7G23G10R21G13R 6R14G16R 3R 5
                                R15G20                              
 112573604.575    87719711.7834   21422044.750 8  21422045.19746  21422049.19546
      1966.573        1532.396  
 119989263.212    93498125.3124   22833192.022 4  22833194.36941  22833197.63741
      5064.963        3946.739  
 120271512.785    93718081.4094   22886909.552 7  22886908.89045  22886911.98245
      6342.350        4942.099  
 110386113.275    86015171.9344   21005779.550 8  21005778.90346  21005780.23846
      1108.900         864.074  
 113338310.368    88315587.3614   21567563.144 7  21567562.50345  21567567.35245
      5331.505        4154.415  
 120295783.908    93563409.940    22480134.965 4  22480139.299 4  22480144.057 5
      1496.228        1163.770  
 105642915.505    82319173.8904   20103178.437 8  20103178.36446  20103181.18946
      3110.767        2423.984  
 119567934.452    92997294.678    22406978.633 5  22406976.768 4  22406981.023 5
      6442.950        5011.188  
 108762396.322                    20403548.499 7  20403547.854 7                
      1233.600                  
 126236388.032    98366037.9444   24021985.130 6  24021984.49643  24021990.60143
      4582.987        3571.152  
 109143404.787    84889337.123    20467820.011 7  20467820.212 7  20467826.190 7
      1085.827         844.528  
 104160692.242    81013896.260    19485412.656 8  19485411.826 8  19485415.739 7
      3789.922        2947.726  
 108616839.300    84479787.902    20326160.266 7  20326160.556 7  20326165.390 7
      5914.168        4599.907  
 119064816.900    92777798.3674   22657281.801 7  22657281.25145  22657286.25445
      -195.667        -152.462  
 11  5 30  7 28 30.0000000  0 14G 4G 2G 7G23G10R21G13R 6R14G16R 3R 5
                                R15G20                              
 112563768.098    87712046.9844   21420173.437 8  21420173.33746  21420177.27746
      1968.208        1533.676  
 119963928.491    93478383.9644   22828375.713 5  22828373.92141  22828374.23041
      5067.847        3949.052  
 120239792.836    93693364.5784   22880873.853 7  22880872.81445  22880875.91145
      6345.783        4944.769  
 110380561.851    86010846.1424   21004722.720 8  21004722.52646  21004723.79246
      1111.915         866.435  
 113311644.870    88294809.0474   21562488.782 7  21562488.17145  21562492.61245
      5334.739        4156.936  
 120288299.959    93557589.104    22478742.454 4  22478741.139 4  22478746.122 5
      1497.077        1164.398  
 105627356.090    82307049.6684   20100217.279 8  20100217.49546  20100220.25446
      3113.169        2425.850  
 119535709.384    92972230.747    22400935.990 5  22400939.155 5  22400941.739 5
      6447.306        5014.572  
 108756227.111                    20402390.138 7  20402390.123 7                
      1234.206                  
 126213467.858    98348178.0804   24017623.791 6  24017622.83243  24017628.85443
      4585.137        3572.845  
 109137974.303    84885113.406    20466801.996 7  20466801.767 7  20466807.751 7
      1086.639         845.168  
 104141737.309    80999153.534    19481866.311 8  19481865.991 8  19481869.580 7
      3792.165        2949.463  
 108587265.736    84456786.244    20320625.443 7  20320626.221 7  20320631.066 7
      5915.511        4600.953  
 119065787.635    92778554.7744   22657467.051 7  22657466.02145  22657470.82245
      -192.370        -149.906  
 11  5 30  7 28 35.0000000  0 14G 4G 2G 7G23G10R21G13R 6R14G16R 3R 5
                                R15G20                              
 112553923.591    87704375.9374   21418300.048 8  21418299.95346  21418303.94646
      1969.558        1534.717  
 119938582.994    93458634.2384   22823552.461 5  22823551.97141  22823551.90641
      5069.980        3950.598  
 120208055.569    93668634.2504   22874834.386 7  22874833.40145  22874836.82745
      6349.159        4947.393  
 110374994.938    86006508.2874   21003663.936 8  21003663.24846  21003664.31446
      1114.888         868.745  
 113284963.735    88274018.5534   21557411.385 7  21557410.88145  21557415.04945
      5337.854        4159.352  
 120280811.696    93551764.880    22477346.454 4  22477343.647 4  22477347.448 5
      1497.940        1165.078  
 105611784.669    82294916.0884   20097253.992 8  20097254.33646  20097257.20346
      3115.521        2427.681  
 119503462.529    92947149.849    22394894.432 5  22394895.632 5  22394898.242 5
      6451.364        5017.722  
 108750054.327                    20401232.049 7  20401231.872 7                
      1234.849                  
 126190536.658    98330309.6294   24013259.596 6  24013259.09543  24013265.01543
      4587.388        3574.612  
 109132539.710    84880886.503    20465783.473 7  20465782.742 7  20465788.061 7
      1087.243         845.628  
 104122770.556    80984401.620    19478318.778 8  19478318.028 8  19478321.285 7
      3794.471        2951.259  
 108557685.433    84433779.342    20315090.751 7  20315090.860 7  20315095.411 7
      5916.645        4601.839  
 119066740.717    92779297.4294   22657648.761 7  22657647.71645  22657652.21145
      -188.900        -147.199  
 11  5 30  7 28 40.0000000  0 14G 4G 2G 7G23G10R21G13R 6R14G16R 3R 5
                                R15G20                              
 112544071.236    87696698.7714   21416425.343 7  21416425.11446  21416429.10046
      1971.259        1536.052  
 119913226.811    93438876.1544   22818727.516 5  22818726.21541  22818726.40541
      5072.968        3952.922  
 120176301.187    93643890.5834   22868790.820 7  22868790.61545  22868794.19245
      6352.554        4950.042  
 110369412.684    86002158.4754   21002601.416 8  21002600.93946  21002601.98846
      1117.981         871.151  
 113258267.194    88253216.0514   21552331.910 7  21552330.81945  21552334.92245
      5340.860        4161.715  
 120273319.190    93545937.363    22475945.038 5  22475944.313 4  22475947.675 5
      1498.791        1165.724  
 105596201.463    82282773.3294   20094289.419 8  20094288.96746  20094291.76246
      3117.762        2429.431  
 119471193.955    92922052.069    22388848.933 5  22388848.222 5  22388851.484 5
      6456.168        5021.464  
 108743878.271                    20400073.658 7  20400073.437 7                
      1235.582                  
 126167594.569    98312432.6904   24008894.125 6  24008892.95043  24008899.09643
      4589.694        3576.369  
 109127101.243    84876656.582    20464763.156 7  20464763.112 7  20464768.587 7
      1088.047         846.247  
 104103792.234    80969640.701    19474768.225 8  19474767.749 8  19474770.978 7
      3796.826        2953.080  
 108528098.970    84410767.653    20309554.795 7  20309554.219 7  20309558.620 7
      5918.000        4602.885  
 119067676.359    92780026.4914   22657826.994 7  22657825.85445  22657830.42345
      -185.377        -144.448  
 11  5 30  7 28 45.0000000  0 14G 4G 2G 7G23G10R21G13R 6R14G16R 3R 5
                                R15G20                              
 112534211.307    87689015.7104   21414548.630 8  21414548.79846  21414552.81646
      1972.594        1537.089  
 119887860.389    93419110.0884   22813900.253 5  22813899.35141  22813900.78241
      5074.459        3954.081  
 120144530.033    93619133.8464   22862744.565 7  22862744.60445  22862748.26845
      6355.773        4952.559  
 110363815.399    85997796.9444   21001536.605 8  21001535.86946  21001536.86346
      1120.951         873.478  
 113231555.563    88232401.7884   21547249.036 7  21547247.62845  21547252.03045
      5343.927        4164.104  
 120265822.820    93540106.840    22474543.010 5  22474541.785 4  22474546.788 5
      1499.877        1166.589  
 105580606.738    82270621.5944   20091321.612 8  20091321.35846  20091324.15646
      3120.135        2431.280  
 119438903.981    92896937.654    22382794.746 5  22382796.108 5  22382800.475 5
      6460.251        5024.632  
 108737699.055                    20398914.926 7  20398914.561 7                
      1236.098                  
 126144642.006    98294547.5924   24004525.458 6  24004525.76343  24004531.02343
      4591.500        3577.793  
 109121659.189    84872423.873    20463742.665 7  20463742.419 7  20463748.234 7
      1088.814         846.860  
 104084802.741    80954871.090    19471216.026 8  19471215.404 8  19471218.874 7
      3798.991        2954.780  
 108498506.217    84387751.074    20304016.308 7  20304016.202 7  20304020.696 7
      5919.127        4603.767  
 119068594.886    92780742.2124   22658001.872 7  22658000.61045  22658005.17045
      -182.019        -141.814  
 11  5 30  7 28 50.0000000  0 15G30G 4G 2G 7G23G10R21G13R 6R14G16R 3
                                R 5R15G20                           
 124856270.669    97290618.9294   23759359.009 6  23759358.61842  23759366.39142
      3248.414        2531.231  
 112524343.984    87681326.8834   21412671.074 8  21412671.28946  21412675.06946
      1974.101        1538.266  
 119862483.822    93399336.1264   22809070.345 5  22809070.11541  22809070.59241
      5076.737        3955.897  
 120112742.261    93594364.1584   22856695.953 7  22856695.68145  22856699.18945
      6359.274        4955.284  
 110358203.285    85993423.8624   21000468.228 8  21000467.80446  21000468.77846
      1123.926         875.810  
 113204829.046    88211575.9324   21542163.165 7  21542161.71945  21542166.39045
      5346.843        4166.372  
 120258322.567    93534273.361    22473142.766 4  22473139.805 4  22473144.265 5
      1500.930        1167.385  
 105565000.685    82258461.0284   20088352.009 8  20088351.63346  20088354.47846
      3122.307        2432.972  
 119406592.948    92871806.861    22376739.703 5  22376740.352 5  22376744.937 5
      6464.375        5027.856  
 108731517.088                    20397755.112 7  20397754.755 7                
      1236.702                  
 126121679.151    98276654.4574   24000155.026 6  24000155.56943  24000161.55643
      4593.405        3579.293  
 109116213.647    84868188.449    20462721.593 7  20462720.986 7  20462727.126 7
      1089.539         847.419  
 104065801.971    80940092.716    19467661.023 8  19467660.721 8  19467664.314 7
      3801.224        2956.509  
 108468907.533    84364729.874    20298476.653 7  20298477.263 7  20298481.835 7
      5920.168        4604.578  
 119069496.419    92781444.7024   22658174.339 7  22658172.50945  22658176.70245
      -178.612        -139.171  
 11  5 30  7 28 55.0000000  0 15G30G 4G 2G 7G23G10R21G13R 6R14G16R 3
                                R 5R15G20                           
 124840024.988    97277959.9564   23756269.144 6  23756268.23343  23756273.67443
      3249.791        2532.293  
 112514469.472    87673632.4514   21410792.446 8  21410792.38046  21410796.11946
      1975.589        1539.419  
 119837097.224    93379554.3414   22804237.510 5  22804238.47341  22804239.72341
      5078.094        3956.938  
 120080938.063    93569581.6694   22850644.040 7  22850643.58345  22850647.18245
      6362.611        4957.871  
 110352576.445    85989039.3124   20999397.838 8  20999397.08446  20999397.87546
      1126.684         877.945  
 113178087.758    88190738.5724   21537074.571 7  21537073.15945  21537077.77745
      5349.630        4168.529  
 120250818.754    93528437.048    22471741.638 4  22471738.388 4  22471741.245 5
      1501.132        1167.543  
 105549383.470    82246291.7704   20085379.947 8  20085379.82846  20085382.61646
      3124.540        2434.705  
 119374260.844    92846659.675    22370680.632 5  22370681.381 5  22370685.417 5
      6468.596        5031.151  
 108725332.408                    20396594.932 7  20396594.301 7                
      1236.997                  
 126098706.129    98258753.4104   23995783.912 6  23995783.77443  23995790.39043
      4595.521        3580.917  
 109110764.750    84863950.411    20461699.535 7  20461699.326 7  20461705.427 7
      1090.079         847.836  
 104046790.316    80925305.871    19464104.561 8  19464104.005 8  19464107.828 7
      3803.410        2958.210  
 108439303.095    84341704.206    20292936.954 7  20292937.457 7  20292941.853 7
      5921.454        4605.576  
 119070381.126    92782134.0774   22658341.706 7  22658340.68345  22658344.98745
      -175.283        -136.590  
 11  5 30  7 29  0.0000000  0 15G30G 4G 2G 7G23G10R21G13R 6R14G16R 3
                                R 5R15G20                           
 124823773.238    97265296.2564   23753176.341 6  23753176.00343  23753180.32343
      3250.899        2533.167  
 112504587.755    87665932.4044   21408912.008 8  21408911.87246  21408915.69946
      1977.020        1540.545  
 119811700.684    93359764.8754   22799403.572 4  22799405.27841  22799409.01941
      5080.327        3958.634  
 120049117.480    93544786.4154   22844589.069 7  22844588.45745  22844591.82045
      6365.816        4960.378  
 110346934.951    85984643.3324   20998323.688 8  20998323.27746  20998324.34346
      1129.684         880.286  
 113151331.785    88169889.7634   21531982.667 7  21531981.66245  21531986.47545
      5352.491        4170.767  
 120243311.382    93522597.949    22470339.225 4  22470336.411 4  22470337.444 5
      1502.135        1168.347  
 105533755.172    82234113.8704   20082405.854 8  20082405.82346  20082408.72146
      3126.802        2436.474  
 119341907.888    92821496.258    22364620.994 5  22364619.565 5  22364623.165 5
      6472.519        5034.180  
 108719144.988                    20395433.880 7  20395433.484 7                
      1237.760                  
 126075723.018    98240844.5144   23991412.036 6  23991410.80343  23991416.84643
      4597.653        3582.563  
 109105312.583    84859709.835    20460677.217 7  20460677.121 7  20460683.105 7
      1090.518         848.183  
 104027767.880    80910510.645    19460546.060 8  19460545.200 8  19460549.419 7
      3805.448        2959.795  
 108409692.669    84318673.881    20287396.414 7  20287396.460 7  20287400.754 7
      5922.614        4606.476  
 119071249.071    92782810.3934   22658505.960 7  22658505.77945  22658510.12145
      -171.896        -133.941  
 11  5 30  7 29  5.0000000  0 15G30G 4G 2G 7G23G10R21G13R 6R14G16R 3
                                R 5R15G20                           
 124807515.481    97252627.8734   23750081.456 6  23750081.91043  23750086.36143
      3252.053        2534.070  
 112494698.948    87658226.8304   21407030.248 8  21407030.10746  21407033.99446
      1978.346        1541.569  
 119786294.398    93339967.7464   22794573.036 4  22794572.02841  22794572.96341
      5082.425        3960.347  
 120017280.623    93519978.4824   22838530.076 7  22838529.93345  22838533.67145
      6369.040        4962.889  
 110341278.928    85980236.0344   20997247.418 8  20997246.99746  20997248.14546
      1132.677         882.604  
 113124561.227    88149029.5894   21526887.853 7  21526887.33745  21526891.99945
      5355.469        4173.085  
 120235800.575    93516756.220    22468932.136 5  22468933.021 4  22468933.872 5
      1502.592        1168.668  
 105518115.850    82221927.3844   20079429.620 8  20079429.78946  20079432.69546
      3128.925        2438.119  
 119309533.995    92796316.564    22358553.284 5  22358553.525 5  22358556.386 5
      6476.732        5037.459  
 108712955.071                    20394272.875 7  20394272.505 7                
      1238.244                  
 126052729.947    98222927.8414   23987036.151 6  23987035.63643  23987041.68343
      4599.465        3583.998  
 109099857.266    84855466.806    20459653.662 7  20459653.542 7  20459659.784 7
      1091.338         848.814  
 104008734.632    80895707.010    19456985.289 8  19456984.808 8  19456988.755 7
      3807.633        2961.485  
 108380076.710    84295639.259    20281853.999 7  20281854.280 7  20281858.453 7
      5923.745        4607.350  
 119072100.344    92783473.7174   22658668.218 7  22658667.75145  22658671.97645
      -168.667        -131.428  
 11  5 30  7 29 10.0000000  0 15G30G 4G 2G 7G23G10R21G13R 6R14G16R 3
                                R 5R15G20                           
 124791252.273    97239955.2224   23746987.508 6  23746987.29143  23746991.35643
      3253.151        2534.922  
 112484803.618    87650516.1874   21405146.938 8  21405146.96046  21405151.01146
      1979.698        1542.615  
 119760878.734    93320163.3604   22789736.827 4  22789736.06241  22789737.86541
      5084.191        3961.658  
 119985428.075    93495158.3214   22832467.937 7  22832468.09745  22832472.27045
      6372.012        4965.203  
 110335608.867    85975817.8034   20996168.934 8  20996167.97446  20996169.04746
      1135.333         884.676  
 113097776.634    88128158.4774   21521791.579 7  21521790.52645  21521795.01745
      5358.326        4175.327  
 120228286.778    93510912.182    22467529.025 5  22467528.928 4  22467529.618 5
      1503.046        1169.080  
 105502466.048    82209732.7344   20076452.040 8  20076451.73046  20076454.65046
      3131.154        2439.864  
 119277139.826    92771121.098    22352482.780 5  22352483.018 5  22352486.153 5
      6481.093        5040.837  
 108706763.054                    20393111.647 7  20393111.349 7                
      1238.483                  
 126029727.395    98205003.7724   23982659.101 6  23982658.47043  23982664.06643
      4601.446        3585.538  
 109094399.295    84851221.711    20458629.350 7  20458629.360 7  20458636.339 7
      1091.898         849.258  
 103989691.197    80880895.447    19453423.358 8  19453422.573 8  19453426.019 7
      3809.611        2963.039  
 108350455.763    84272600.746    20276311.099 7  20276311.272 7  20276315.349 7
      5924.619        4608.038  
 119072935.464    92784124.4474   22658827.370 7  22658826.57945  22658830.88245
      -165.417        -128.906  
 11  5 30  7 29 15.0000000  0 15G30G 4G 2G 7G23G10R21G13R 6R14G16R 3
                                R 5R15G20                           
 124774983.217    97227278.0334   23743891.453 6  23743891.30143  23743895.65643
      3254.469        2535.948  
 112474901.308    87642800.1004   21403262.481 8  21403262.64446  21403266.73546
      1981.152        1543.745  
 119735453.549    93300351.4844   22784902.239 4  22784898.96741  22784897.33841
      5086.217        3963.323  
 119953559.393    93470325.5924   22826403.156 7  22826403.29145  22826407.88445
      6375.553        4967.958  
 110329924.367    85971388.3114   20995087.049 8  20995086.04746  20995087.41146
      1138.230         886.922  
 113070977.626    88107276.1294   21516692.557 7  21516691.00745  21516695.15845
      5361.159        4177.531  
 120220769.722    93505065.548    22466126.436 4  22466124.662 4  22466125.823 5
      1503.384        1169.287  
 105486805.396    82197529.6264   20073471.935 8  20073471.59346  20073474.45246
      3133.325        2441.557  
 119244725.038    92745909.608    22346408.132 5  22346408.631 5  22346411.334 5
      6485.023        5043.916  
 108700568.580                    20391949.647 7  20391949.299 7                
      1239.117                  
 126006715.061    98187072.0874   23978280.190 6  23978279.18643  23978284.59543
      4603.397        3587.055  
 109088938.221    84846974.203    20457605.631 7  20457605.410 7  20457612.443 7
      1092.496         849.719  
 103970637.206    80866075.671    19449858.183 8  19449857.903 8  19449861.650 7
      3811.828        2964.749  
 108320828.931    84249557.661    20270767.755 7  20270767.197 7  20270771.080 7
      5925.972        4609.080  
 119073754.062    92784762.3084   22658983.408 7  22658982.32945  22658986.65545
      -162.166        -126.369  
 11  5 30  7 29 20.0000000  0 15G30G 4G 2G 7G23G10R21G13R 6R14G16R 3
                                R 5R15G20                           
 124758709.043    97214596.8524   23740793.635 6  23740793.83343  23740798.64443
      3255.383        2536.671  
 112464992.744    87635079.1304   21401377.093 8  21401377.05646  21401381.16046
      1982.278        1544.632  
 119710019.442    93280532.6984   22780062.464 5  22780059.32441  22780059.58641
      5087.594        3964.402  
 119921675.340    93445480.8794   22820334.891 7  22820335.57345  22820340.59145
      6378.329        4970.131  
 110324226.140    85966948.1304   20994002.594 8  20994001.81846  20994003.10246
      1141.104         889.174  
 113044164.929    88086383.1204   21511589.679 7  21511588.74445  21511592.88045
      5363.863        4179.642  
 120213249.963    93499216.837    22464717.817 4  22464717.794 4  22464721.035 5
      1504.252        1169.979  
 105471134.587    82185318.6034   20070489.686 8  20070489.56546  20070492.44446
      3135.171        2442.991  
 119212290.358    92720682.642    22340330.014 5  22340330.968 5  22340332.431 5
      6488.662        5046.731  
 108694372.244                    20390787.509 7  20390786.714 7                
      1239.511                  
 125983693.633    98169133.3324   23973898.367 6  23973897.84543  23973903.43143
      4605.157        3588.387  
 109083474.762    84842724.841    20456581.047 7  20456580.933 7  20456587.931 7
      1092.821         849.976  
 103951573.350    80851248.230    19446291.718 8  19446291.444 8  19446295.560 7
      3813.824        2966.307  
 108291197.715    84226511.168    20265223.086 7  20265222.485 7  20265226.203 7
      5926.624        4609.598  
 119074556.809    92785387.8104   22659135.676 7  22659135.12045  22659139.54445
      -158.893        -123.806  
 11  5 30  7 29 25.0000000  0 14G30G 4G 2G 7G23G10G13R 6R14G16R 3R 5
                                R15G20                              
 124742429.510    97201911.5004   23737694.533 6  23737695.74943  23737700.64943
      3256.576        2537.577  
 112455077.673    87627353.0944   21399490.415 8  21399490.23646  21399494.39146
      1983.649        1545.703  
 119684576.050    93260706.6234   22775216.907 4  22775218.23341  22775219.44541
      5089.727        3966.118  
 119889775.677    93420624.0094   22814265.038 7  22814265.23445  22814270.27045
      6381.461        4972.573  
 110318513.919    85962497.0414   20992915.148 8  20992914.74746  20992916.17746
      1143.911         891.360  
 113017338.261    88065479.2234   21506484.275 7  21506483.76945  21506488.13545
      5366.669        4181.819  
 105455453.390    82173099.4884   20067505.393 8  20067505.50446  20067508.44846
      3137.262        2444.612  
 119179835.382    92695439.884    22334247.065 5  22334247.770 5  22334250.463 5
      6493.261        5050.295  
 108688173.979                    20389623.158 7  20389623.377 7                
      1239.856                  
 125960662.878    98151187.2934   23969515.118 6  23969515.36143  23969520.95543
      4607.168        3589.980  
 109078008.591    84838473.375    20455556.920 7  20455556.543 7  20455562.851 7
      1093.575         850.561  
 103932499.455    80836412.984    19442723.705 8  19442723.328 8  19442727.464 7
      3815.688        2967.752  
 108261561.616    84203460.877    20259676.624 7  20259676.572 7  20259680.525 7
      5927.720        4610.444  
 119075343.475    92786000.7934   22659285.892 7  22659284.81545  22659289.11045
      -155.764        -121.376  
 11  5 30  7 29 30.0000000  0 15G30G 4G 2G 7G23G10R21G13R 6R14G16R 3
                                R 5R15G20                           
 124726144.686    97189222.0174   23734596.763 6  23734596.39243  23734602.09343
      3257.958        2538.685  
 112445156.208    87619622.0774   21397602.246 7  21397602.18346  21397606.48246
      1985.060        1546.800  
 119659123.680    93240873.6454   22770372.051 4  22770371.77341  22770373.37841
      5091.403        3967.285  
 119857860.519    93395755.0574   22808192.536 7  22808192.28045  22808197.06845
      6384.850        4975.210  
 110312787.801    85958035.1254   20991825.752 8  20991825.09646  20991826.50246
      1146.654         893.498  
 112990497.766    88044564.5514   21501377.388 7  21501376.27645  21501380.72245
      5369.506        4184.023  
 120198284.684                    22461907.013 4                                
      1506.437                  
 105439761.834    82160872.3014   20064519.595 8  20064519.57146  20064522.45246
      3139.512        2446.371  
 119147360.344    92670181.545    22328159.173 5  22328160.784 4  22328165.583 5
      6496.887        5053.112  
 108681973.683                    20388460.947 7  20388460.784 7                
      1240.361                  
 125937622.929    98133234.0924   23965132.326 6  23965131.39943  23965136.94543
      4608.879        3591.321  
 109072539.793    84834219.867    20454530.483 7  20454530.520 7  20454536.941 7
      1094.191         851.036  
 103913415.485    80821569.894    19439154.082 8  19439153.565 8  19439157.285 7
      3817.903        2969.479  
 108231920.566    84180406.729    20254129.854 7  20254129.442 7  20254133.631 7
      5928.750        4611.251  
 119076114.120    92786601.2854   22659432.607 7  22659431.52045  22659435.64745
      -152.358        -118.718  
 11  5 30  7 29 35.0000000  0 15G30G 4G 2G 7G23G10R21G13R 6R14G16R 3
                                R 5R15G20                           
 124709854.589    97176528.4374   23731496.248 6  23731495.72343  23731502.88143
      3258.528        2539.102  
 112435228.326    87611886.0654   21395713.148 8  21395712.91146  21395717.34346
      1986.200        1547.681  
 119633662.290    93221033.6154   22765525.850 4  22765528.17541  22765526.55141
      5091.698        3967.536  
 119825929.871    93370874.0344   22802116.902 7  22802116.48145  22802120.88245
      6387.816        4977.512  
 110307047.812    85953562.4004   20990733.287 8  20990732.79546  20990734.32446
      1149.467         895.682  
 112963643.406    88023639.0754   21496267.458 7  21496266.21545  21496270.78245
      5372.288        4186.207  
 120190756.393    93481663.343    22460504.217 4  22460500.005 4  22460501.530 5
      1506.168        1171.470  
 105424059.980    82148637.0894   20061531.394 8  20061531.63646  20061534.46346
      3141.409        2447.843  
 119114865.212    92644907.573    22322074.108 5  22322072.100 4  22322075.181 5
      6501.729        5056.882  
 108675771.448                    20387297.323 7  20387297.440 7                
      1240.878                  
 125914573.748    98115273.6844   23960747.679 6  23960746.05543  23960750.67443
      4610.662        3592.740  
 109067068.561    84829964.450    20453504.074 7  20453503.688 7  20453510.776 7
      1094.503         851.273  
 103894321.547    80806719.056    19435581.866 8  19435581.456 8  19435585.402 7
      3819.656        2970.847  
 108202274.796    84157348.920    20248581.689 7  20248581.501 7  20248585.714 7
      5929.724        4611.999  
 119076868.751    92787189.3014   22659576.141 7  22659575.11545  22659579.22145
      -149.292        -116.340  
 11  5 30  7 29 40.0000000  0 15G30G 4G 2G 7G23G10R21G13R 6R14G16R 3
                                R 5R15G20                           
 124693559.560    97163831.0234   23728395.462 6  23728395.47843  23728402.57643
      3259.156        2539.623  
 112425294.349    87604145.3004   21393822.424 7  21393822.50346  21393826.92346
      1987.291        1548.536  
 119608192.104    93201186.6874   22760679.820 4  22760680.83741  22760682.42141
      5095.452        3970.525  
 119793984.027    93345981.1734   22796038.654 7  22796037.76545  22796041.52745
      6390.543        4979.636  
 110301294.264    85949079.1054   20989638.747 8  20989638.00546  20989639.46346
      1152.110         897.761  
 112936775.556    88002703.0904   21491154.583 7  21491153.53845  21491158.06045
      5375.080        4188.383  
 120183225.635    93475806.035    22459092.694 3  22459092.205 4  22459094.773 5
      1506.329        1171.615  
 105408348.110    82136394.0694   20058541.919 8  20058541.78746  20058544.61546
      3143.401        2449.396  
 119082350.462    92619618.315    22315979.904 5  22315979.074 4  22315981.147 4
      6505.025        5059.466  
 108669567.541                    20386132.960 7  20386132.983 7                
      1240.921                  
 125891515.670    98097306.3694   23956359.076 6  23956358.02643  23956362.77843
      4612.420        3594.087  
 109061595.182    84825707.369    20452478.355 7  20452477.794 7  20452484.326 7
      1094.878         851.579  
 103875217.874    80791860.649    19432008.623 8  19432007.646 8  19432011.555 7
      3821.655        2972.404  
 108172624.355    84134287.473    20243032.448 7  20243032.639 7  20243036.962 7
      5930.451        4612.567  
 119077607.675    92787765.0784   22659716.080 7  22659715.63145  22659719.82345
      -146.219        -113.941  
 11  5 30  7 29 45.0000000  0 15G30G 4G 2G 7G23G10R21G13R 6R14G16R 3
                                R 5R15G20                           
 124677259.684    97151129.8234   23725293.736 6  23725293.93443  23725300.85143
      3260.556        2540.692  
 112415354.315    87596399.8174   21391930.987 8  21391931.06946  21391935.42746
      1988.590        1549.552  
 119582713.441    93181333.1664   22755832.657 4  22755832.63841  22755832.93041
      5096.292        3971.077  
 119762023.191    93321076.6244   22789956.126 7  22789955.79845  22789959.41345
      6393.655        4982.075  
 110295527.289    85944585.3544   20988541.532 8  20988540.62646  20988542.14346
      1154.731         899.787  
 112909894.356    87981756.6984   21486038.998 7  21486037.98145  21486042.39745
      5377.632        4190.357  
 120175692.526    93469946.910    22457683.842 3  22457685.346 3  22457687.229 5
      1506.688        1171.889  
 105392626.384    82124143.3714   20055550.401 8  20055550.00146  20055552.83946
      3145.331        2450.906  
 119049816.127    92594313.812    22309883.053 5  22309882.124 4  22309883.539 4
      6508.936        5062.510  
 108663362.222                    20384968.522 7  20384968.755 7                
      1241.203                  
 125868448.875    98079332.2554   23951969.648 6  23951969.16443  23951972.96343
      4614.409        3595.647  
 109056119.652    84821448.624    20451451.781 7  20451451.719 7  20451457.656 7
      1095.339         851.931  
 103856104.778    80776994.903    19428432.778 8  19428432.203 8  19428436.076 7
      3823.536        2973.871  
 108142969.748    84111222.781    20237483.015 7  20237483.250 7  20237487.587 7
      5931.287        4613.220  
 119078331.081    92788328.7624   22659853.848 7  22659853.18645  22659857.40245
      -143.114        -111.518  
 11  5 30  7 29 50.0000000  0 15G30G 4G 2G 7G23G10R21G13R 6R14G16R 3
                                R 5R15G20                           
 124660955.101    97138424.9584   23722192.674 6  23722192.34643  23722198.38743
      3261.505        2541.422  
 112405408.439    87588649.7764   21390038.682 8  21390038.48146  21390042.88646
      1989.682        1550.403  
 119557226.166    93161473.0114   22750981.459 4  22750980.96041  22750986.33441
      5098.054        3972.575  
 119730047.398    93296160.4264   22783871.128 7  22783870.98445  22783874.53945
      6396.736        4984.468  
 110289746.888    85940081.1404   20987441.435 8  20987440.73146  20987442.14646
      1157.304         901.799  
 112882999.839    87960799.9364   21480920.848 7  21480919.94045  21480924.26445
      5380.076        4192.254  
 120168156.915    93464085.828    22456275.346 3  22456279.150 3  22456278.982 5
      1507.674        1172.635  
 105376894.829    82111885.0144   20052556.878 8  20052556.38046  20052559.24746
      3147.191        2452.357  
 119017262.246    92568994.119    22303781.804 5  22303782.160 5  22303783.426 4
      6513.061        5065.724  
 108657155.273                    20383805.305 7  20383804.775 7                
      1241.465                  
 125845373.413    98061351.3804   23947579.265 6  23947578.56843  23947582.06843
      4615.907        3596.822  
 109050641.857    84817188.116    20450424.433 7  20450424.351 7  20450430.372 7
      1095.708         852.205  
 103836982.219    80762121.806    19424855.223 8  19424854.923 8  19424858.812 7
      3825.299        2975.233  
 108113311.045    84088154.897    20231933.521 7  20231933.205 7  20231937.453 7
      5932.120        4613.874  
 119079038.934    92788880.3294   22659989.080 7  22659987.90545  22659992.36145
      -140.048        -109.120  
 11  5 30  7 29 55.0000000  0 14G30G 4G 2G 7G23G10G13R 6R14G16R 3R 5
                                R15G20                              
 124644645.835    97125716.4424   23719088.710 6  23719089.11243  23719094.68843
      3262.338        2542.092  
 112395456.657    87580895.1324   21388144.600 8  21388144.78246  21388149.08146
      1990.906        1551.358  
 119531730.496    93141606.2234   22746133.064 4  22746129.74841  22746134.03241
      5099.858        3973.902  
 119698056.735    93271232.6374   22777783.762 7  22777783.36045  22777786.86145
      6399.766        4986.826  
 110283953.141    85935566.5314   20986338.735 8  20986338.29146  20986339.77146
      1160.113         903.987  
 112856092.115    87939832.8774   21475800.683 7  21475799.58345  21475803.83645
      5382.783        4194.370  
 105361153.511    82099619.0554   20049561.054 8  20049560.89346  20049563.81546
      3149.214        2453.933  
 118984688.980    92543659.364    22297679.703 5  22297677.981 5  22297680.593 4
      6516.776        5068.585  
 108650946.892                    20382641.154 7  20382640.089 7                
      1241.723                  
 125822289.385    98043363.8354   23943186.060 6  23943185.55243  23943189.61743
      4617.684        3598.213  
 109045161.967    84812925.968    20449396.039 7  20449396.177 7  20449402.582 7
      1096.240         852.635  
 103817850.189    80747241.333    19421276.211 8  19421275.746 8  19421279.712 7
      3827.318        2976.809  
 108083648.051    84065083.682    20226382.497 7  20226382.024 7  20226386.421 7
      5932.948        4614.515  
 119079731.345    92789419.8644   22660120.358 7  22660119.56045  22660124.16545
      -136.831        -106.629  
 11  5 30  7 30  0.0000000  0 14G30G 4G 2G 7G23G10G13R 6R14G16R 3R 5
                                R15G20                              
 124628332.419    97113004.6964   23715984.535 6  23715984.65043  23715990.54243
      3262.988        2542.584  
 112385499.566    87573136.3584   21386250.374 8  21386250.09546  21386254.25046
      1991.904        1552.130  
 119506226.930    93121733.2564   22741281.532 4  22741277.12841  22741280.59341
      5101.509        3975.105  
 119666051.771    93246293.7034   22771693.040 7  22771692.95845  22771696.41345
      6402.508        4988.968  
 110278146.575    85931041.9314   20985234.211 8  20985233.38546  20985234.84446
      1162.647         905.958  
 112829171.659    87918855.8934   21470678.114 7  21470677.01045  21470680.89445
      5385.324        4196.360  
 105345402.966    82087345.8994   20046563.730 8  20046563.70346  20046566.58646
      3150.930        2455.272  
 118952096.801    92518309.880    22291566.247 5  22291567.976 4  22291573.416 4
      6520.229        5071.265  
 108644737.588                    20381475.622 7  20381475.203 7                
      1241.950                  
 125799197.363    98025370.0824   23938791.192 6  23938790.41743  23938795.25543
      4619.384        3599.485  
 109039680.664    84808662.729    20448368.715 7  20448368.585 7  20448374.582 7
      1096.300         852.674  
 103798709.408    80732354.058    19417695.864 8  19417695.301 8  19417698.865 7
      3828.988        2978.108  
 108053981.462    84042009.670    20220829.866 7  20220829.930 7  20220834.727 7
      5933.771        4615.151  
 119080408.809    92789947.7424   22660249.534 7  22660248.55745  22660253.04545
      -133.972        -104.392  
 11  5 30  7 30  5.0000000  0 15G30G 4G 2G 7G23G10R21G13R 6R14G16R 3
                                R 5R15G20                           
 124612014.856    97100289.7244   23712878.988 6  23712878.84143  23712885.23643
      3264.004        2543.355  
 112375537.220    87565373.4904   21384354.423 8  21384354.45646  21384358.52846
      1992.937        1552.939  
 119480715.575    93101854.3144   22736426.395 4  22736423.46341  22736424.63641
      5103.369        3976.579  
 119634032.558    93221343.6744   22765599.902 7  22765599.82945  22765603.37645
      6405.217        4991.079  
 110272327.303    85926507.4264   20984126.499 8  20984126.06746  20984127.59146
      1165.046         907.823  
 112802238.612    87897869.1064   21465552.892 7  21465551.66545  21465555.88245
      5387.778        4198.267  
 120145489.649    93446497.170    22452048.984 3  22452050.161 3  22452051.066 5
      1509.116        1173.794  
 105329643.252    82075065.6014   20043565.040 8  20043564.67746  20043567.61746
      3152.780        2456.715  
 118919485.793    92492945.778    22285458.896 5  22285455.650 4  22285461.011 4
      6523.504        5073.832  
 108638527.539                    20380310.169 7  20380310.281 7                
      1242.028                  
 125776097.343    98007370.0794   23934394.883 6  23934394.60943  23934399.34043
      4620.712        3600.543  
 109034198.004    84804398.440    20447341.257 7  20447341.156 7  20447346.434 7
      1096.677         852.984  
 103779559.808    80717459.925    19414113.092 8  19414112.855 8  19414116.639 7
      3830.774        2979.499  
 108024311.235    84018932.831    20215277.202 7  20215277.347 7  20215282.072 7
      5934.486        4615.716  
 119081071.379    92790464.0244   22660375.002 7  22660374.84545  22660379.29145
      -131.148        -102.195  
 11  5 30  7 30 10.0000000  0 15G30G 4G 2G 7G23G10R21G13R 6R14G16R 3
                                R 5R15G20                           
 124595693.443    97087571.7494   23709772.188 6  23709772.45443  23709779.05743
      3264.680        2543.897  
 112365569.747    87557606.6274   21382458.070 8  21382457.78246  21382461.87546
      1994.064        1553.821  
 119455196.694    93081969.4224   22731571.523 4  22731566.11541  22731570.48341
      5104.983        3977.851  
 119601999.282    93196382.6954   22759504.120 7  22759503.98445  22759507.72945
      6407.978        4993.230  
 110266495.469    85921963.1314   20983016.695 8  20983016.26946  20983017.88746
      1167.629         909.845  
 112775293.130    87876872.6284   21460424.684 7  21460423.84645  21460428.55145
      5390.632        4200.483  
 120137946.758    93440630.411    22450643.631 4  22450641.179 3  22450642.054 5
      1508.964        1173.646  
 105313874.560    82062778.3064   20040564.164 8  20040564.00746  20040567.00546
      3154.661        2458.190  
 118886856.079    92467567.110    22279343.802 5  22279340.853 4  22279346.029 4
      6527.551        5076.980  
 108632316.648                    20379145.234 7  20379144.976 7                
      1242.324                  
 125752989.475    97989363.9734   23929998.394 6  23929997.05843  23930001.64743
      4622.276        3601.779  
 109028714.202    84800133.262    20446313.044 8  20446312.890 7  20446318.091 7
      1097.006         853.231  
 103760401.730    80702559.200    19410529.680 8  19410528.922 8  19410532.964 7
      3832.388        2980.737  
 107994637.833    83995853.520    20209724.353 7  20209724.582 7  20209729.153 7
      5935.211        4616.289  
 119081719.220    92790968.8324   22660498.890 7  22660498.25145  22660502.68945
      -127.936         -99.691  
 11  5 30  7 30 15.0000000  0 14G30G 4G 2G 7G23G10G13R 6R14G16R 3R 5
                                R15G20                              
 124579367.716    97074850.3904   23706665.849 6  23706665.86943  23706671.86443
      3265.499        2544.590  
 112355596.769    87549835.4694   21380559.857 8  21380559.98146  21380564.07946
      1995.037        1554.576  
 119429669.812    93062078.3464   22726708.623 4  22726707.55441  22726712.43441
      5105.412        3978.226  
 119569951.535    93171410.4324   22753405.561 7  22753405.54645  22753409.21545
      6410.901        4995.512  
 110260650.634    85917408.7094   20981904.354 8  20981904.04646  20981905.67346
      1170.187         911.834  
 112748334.845    87855866.1704   21455294.934 7  21455293.77145  21455298.61645
      5392.977        4202.326  
 105298096.469    82050483.6874   20037561.474 8  20037561.53546  20037564.47346
      3156.544        2459.656  
 118854207.353    92442173.636    22273222.746 4  22273223.119 4  22273229.308 4
      6532.074        5080.497  
 108626104.709                    20377979.605 7  20377979.359 7                
      1242.448                  
 125729873.455    97971351.5144   23925600.205 6  23925599.21743  23925602.53243
      4623.941        3603.080  
 109023228.636    84795866.705    20445283.978 7  20445283.678 7  20445289.487 7
      1097.212         853.388  
 103741234.584    80687651.418    19406943.620 8  19406943.110 8  19406947.566 7
      3834.213        2982.172  
 107964960.702    83972771.305    20204170.340 7  20204170.910 7  20204175.392 7
      5935.858        4616.782  
 119082351.988    92791461.8904   22660619.594 7  22660618.58045  22660623.13745
      -125.047         -97.427  
 11  5 30  7 30 20.0000000  0 14G30G 4G 2G 7G23G10G13R 6R14G16R 3R 5
                                R15G20                              
 124563038.132    97062126.0324   23703560.210 6  23703559.24343  23703564.27743
      3266.298        2545.165  
 112345618.720    87542060.3594   21378661.276 7  21378661.19446  21378665.32646
      1996.022        1555.344  
 119404135.212    93042181.3044   22721848.232 4  22721848.74041  22721854.02241
      5108.520        3980.601  
 119537889.740    93146427.2204   22747304.571 7  22747304.55645  22747308.08245
      6413.669        4997.668  
 110254793.244    85912844.5034   20980789.828 8  20980789.46546  20980791.29646
      1172.622         913.732  
 112721364.189    87834850.0794   21450163.150 8  21450161.54045  21450166.30645
      5395.355        4204.170  
 105282309.400    82038182.0734   20034557.588 8  20034557.42447  20034560.32646
      3158.248        2460.973  
 118821539.999    92416765.699    22267103.764 4  22267103.092 4  22267108.311 4
      6535.273        5083.019  
 108619892.097                    20376813.982 7  20376813.946 7                
      1242.496                  
 125706749.679    97953332.9894   23921199.062 6  23921198.72543  23921202.32943
      4625.224        3604.101  
 109017741.778    84791599.141    20444255.348 7  20444254.565 7  20444260.486 7
      1097.398         853.532  
 103722058.867    80672736.980    19403356.793 8  19403356.220 8  19403360.442 7
      3835.907        2983.491  
 107935280.221    83949686.489    20198616.774 7  20198616.421 7  20198620.935 7
      5936.417        4617.210  
 119082970.064    92791943.4894   22660737.053 7  22660736.21645  22660740.80545
      -122.195         -95.205  
 11  5 30  7 30 25.0000000  0 14G30G 4G 2G 7G23G10G13R 6R14G16R 3R 5
                                R15G20                              
 124546704.741    97049398.7124   23700451.570 6  23700451.34143  23700455.65043
      3267.193        2545.882  
 112335635.643    87534281.3354   21376761.943 8  21376761.57246  21376765.69346
      1997.052        1556.138  
 119378593.230    93022278.4894   22716988.460 4  22716990.23541  22716993.89841
      5109.039        3980.946  
 119505814.061    93121433.1894   22741200.512 7  22741200.97845  22741204.32745
      6416.408        4999.787  
 110248923.340    85908270.5514   20979673.378 8  20979672.52246  20979674.29146
      1175.145         915.691  
 112694381.243    87813824.4094   21445028.492 7  21445027.10045  21445031.49745
      5397.960        4206.184  
 105266513.457    82025873.5454   20031551.754 8  20031551.66446  20031554.50746
      3160.128        2462.435  
 118788854.245    92391343.456    22260979.188 4  22260978.651 4  22260981.848 4
      6538.629        5085.607  
 108613678.860                    20375649.005 7  20375648.948 7                
      1242.618                  
 125683618.278    97935308.5204   23916795.884 6  23916796.88443  23916800.15343
      4626.800        3605.302  
 109012253.640    84787330.582    20443225.694 7  20443225.594 7  20443231.364 7
      1097.692         853.755  
 103702874.785    80657816.029    19399768.290 8  19399767.646 8  19399771.657 7
      3837.647        2984.835  
 107905596.429    83926599.100    20193061.677 7  20193061.375 7  20193065.915 7
      5936.969        4617.634  
 119083573.534    92792413.7154   22660852.016 7  22660850.93445  22660855.76445
      -119.226         -92.909  
 11  5 30  7 30 30.0000000  0 14G30G 4G 2G 7G23G10G13R 6R14G16R 3R 5
                                R15G20                              
 124530367.554    97036668.4304   23697341.784 6  23697342.43343  23697346.50143
      3268.064        2546.552  
 112325647.455    87526498.3304   21374861.149 8  21374860.88046  21374864.96546
      1998.182        1557.028  
 119353043.775                    22712130.012 4                                
      5110.600                  
 119473724.410    93096428.2704   22735094.668 7  22735094.64245  22735097.87845
      6419.220        5001.987  
 110243040.856    85903686.7894   20978553.970 8  20978553.14446  20978555.00546
      1177.680         917.677  
 112667385.971    87792789.1314   21439891.200 7  21439890.02745  21439894.28545
      5400.205        4207.957  
 105250708.585    82013558.0584   20028543.915 7  20028544.10646  20028546.86146
      3161.841        2463.792  
 118756149.662    92365906.522    22254847.670 4  22254849.985 4  22254850.359 4
      6542.696        5088.750  
 108607465.037                    20374483.880 7  20374483.586 7                
      1242.820                  
 125660479.133    97917278.0224   23912392.363 6  23912392.79543  23912397.03543
      4628.495        3606.641  
 109006764.178    84783060.996    20442196.038 7  20442196.063 7  20442201.842 7
      1097.920         853.942  
 103683682.240    80642888.494    19396178.458 8  19396177.520 8  19396181.377 7
      3839.265        2986.101  
 107875909.610    83903509.352    20187505.904 7  20187505.917 7  20187510.545 7
      5937.549        4618.094  
 119084162.306    92792872.4934   22660963.965 7  22660962.92945  22660967.90245
      -116.406         -90.699  
 11  5 30  7 30 35.0000000  0 14G30G 4G 2G 7G23G10G13R 6R14G16R 3R 5
                                R15G20                              
 124514026.632    97023935.2294   23694232.280 6  23694231.98643  23694236.70043
      3268.361        2546.765  
 112315654.286    87518711.4404   21372959.376 8  21372959.22946  21372963.37746
      1999.084        1557.725  
 119327486.836                    22707268.437 4                                
      5112.048                  
 119441620.870    93071412.5344   22728986.305 7  22728985.39545  22728988.71445
      6421.982        5004.144  
 110237145.921    85899093.3254   20977431.708 8  20977431.36446  20977433.24146
      1180.197         919.629  
 112640378.418    87771744.2834   21434751.721 7  21434750.57745  21434754.86745
      5402.814        4209.999  
 105234894.841    82001235.6544   20025534.892 8  20025534.87146  20025537.62946
      3163.566        2465.119  
 118723426.836    92340455.422    22248715.508 4  22248718.235 4  22248718.673 4
      6546.267        5091.582  
 108601250.566                    20373317.748 7  20373317.135 7                
      1242.872                  
 125637332.422    97899241.6384   23907988.166 6  23907987.92243  23907992.67643
      4630.074        3607.856  
 109001273.484    84778790.455    20441166.303 7  20441166.358 7  20441172.001 7
      1098.231         854.173  
 103664481.207    80627954.355    19392586.127 8  19392585.565 8  19392589.333 7
      3841.032        2987.472  
 107846219.768    83880417.256    20181950.351 7  20181950.095 7  20181954.522 7
      5938.459        4618.809  
 119084736.488    92793319.8884   22661073.111 7  22661072.24945  22661077.32745
      -113.287         -88.267  
 11  5 30  7 30 40.0000000  0 14G30G 4G 2G 7G23G10G13R 6R14G16R 3R 5
                                R15G20                              
 124497682.036    97011199.1774   23691121.477 6  23691121.39443  23691127.07643
      3269.043        2547.308  
 112305656.202    87510920.7194   21371056.772 8  21371056.68446  21371060.76546
      2000.062        1558.496  
 119301922.457                    22702403.797 5                                
      5113.378                  
 119409503.539    93046386.0554   22722874.329 7  22722873.61445  22722877.07645
      6424.875        5006.396  
 110231238.616    85894490.2234   20976307.694 8  20976307.35746  20976309.08746
      1182.552         921.486  
 112613358.718    87750689.9724   21429609.970 8  21429608.82245  21429613.19745
      5405.171        4211.824  
 105219072.293    81988906.3964   20022524.154 8  20022523.95846  20022526.69346
      3165.433        2466.573  
 118690685.660    92314990.101    22242583.244 4  22242582.090 4  22242584.499 4
      6549.971        5094.438  
 108595035.520                    20372151.096 7  20372150.981 7                
      1242.864                  
 125614178.159    97881199.3704   23903581.822 6  23903581.67243  23903586.36243
      4631.729        3609.129  
 108995781.638    84774519.019    20440136.538 7  20440136.783 7  20440142.019 7
      1098.532         854.412  
 103645271.962    80613013.830    19388992.447 8  19388992.173 8  19388995.830 7
      3842.655        2988.727  
 107816526.767    83857322.704    20176393.165 7  20176393.509 7  20176397.984 7
      5938.828        4619.093  
 119085296.160    92793755.9914   22661179.331 7  22661178.77545  22661183.58745
      -110.608         -86.178  
 11  5 30  7 30 45.0000000  0 13G30G 4G 2G 7G23G10G13R14G16R 3R 5R15
                                G20                                 
 124481334.000    96998460.4484   23688009.944 6  23688010.20543  23688016.58543
      3270.079        2548.126  
 112295653.390    87503126.3184   21369152.988 8  21369153.14446  21369157.37046
      2001.052        1559.266  
 119276350.953                    22697535.933 5                                
      5115.290                  
 119377372.680    93021349.0294   22716759.789 7  22716759.45945  22716762.57245
      6427.578        5008.504  
 110225319.102    85889877.6104   20975181.241 8  20975180.88346  20975182.69046
      1185.043         923.410  
 112586327.090    87729626.3674   21424465.540 7  21424464.74844  21424469.24944
      5407.510        4213.654  
 105203241.202    81976570.4814   20019511.591 8  20019511.40247  20019514.16046
      3167.038        2467.823  
 108588820.149                    20370986.223 7  20370985.364 7                
      1243.158                  
 125591016.657    97863151.4624   23899174.148 6  23899173.75643  23899179.18743
      4633.075        3610.198  
 108990288.860    84770246.856    20439106.294 7  20439106.608 7  20439112.066 7
      1098.647         854.505  
 103626054.565    80598066.967    19385397.598 8  19385397.094 8  19385400.884 7
      3844.219        2989.945  
 107786830.937    83834225.956    20170836.259 7  20170836.250 7  20170840.701 7
      5939.476        4619.592  
 119085841.484    92794180.9134   22661283.014 7  22661282.59545  22661287.19545
      -107.783         -83.976  
 11  5 30  7 30 50.0000000  0 13G30G 4G 2G 7G23G10G13R14G16R 3R 5R15
                                G20                                 
 124464982.831    96985719.2894   23684899.750 6  23684899.06143  23684905.14943
      3270.586        2548.490  
 112285646.201    87495328.5054   21367248.816 8  21367248.89546  21367253.09646
      2001.948        1559.961  
 119250772.681                    22692665.984 5                                
      5116.545                  
 119345228.562    92996301.6654   22710642.394 7  22710642.75245  22710645.65645
      6430.303        5010.633  
 110219387.683    85885255.7214   20974052.756 8  20974052.18246  20974053.85246
      1187.412         925.268  
 112559283.871    87708553.7364   21419319.159 7  21419318.54344  21419323.41044
      5409.920        4215.514  
 105187401.856    81964228.1324   20016497.448 8  20016497.30747  20016500.05646
      3168.700        2469.113  
 108582604.716                    20369820.548 7  20369819.745 7                
      1243.266                  
 125567848.212    97845098.1364   23894765.246 6  23894765.08943  23894770.21643
      4634.449        3611.266  
 108984795.437    84765974.186    20438076.764 7  20438076.330 7  20438082.032 7
      1098.751         854.590  
 103606829.513    80583114.145    19381800.993 8  19381800.644 8  19381804.440 7
      3845.869        2991.234  
 107757132.568    83811127.225    20165278.843 7  20165278.890 7  20165282.866 7
      5940.063        4620.050  
 119086372.779    92794594.9064   22661384.967 7  22661383.76345  22661388.19945
      -104.861         -81.700  
 11  5 30  7 30 55.0000000  0 13G30G 4G 2G 7G23G10G13R14G16R 3R 5R15
                                G20                                 
 124448628.534    96972975.6884   23681787.935 6  23681787.72543  23681793.08643
      3271.246        2549.019  
 112275634.582    87487527.2484   21365343.632 8  21365343.81746  21365347.89046
      2002.718        1560.561  
 119225187.546                    22687797.500 4                                
      5117.551                  
 119313071.233    92971244.0074   22704523.060 7  22704523.35245  22704526.36245
      6432.731        5012.509  
 110213444.348    85880624.5474   20972921.435 8  20972921.19346  20972922.95146
      1189.819         927.144  
 112532229.036    87687472.0514   21414171.255 7  21414170.34545  21414175.31045
      5412.008        4217.156  
 105171554.277    81951879.3684   20013481.550 8  20013481.64247  20013484.34146
      3170.265        2470.346  
 108576389.219                    20368654.602 7  20368653.793 7                
      1243.184                  
 125544672.801    97827039.3854   23890355.313 6  23890354.89743  23890359.99843
      4635.754        3612.271  
 108979301.393    84761701.039    20437046.015 7  20437045.813 7  20437051.780 7
      1098.889         854.695  
 103587596.563    80568155.182    19378203.029 8  19378202.634 8  19378206.320 7
      3847.248        2992.314  
 107727431.770    83788026.603    20159720.255 7  20159720.909 7  20159724.815 7
      5940.423        4620.332  
 119086890.041    92794997.9624   22661483.164 7  22661482.23744  22661486.81944
      -102.031         -79.484  
 11  5 30  7 31  0.0000000  0 13G30G 4G 2G 7G23G10G13R14G16R 3R 5R15
                                G20                                 
 124432271.380    96960229.8494   23678674.957 6  23678675.33143  23678680.25243
      3271.559        2549.271  
 112265618.768    87479722.7134   21363438.202 8  21363437.99946  21363441.96646
      2003.670        1561.306  
 119199595.864                    22682928.308 5                                
      5118.865                  
 119280900.887    92946176.2124   22698401.440 7  22698401.59645  22698404.46145
      6435.398        5014.596  
 110207489.351    85875984.2874   20971788.539 8  20971788.02046  20971789.59646
      1192.119         928.917  
 112505162.874    87666381.5384   21409020.798 7  21409019.90845  21409024.75844
      5414.211        4218.869  
 105155698.632    81939524.3194   20010464.540 8  20010464.40246  20010467.12546
      3171.929        2471.630  
 108570174.005                    20367488.312 7  20367487.791 7                
      1242.927                  
 125521490.679    97808975.4004   23885944.037 6  23885943.45943  23885948.47743
      4637.105        3613.332  
 108973806.914    84757427.548    20436015.385 7  20436015.338 7  20436021.600 7
      1098.973         854.756  
 103568356.118    80553190.390    19374603.733 8  19374603.265 8  19374606.947 7
      3848.808        2993.517  
 107697728.673    83764924.205    20154162.984 7  20154162.466 7  20154166.428 7
      5940.720        4620.550  
 119087393.547    92795390.3004   22661577.400 7  22661577.57244  22661582.59744
       -99.320         -77.405  
 11  5 30  7 31  5.0000000  0 13G30G 4G 2G 7G23G10G13R14G16R 3R 5R15
                                G20                                 
 124415911.376    96947481.7984   23675562.104 6  23675562.20943  23675567.24143
      3272.283        2549.850  
 112255598.863    87471914.9874   21361531.530 8  21361531.22746  21361535.26346
      2004.525        1561.973  
 119173997.692                    22678058.395 5                                
      5120.258                  
 119248717.698    92921098.4034   22692277.380 7  22692277.17345  22692280.21545
      6437.925        5016.576  
 110201522.744    85871334.9834   20970652.714 8  20970652.61146  20970654.22246
      1194.498         930.788  
 112478085.434    87645282.2304   21403867.825 7  21403867.24044  21403871.89044
      5416.729        4220.821  
 105139835.013    81927163.0524   20007445.801 8  20007445.69946  20007448.40546
      3173.560        2472.916  
 108563958.945                    20366322.096 7  20366322.072 7                
      1243.063                  
 125498301.933    97790906.2554   23881532.451 6  23881531.53143  23881535.91943
      4638.246        3614.226  
 108968312.102    84753153.801    20434985.470 7  20434985.336 7  20434991.165 7
      1099.057         854.829  
 103549108.289    80538219.854    19371003.139 8  19371002.445 8  19371006.391 7
      3850.340        2994.713  
 107668023.749    83741820.385    20148603.993 7  20148603.678 7  20148607.722 7
      5941.166        4620.907  
 119087883.351    92795771.9484   22661670.868 7  22661670.62345  22661675.82045
       -96.632         -75.313  
 11  5 30  7 31 10.0000000  0 13G30G 4G 2G 7G23G10G13R14G16R 3R 5R15
                                G20                                 
 124399548.583    96934731.5664   23672448.364 6  23672448.13843  23672453.30843
      3272.679        2550.154  
 112245574.847    87464104.0664   21359623.805 8  21359623.66546  21359627.75046
      2005.160        1562.463  
 119148393.058                    22673185.418 5                                
      5121.542                  
 119216521.562    92896010.5114   22686151.210 7  22686150.36045  22686153.63545
      6440.572        5018.621  
 110195544.504    85866676.6084   20969515.076 8  20969514.96346  20969516.51546
      1196.868         932.625  
 112450996.687    87624174.1164   21398712.516 7  21398712.08644  21398716.89944
      5418.907        4222.530  
 105123963.350    81914795.5194   20004425.635 8  20004425.46146  20004428.10246
      3175.028        2474.061  
 108557744.070                    20365156.103 7  20365155.999 7                
      1242.976                  
 125475106.517    97772831.9084   23877118.589 6  23877117.42543  23877122.17643
      4639.804        3615.427  
 108962816.883    84748879.741    20433955.558 7  20433955.238 7  20433960.489 7
      1099.083         854.845  
 103529852.963    80523243.490    19367400.545 8  19367400.216 8  19367404.033 7
      3851.743        2995.799  
 107638316.541    83718714.786    20143044.691 7  20143044.294 7  20143048.339 7
      5941.662        4621.280  
 119088359.344    92796142.8444   22661761.478 7  22661761.16444  22661766.16044
       -93.717         -73.027  
 11  5 30  7 31 15.0000000  0 13G30G 4G 2G 7G23G10G13R14G16R 3R 5R15
                                G20                                 
 124383183.024    96921979.1864   23669333.927 6  23669333.90543  23669339.05343
      3273.368        2550.666  
 112235546.796    87456290.0004   21357715.567 8  21357715.49846  21357719.46746
      2005.831        1562.985  
 119122782.119                    22668311.275 5                                
      5122.517                  
 119184312.661    92870912.6754   22680022.221 7  22680021.16845  22680024.58145
      6442.973        5020.492  
 110189554.795    85862009.3004   20968375.405 8  20968375.15846  20968376.62146
      1198.939         934.233  
 112423896.772    87603057.3124   21393556.067 7  21393555.01744  21393559.85344
      5421.043        4224.189  
 105108083.854    81902421.8874   20001403.786 8  20001403.69647  20001406.32246
      3176.635        2475.287  
 108551529.556                    20363989.872 7  20363989.697 7                
      1242.727                  
 125451904.629    97754752.5394   23872702.602 6  23872702.01643  23872707.53643
      4640.945        3616.323  
 108957321.358    84744605.443    20432924.215 7  20432924.103 7  20432929.887 7
      1099.055         854.814  
 103510590.279    80508261.400    19363797.422 8  19363796.875 8  19363800.643 7
      3853.209        2996.934  
 107608607.286    83695607.590    20137484.585 7  20137484.749 7  20137488.560 7
      5942.041        4621.583  
 119088821.729    92796503.1454   22661849.832 7  22661849.35244  22661854.20844
       -91.101         -70.973  
 11  5 30  7 31 20.0000000  0 13G30G 4G 2G 7G23G10G13R14G16R 3R 5R15
                                G20                                 
 124366814.990    96909224.8804   23666219.013 6  23666219.07543  23666223.98143
      3273.893        2551.050  
 112225514.871    87448472.9084   21355807.237 7  21355806.48146  21355810.45046
      2006.625        1563.606  
 119097164.969                    22663436.911 5                                
      5124.517                  
 119152091.198    92845805.0544   22673890.470 7  22673889.22045  22673893.03245
      6445.537        5022.495  
 110183553.776    85857333.1774   20967233.395 7  20967233.27546  20967234.55946
      1201.262         936.052  
 112396785.909    87581931.9644   21388397.714 7  21388396.03544  21388400.76544
      5423.320        4225.949  
 105092196.690    81890042.2774   19998380.305 8  19998380.46547  19998383.12146
      3178.259        2476.569  
 108545315.479                    20362824.475 7  20362823.646 7                
      1242.908                  
 125428696.437    97736668.2504   23868284.744 6  23868285.48943  23868291.08243
      4642.326        3617.373  
 108951825.730    84740331.058    20431893.488 7  20431893.344 7  20431899.352 7
      1099.021         854.797  
 103491320.547    80493273.836    19360192.476 8  19360192.020 8  19360195.488 8
      3854.685        2998.080  
 107578896.561    83672499.248    20131924.055 7  20131924.571 7  20131928.417 7
      5942.355        4621.830  
 119089270.659    92796852.9434   22661936.109 7  22661934.79444  22661939.74044
       -88.412         -68.885  
 11  5 30  7 31 25.0000000  0 13G30G 4G 2G 7G23G10G13R14G16R 3R 5R15
                                G20                                 
 124350444.448    96896468.6204   23663103.980 6  23663104.01143  23663108.62943
      3274.228        2551.344  
 112215479.119    87440652.8334   21353896.645 8  21353896.80746  21353900.64446
      2007.482        1564.275  
 119071541.841                    22658560.903 5                                
      5124.912                  
 119119857.193    92820687.6574   22667756.434 7  22667755.29745  22667759.18045
      6448.030        5024.436  
 110177541.450    85852648.2494   20966089.535 8  20966089.11946  20966090.26646
      1203.610         937.877  
 112369664.099    87560798.0884   21383237.112 7  21383235.36544  21383239.99144
      5425.592        4227.728  
 105076301.882    81877656.7104   19995355.867 8  19995355.80346  19995358.45146
      3179.844        2477.810  
 108539101.915                    20361659.083 7  20361658.652 7                
      1242.681                  
 125405482.013    97718579.0874   23863867.252 6  23863867.58943  23863873.66643
      4643.407        3618.231  
 108946329.846    84736056.476    20430863.502 7  20430863.004 7  20430868.489 7
      1099.135         854.883  
 103472043.766    80478280.781    19356586.473 8  19356586.212 8  19356589.498 7
      3856.039        2999.144  
 107549184.008    83649389.482    20126364.688 7  20126364.288 7  20126368.373 7
      5942.704        4622.098  
 119089706.161    92797192.2864   22662019.852 7  22662017.87444  22662022.51544
       -85.771         -66.833  
 11  5 30  7 31 30.0000000  0 13G30G 4G 2G 7G23G10G13R14G16R 3R 5R15
                                G20                                 
 124334071.659    96883710.6004   23659988.942 6  23659988.69443  23659992.64543
      3274.979        2551.928  
 112205439.802    87432829.9934   21351986.348 8  21351986.35546  21351990.20446
      2008.243        1564.861  
 119045912.773                    22653683.536 4                                
      5125.959                  
 119087610.929    92795560.7034   22661619.035 7  22661619.14145  22661622.95645
      6450.639        5026.467  
 110171518.036    85847954.6774   20964943.611 8  20964942.96046  20964944.04346
      1205.786         939.560  
 112342531.652    87539655.9254   21378073.698 7  21378072.28944  21378076.82044
      5427.427        4229.161  
 105060399.683    81865265.3834   19992329.924 8  19992329.73946  19992332.32546
      3181.222        2478.875  
 108532889.064                    20360494.083 7  20360494.072 7                
      1242.541                  
 125382261.563    97700485.2194   23859449.726 6  23859449.14043  23859455.09743
      4644.817        3619.352  
 108940834.052    84731781.976    20429833.034 8  20429832.779 7  20429837.498 7
      1099.138         854.876  
 103452760.123    80463282.386    19352979.488 8  19352978.941 8  19352982.371 7
      3857.421        3000.215  
 107519469.976    83626278.578    20120803.420 7  20120803.621 7  20120807.884 7
      5943.081        4622.396  
 119090128.504    92797521.3744   22662099.772 7  22662098.38244  22662102.68544
       -83.075         -64.726  
 11  5 30  7 31 35.0000000  0 13G30G 4G 2G 7G23G10G13R14G16R 3R 5R15
                                G20                                 
 124317696.574    96870950.7964   23656872.843 6  23656872.90443  23656876.42843
      3275.218        2552.116  
 112195396.708    87425004.1964   21350074.764 8  21350075.01946  21350078.95646
      2009.153        1565.572  
 119020277.723                    22648803.978 5                                
      5128.060                  
 119055352.320    92770424.1234   22655480.428 7  22655480.70245  22655484.41345
      6453.085        5028.384  
 110165483.475    85843252.4154   20963794.992 8  20963794.55246  20963795.65446
      1208.061         941.351  
 112315388.415    87518505.3534   21372907.710 7  21372906.93344  21372911.46144
      5429.716        4230.956  
 105044489.979    81852868.2104   19989302.321 8  19989302.25746  19989304.84946
      3182.788        2480.087  
 108526676.880                    20359328.321 7  20359328.194 7                
      1242.430                  
 125359035.010    97682386.6134   23855030.756 6  23855029.30143  23855034.99343
      4645.963        3620.212  
 108935338.241    84727507.458    20428802.837 8  20428802.281 7  20428807.179 7
      1099.241         854.969  
 103433469.595    80448278.647    19349370.351 8  19349369.740 8  19349373.795 7
      3858.832        3001.319  
 107489754.166    83603166.282    20115242.057 7  20115242.518 7  20115246.955 7
      5943.323        4622.591  
 119090537.538    92797840.0924   22662176.840 7  22662176.44444  22662180.71044
       -80.418         -62.656  
 11  5 30  7 31 40.0000000  0 13G30G 4G 2G 7G23G10G13R14G16R 3R 5R15
                                G20                                 
 124301319.520    96858189.4704   23653756.871 6  23653756.20243  23653760.09543
      3275.409        2552.268  
 112185350.399    87417175.8994   21348163.408 8  21348163.25146  21348167.10946
      2009.569        1565.893  
 118994637.181                    22643924.814 5                                
      5128.860                  
 119023081.697    92745278.1854   22649340.149 7  22649339.75745  22649343.48145
      6455.383        5030.159  
 110159438.030    85838541.6764   20962644.770 8  20962644.13246  20962645.25846
      1210.195         943.012  
 112288234.775    87497346.6704   21367740.758 7  21367739.61044  21367744.15844
      5431.729        4232.505  
 105028573.121    81840465.4594   19986273.466 8  19986273.32546  19986275.92347
      3184.086        2481.106  
 108520465.647                    20358162.307 7  20358161.961 7                
      1242.089                  
 125335802.741    97664283.5624   23850609.710 6  23850609.01843  23850614.25443
      4647.144        3621.159  
 108929842.924    84723233.320    20427771.066 7  20427771.170 7  20427777.045 7
      1099.143         854.893  
 103414172.455    80433269.763    19345760.281 8  19345759.900 8  19345764.017 7
      3860.004        3002.225  
 107460037.576    83580053.383    20109681.214 7  20109681.231 7  20109685.957 7
      5943.355        4622.608  
 119090933.667    92798148.7504   22662252.547 7  22662251.97944  22662256.08644
       -78.007         -60.783  
 11  5 30  7 31 45.0000000  0 13G30G 4G 2G 7G23G10G13R14G16R 3R 5R15
                                G20                                 
 124284940.547    96845426.6204   23650638.129 6  23650638.99843  23650643.76143
      3275.981        2552.729  
 112175300.768    87409345.0104   21346251.120 8  21346250.75446  21346254.70046
      2010.328        1566.488  
 118968991.134                    22639043.366 5                                
      5129.846                  
 118990799.157    92720122.9644   22643196.593 7  22643196.47345  22643200.38145
      6457.650        5031.944  
 110153381.843    85833822.5654   20961491.993 8  20961491.68246  20961492.68746
      1212.275         944.637  
 112261070.832    87476179.9654   21362571.747 7  21362570.65744  21362574.78644
      5433.822        4234.136  
 105012649.159    81828057.1784   19983242.804 8  19983243.12646  19983245.68046
      3185.485        2482.202  
 108514255.410                    20356997.881 7  20356997.154 7                
      1241.981                  
 125312564.840    97646176.1084   23846188.012 6  23846187.43443  23846192.43443
      4648.257        3622.007  
 108924348.146    84718959.587    20426740.410 8  20426740.168 7  20426747.330 7
      1098.961         854.754  
 103394868.828    80418255.832    19342149.825 8  19342148.927 8  19342152.777 7
      3861.352        3003.276  
 107430319.825    83556939.583    20104120.788 7  20104119.967 7  20104124.515 7
      5943.871        4623.008  
 119091316.915    92798447.3694   22662326.052 7  22662325.28444  22662328.90745
       -75.371         -58.732  
 11  5 30  7 31 50.0000000  0 13G30G 4G 2G 7G23G10G13R14G16R 3R 5R15
                                G20                                 
 124268559.621    96832662.2534   23647520.812 6  23647521.47443  23647526.20443
      3276.279        2552.952  
 112165247.773    87401511.5064   21344337.551 8  21344337.51046  21344341.63846
      2010.960        1566.974  
 118943339.497    92683131.2754   22634164.311 5  22634164.41141  22634169.00941
      5130.838        3998.045  
 118958504.609    92694958.3914   22637051.219 7  22637051.14345  22637054.96945
      6460.229        5033.938  
 110147314.785    85829094.9784   20960337.925 8  20960337.24846  20960338.15546
      1214.478         946.348  
 112233896.476    87455005.1514   21357400.781 7  21357399.52544  21357403.76244
      5435.825        4235.708  
 104996718.020    81815643.3024   19980211.514 8  19980211.56746  19980214.10847
      3186.978        2483.355  
 108508046.065                    20355833.030 7  20355832.709 7                
      1241.750                  
 125289321.168    97628064.1634   23841764.893 6  23841763.87843  23841769.14743
      4649.175        3622.743  
 108918853.573    84714686.023    20425710.285 7  20425710.505 7  20425716.804 7
      1098.882         854.679  
 103375558.587    80403236.753    19338537.465 8  19338536.724 8  19338540.315 7
      3862.685        3004.310  
 107400600.609    83533824.636    20098557.435 7  20098558.645 7  20098563.081 7
      5944.050        4623.140  
 119091687.189    92798735.8874   22662396.262 7  22662395.62444  22662399.46044
       -72.628         -56.579  
 11  5 30  7 31 55.0000000  0 13G30G 4G 2G 7G23G10G13R14G16R 3R 5R15
                                G20                                 
 124252177.154    96819896.6984   23644404.330 6  23644404.19743  23644408.97243
      3276.811        2553.379  
 112155191.835    87393675.7094   21342423.971 8  21342423.86946  21342427.89045
      2011.468        1567.374  
 118917682.826    92663139.0854   22629280.040 5  22629282.10341  22629284.71941
      5131.725        3998.753  
 118926198.550    92669784.8414   22630903.812 7  22630903.57845  22630907.40145
      6462.391        5035.627  
 110141237.339    85824359.3024   20959180.744 8  20959180.69346  20959181.65246
      1216.506         947.944  
 112206712.162    87433822.5684   21352228.385 7  21352226.70044  21352231.11744
      5437.841        4237.292  
 104980780.153    81803224.1804   19977178.962 8  19977178.71146  19977181.15347
      3188.324        2484.412  
 108501838.121                    20354668.540 7  20354668.485 7                
      1241.311                  
 125266072.220    97609948.1194   23837341.086 6  23837340.14043  23837345.60743
      4650.144        3623.481  
 108913359.635    84710412.961    20424680.815 8  20424680.631 7  20424686.104 7
      1098.648         854.502  
 103356242.410    80388213.063    19334923.448 8  19334923.238 8  19334926.864 7
      3863.782        3005.152  
 107370881.055    83510709.425    20092996.886 7  20092996.838 7  20093001.516 7
      5943.959        4623.081  
 119092044.952    92799014.6534   22662464.321 7  22662463.65444  22662467.50244
       -70.287         -54.760  
 11  5 30  7 32  0.0000000  0 14G30G 4G 2G 7G23G10G13R 6R14G16R 3R 5
                                R15G20                              
 124235792.965    96807129.7994   23641286.864 6  23641286.42443  23641291.28343
      3276.849        2553.389  
 112145132.844    87385837.5284   21340509.911 7  21340509.74146  21340513.66046
      2012.022        1567.808  
 118892020.768    92643142.6464   22624395.371 5  22624396.89041  22624399.78241
      5132.451        3999.317  
 118893880.789    92644602.1764   22624753.657 7  22624753.75045  22624757.50045
      6464.563        5037.318  
 110135149.306    85819615.3734   20958022.822 8  20958022.23846  20958022.97346
      1218.627         949.573  
 112179517.715    87412632.0874   21347053.212 7  21347051.97244  21347056.01344
      5439.915        4238.882  
 104964835.332    81790799.6444   19974144.767 8  19974144.50846  19974146.97546
      3189.546        2485.345  
 118164434.535                    22143969.879                                  
      6604.790                  
 108495631.340                    20353504.013 7  20353504.013 7                
      1241.299                  
 125242817.849    97591827.8364   23832915.614 6  23832914.72043  23832920.16943
      4651.107        3624.248  
 108907866.227    84706140.309    20423650.349 8  20423650.101 7  20423655.527 7
      1098.464         854.356  
 103336919.786    80373184.351    19331309.081 8  19331308.604 8  19331312.305 7
      3865.085        3006.177  
 107341160.504    83487593.446    20087435.542 7  20087435.088 7  20087439.589 7
      5944.106        4623.188  
 119092389.980    92799283.4984   22662530.447 7  22662529.39144  22662533.26744
       -67.844         -52.871  
 11  5 30  7 32  5.0000000  0 14G30G 4G 2G 7G23G10G13R 6R14G16R 3R 5
                                R15G20                              
 124219407.492    96794361.9094   23638167.989 6  23638168.15343  23638173.43943
      3277.186        2553.665  
 112135071.138    87377997.2384   21338595.059 8  21338594.98046  21338599.04145
      2012.445        1568.140  
 118866353.818    92623142.4724   22619511.163 5  22619511.53741  22619514.41841
      5134.554        4000.960  
 118861551.735    92619410.7044   22618601.506 7  22618601.78145  22618605.74645
      6466.921        5039.161  
 110129051.064    85814863.4894   20956862.729 8  20956861.77946  20956862.48346
      1220.601         951.130  
 112152313.578    87391434.0574   21341876.086 7  21341875.23544  21341878.99344
      5441.749        4240.333  
 104948884.021    81778370.0464   19971108.822 8  19971109.07246  19971111.51246
      3190.871        2486.414  
 118131403.405    91880024.901    22137777.289 4  22137776.333    22137778.947  
      6607.562        5139.239  
 108489426.038                    20352339.913 7  20352339.652 7                
      1240.707                  
 125219558.451    97573703.6474   23828489.179 6  23828488.81243  23828494.00443
      4652.493        3625.309  
 108902373.842    84701868.451    20422620.317 7  20422619.765 7  20422625.551 7
      1098.341         854.269  
 103317591.435    80358151.191    19327693.395 8  19327692.912 8  19327696.557 7
      3866.203        3007.038  
 107311439.555    83464477.159    20081873.190 7  20081873.356 7  20081877.832 7
      5944.274        4623.317  
 119092722.686    92799542.7434   22662593.088 7  22662592.42844  22662596.73244
       -65.384         -50.936  
 11  5 30  7 32 10.0000000  0 14G30G 4G 2G 7G23G10G13R 6R14G16R 3R 5
                                R15G20                              
 124203020.551    96781592.8654   23635050.307 6  23635050.39743  23635055.19443
      3277.510        2553.879  
 112125006.599    87370154.7374   21336679.885 7  21336679.75545  21336683.77446
      2013.240        1568.756  
 118840681.866    92603138.3454   22614624.827 5  22614625.92441  22614628.76541
      5134.760        4001.074  
 118829211.250    92594210.3274   22612447.217 7  22612447.68745  22612451.51545
      6469.376        5041.066  
 110122942.506    85810103.5694   20955700.123 8  20955699.31146  20955700.04046
      1222.856         952.871  
 112125099.580    87370228.3464   21336697.719 7  21336696.21344  21336700.06544
      5443.747        4241.896  
 104932926.023    81765935.2404   19968072.399 8  19968072.35846  19968074.78546
      3192.395        2487.574  
 118098356.385    91854321.692    22131582.863 5  22131583.304    22131590.013  
      6610.800        5141.684  
 108483222.253                    20351175.410 7  20351175.250 7                
      1240.571                  
 125196293.900    97555575.4294   23824063.256 6  23824062.23543  23824067.38043
      4653.467        3626.087  
 108896882.238    84697597.203    20421590.065 7  20421589.660 7  20421595.871 7
      1098.401         854.317  
 103298257.011    80343113.307    19324076.019 8  19324075.521 8  19324079.459 7
      3867.434        3007.998  
 107281718.003    83441360.395    20076310.692 7  20076311.336 7  20076315.726 7
      5944.533        4623.521  
 119093042.904    92799792.2524   22662654.380 7  22662653.28844  22662657.70244
       -62.717         -48.860  
 11  5 30  7 32 15.0000000  0 14G30G 4G 2G 7G23G10G13R 6R14G16R 3R 5
                                R15G20                              
 124186632.347    96768822.8374   23631932.147 6  23631932.16443  23631936.70543
      3277.636        2553.991  
 112114939.381    87362310.1514   21334764.515 8  21334764.32846  21334768.12246
      2013.698        1569.106  
 118815005.120    92583130.5004   22609740.151 5  22609739.26641  22609742.82841
      5135.941        4002.021  
 118796859.539    92569001.2044   22606291.185 7  22606291.22745  22606295.03945
      6471.416        5042.655  
 110116823.868    85805335.7884   20954535.777 8  20954535.09746  20954535.66246
      1224.848         954.429  
 112097875.917    87349015.1064   21331517.003 7  21331515.69144  21331519.47944
      5445.568        4243.280  
 104916961.507    81753495.3584   19965034.606 8  19965034.47946  19965036.83146
      3193.509        2488.442  
 118065293.572    91828606.153    22125387.975 5  22125387.106 5  22125394.818  
      6613.954        5144.225  
 108477019.963                    20350012.190 7  20350011.628 7                
      1240.199                  
 125173024.430    97537443.3744   23819635.478 6  23819634.50543  23819639.17043
      4654.496        3626.871  
 108891391.542    84693326.654    20420560.308 7  20420560.132 7  20420566.300 7
      1097.934         853.937  
 103278916.784    80328070.909    19320457.759 8  19320457.293 8  19320461.698 7
      3868.472        3008.803  
 107251995.876    83418243.185    20070749.072 7  20070749.245 7  20070753.605 7
      5944.377        4623.398  
 119093350.828    92800032.1794   22662712.381 7  22662711.72544  22662716.19544
       -60.435         -47.090  
 11  5 30  7 32 20.0000000  0 14G30G 4G 2G 7G23G10G13R 6R14G16R 3R 5
                                R15G20                              
 124170243.171    96756052.0464   23628812.815 6  23628813.06843  23628818.18643
      3277.809        2554.110  
 112104869.738    87354463.6714   21332848.464 7  21332848.29346  21332852.03746
      2014.141        1569.464  
 118789323.872    92563119.1294   22604854.738 5  22604852.53741  22604852.92941
      5137.073        4002.986  
 118764496.847    92543783.5284   22600133.104 7  22600132.73745  22600136.63145
      6473.766        5044.485  
 110110695.310    85800560.2824   20953369.838 8  20953368.88546  20953369.37546
      1226.883         956.006  
 112070642.875    87327794.5534   21326334.751 7  21326333.59544  21326337.48944
      5447.467        4244.765  
 104900990.757    81741050.6164   19961995.594 8  19961995.35346  19961997.73146
      3194.649        2489.335  
 118032215.119    91802878.430    22119188.530 5  22119187.512 5  22119195.241 4
      6616.930        5146.493  
 108470819.435                    20348848.742 7  20348849.138 7                
      1239.933                  
 125149750.251    97519307.6734   23815206.203 6  23815205.53143  23815210.35643
      4655.310        3627.493  
 108885902.110    84689057.097    20419531.272 8  20419531.174 7  20419536.797 7
      1097.805         853.841  
 103259571.104    80313024.274    19316838.208 8  19316838.293 8  19316842.617 7
      3869.791        3009.838  
 107222273.879    83395126.087    20065187.670 7  20065187.244 7  20065191.392 7
      5944.480        4623.482  
 119093646.687    92800262.7174   22662768.795 7  22662768.11144  22662772.50444
       -57.947         -45.162  
 11  5 30  7 32 25.0000000  0 14G30G 4G 2G 7G23G10G13R 6R14G16R 3R 5
                                R15G20                              
 124153852.906    96743280.4104   23625693.628 6  23625694.02443  23625699.58443
      3278.070        2554.336  
 112094797.576    87346615.2284   21330931.577 8  21330931.66446  21330935.29546
      2014.575        1569.801  
 118763637.952    92543104.1324   22599965.604 5  22599966.58941  22599965.21741
      5138.074        4003.679  
 118732123.121    92518557.2524   22593972.366 7  22593972.17045  22593976.01445
      6475.721        5046.017  
 110104556.756    85795776.9874   20952201.494 8  20952200.75146  20952201.32946
      1228.520         957.282  
 112043400.339    87306566.6024   21321150.909 7  21321149.94244  21321153.62744
      5449.364        4246.257  
 104885013.716    81728600.9694   19958955.474 8  19958955.10247  19958957.39947
      3195.938        2490.343  
 117999121.059    91777138.591    22112986.444 5  22112984.408 4  22112994.755 4
      6620.099        5148.949  
 108464620.659                    20347686.937 7  20347686.174 7                
      1239.383                  
 125126471.290    97501168.2294   23810775.571 6  23810775.56543  23810780.86743
      4656.076        3628.098  
 108880413.789    84684788.403    20418502.088 7  20418501.704 7  20418507.622 7
      1097.334         853.480  
 103240219.795    80297973.254    19313219.068 8  19313218.453 8  19313222.221 7
      3870.589        3010.458  
 107192551.669    83372008.812    20059625.556 7  20059625.292 7  20059629.226 7
      5944.222        4623.284  
 119093930.425    92800483.7964   22662823.054 7  22662822.10044  22662826.36144
       -55.602         -43.327  
 11  5 30  7 32 30.0000000  0 14G30G 4G 2G 7G23G10G13R 6R14G16R 3R 5
                                R15G20                              
 124137462.009    96730508.2664   23622574.440 6  23622574.82443  23622580.20043
      3278.292        2554.512  
 112084723.287    87338765.1244   21329014.677 8  21329014.79146  21329018.16546
      2015.068        1570.178  
 118737947.928    92523085.8994   22595077.072 5  22595076.66241  22595078.94141
      5138.163        4003.784  
 118699738.804    92493322.7254   22587809.088 7  22587809.60645  22587813.35445
      6477.905        5047.716  
 110098408.595    85790986.2074   20951031.258 8  20951030.65546  20951031.50046
      1230.587         958.902  
 112016148.792    87285331.6324   21315964.902 7  21315963.92244  21315968.07444
      5451.018        4247.543  
 104869030.814    81716146.7594   19955913.711 8  19955913.60947  19955915.96746
      3197.172        2491.306  
 117966011.872    91751386.972    22106781.484 5  22106780.213 4  22106790.269 4
      6622.773        5151.051  
 108458424.016                    20346523.211 7  20346522.969 7                
      1239.086                  
 125103187.988    97483025.4054   23806345.139 6  23806344.43643  23806349.95943
      4657.125        3628.941  
 108874926.934    84680520.839    20417471.872 7  20417472.108 7  20417478.488 7
      1097.214         853.384  
 103220863.362    80282918.251    19309597.875 8  19309597.457 8  19309601.102 7
      3871.836        3011.422  
 107162829.804    83348891.809    20054063.399 7  20054063.307 7  20054066.893 7
      5944.301        4623.341  
 119094202.433    92800695.7494   22662875.388 7  22662873.80544  22662878.09444
       -53.274         -41.502  
 11  5 30  7 32 35.0000000  0 15G30G 4G 2G 7G23G10R21G13R 6R14G16R 3
                                R 5R15G20                           
 124121070.301    96717735.5024   23619455.911 6  23619455.34143  23619460.95543
      3278.628        2554.766  
 112074646.720    87330913.2514   21327097.294 8  21327097.35146  21327100.75646
      2015.603        1570.593  
 118712253.487    92503064.2854   22590187.170 5  22590186.95541  22590189.71241
      5139.416        4004.745  
 118667343.776    92468079.8494   22581644.846 7  22581645.07445  22581648.77045
      6480.027        5049.366  
 110092250.707    85786187.8474   20949859.659 8  20949858.88846  20949859.81146
      1232.531         960.408  
 111988888.098    87264089.5334   21310777.150 7  21310776.30844  21310780.61244
      5453.072        4249.131  
 119918820.749                    22409697.264 3                                
      1510.036                  
 104853041.864    81703687.8344   19952870.980 8  19952871.03146  19952873.31846
      3198.436        2492.279  
 117932887.183    91725623.295    22100570.351 4  22100572.672 4  22100582.095 4
      6626.144        5153.624  
 108452229.423                    20345361.280 7  20345361.124 7                
      1238.827                  
 125079900.207    97464879.0984   23801913.482 6  23801912.50343  23801918.20243
      4658.130        3629.690  
 108869441.444    84676254.337    20416443.297 7  20416443.335 7  20416449.743 7
      1096.943         853.172  
 103201501.554    80267859.066    19305976.212 8  19305975.419 8  19305978.912 7
      3872.853        3012.205  
 107133108.251    83325775.051    20048500.889 7  20048501.361 7  20048505.074 7
      5944.404        4623.425  
 119094462.564    92800898.4514   22662923.760 7  22662923.08344  22662927.51244
       -50.892         -39.657  
 11  5 30  7 32 40.0000000  0 15G30G 4G 2G 7G23G10R21G13R 6R14G16R 3
                                R 5R15G20                           
 124104677.830    96704962.1614   23616336.805 6  23616336.16043  23616341.75243
      3278.556        2554.727  
 112064567.943    87323059.6504   21325179.576 8  21325179.43346  21325182.83746
      2015.895        1570.823  
 118686554.861    92483039.3854   22585296.500 5  22585296.47441  22585300.30841
      5140.298        4005.465  
 118634938.114    92442828.6854   22575478.822 7  22575478.61145  22575482.30445
      6482.139        5051.013  
 110086083.170    85781381.9674   20948685.584 8  20948685.26246  20948686.25146
      1234.395         961.868  
 111961618.318    87242840.3564   21305587.935 7  21305586.97044  21305590.97744
      5454.745        4250.461  
 119911270.697                    22408286.755 5                                
      1510.295                  
 104837046.942    81691224.2574   19949827.334 8  19949827.23046  19949829.57546
      3199.599        2493.199  
 117899747.346    91699847.867    22094361.908 4  22094361.306 4  22094371.905 4
      6629.457        5156.239  
 108446036.882                    20344200.018 7  20344199.801 7                
      1238.278                  
 125056608.065    97446729.3964   23797480.414 6  23797480.61843  23797485.43243
      4658.839        3630.257  
 108863957.358    84671988.932    20415416.230 8  20415415.732 7  20415421.091 7
      1096.624         852.926  
 103182134.497    80252795.800    19302352.601 8  19302352.395 8  19302355.780 7
      3873.840        3012.991  
 107103386.896    83302658.449    20042938.668 7  20042939.279 7  20042943.146 7
      5944.132        4623.216  
 119094710.941    92801091.9744   22662970.925 7  22662970.39444  22662974.82444
       -48.570         -37.865  
 11  5 30  7 32 45.0000000  0 15G30G 4G 2G 7G23G10R21G13R 6R14G16R 3
                                R 5R15G20                           
 124088284.920    96692188.4734   23613216.795 6  23613217.16243  23613222.29543
      3278.647        2554.808  
 112054487.280    87315204.5824   21323261.246 8  21323261.06246  21323264.53646
      2016.264        1571.118  
 118660852.148    92463011.3294   22580406.372 5  22580404.92241  22580409.12041
      5140.984        4005.974  
 118602522.038    92417569.4154   22569309.927 7  22569310.10445  22569313.56245
      6484.207        5052.628  
 110079906.188    85776568.7274   20947510.365 8  20947509.78346  20947511.00446
      1236.219         963.300  
 111934339.683    87221584.2794   21300397.149 7  21300396.04944  21300399.87344
      5456.525        4251.826  
 119903722.130    93258471.285    22406880.871 5  22406876.361 5  22406877.346  
      1509.437        1173.989  
 104821046.332    81678756.2494   19946782.690 8  19946782.48046  19946784.70346
      3200.642        2494.005  
 117866592.618    91674060.862    22088149.316 4  22088149.417 4  22088159.019 4
      6632.390        5158.503  
 108439846.618                    20343038.652 7  20343038.202 7                
      1237.837                  
 125033311.824    97428576.4764   23793048.117 6  23793047.87843  23793051.92143
      4659.739        3630.962  
 108858475.028    84667724.906    20414388.248 8  20414388.199 7  20414392.740 7
      1096.165         852.577  
 103162762.468    80237728.662    19298729.008 8  19298728.427 8  19298731.853 7
      3874.824        3013.757  
 107073665.982    83279542.188    20037376.940 7  20037377.395 7  20037381.404 7
      5944.149        4623.228  
 119094947.721    92801276.4654   22663015.418 7  22663015.41244  22663020.08144
       -46.305         -36.069  
 11  5 30  7 32 50.0000000  0 15G30G 4G 2G 7G23G10R21G13R 6R14G16R 3
                                R 5R15G20                           
 124071891.726    96679414.5434   23610096.435 7  23610097.19143  23610102.46643
      3278.487        2554.680  
 112044404.846    87307348.1374   21321342.731 8  21321342.45846  21321345.76646
      2016.639        1571.404  
 118635145.712    92442980.3614   22575514.727 5  22575514.14841  22575517.27241
      5141.723        4006.441  
 118570095.804    92392302.2244   22563139.917 7  22563139.78545  22563143.01845
      6486.391        5054.332  
 110073719.884    85771748.2214   20946332.956 8  20946332.68846  20946333.75046
      1238.198         964.819  
 111907052.410    87200321.4714   21295204.267 7  21295203.64544  21295207.14844
      5458.258        4253.202  
 119896175.215    93252601.444    22405467.266 5  22405466.129 5  22405466.787 4
      1509.348        1173.929  
 104805040.148    81666283.8934   19943736.716 8  19943736.55946  19943738.88746
      3201.777        2494.898  
 117833423.017    91648262.293    22081937.812 4  22081934.459 4  22081941.628 4
      6635.384        5160.849  
 108433658.851                    20341877.786 7  20341877.312 7                
      1237.250                  
 125010011.607    97410420.4794   23788614.418 6  23788613.51643  23788617.90043
      4660.371        3631.464  
 108852994.424    84663462.214    20413359.779 7  20413359.891 7  20413364.975 7
      1096.071         852.513  
 103143385.678    80222657.823    19295103.874 8  19295103.595 8  19295106.929 7
      3875.875        3014.572  
 107043945.810    83256426.504    20031816.226 7  20031815.945 7  20031819.599 7
      5943.861        4623.002  
 119095173.069    92801452.0634   22663058.628 7  22663058.09344  22663063.01544
       -43.873         -34.186  
 11  5 30  7 32 55.0000000  0 15G30G 4G 2G 7G23G10R21G13R 6R14G16R 3
                                R 5R15G20                           
 124055498.178    96666640.3554   23606977.805 7  23606977.62243  23606983.10543
      3278.817        2554.934  
 112034320.603    87299490.2814   21319423.405 8  21319423.43346  21319426.94246
      2017.069        1571.744  
 118609435.422    92422946.3854   22570623.196 5  22570622.66941  22570624.45841
      5142.611        4007.277  
 118537659.300    92367027.0294   22556967.352 7  22556967.28145  22556970.55045
      6488.313        5055.841  
 110067524.220    85766920.4294   20945154.246 8  20945153.65646  20945154.82246
      1240.038         966.261  
 111879756.391    87179051.8444   21290009.739 7  21290008.94244  21290012.86944
      5460.211        4254.709  
 119888630.007    93246732.916    22404055.731 5  22404056.455 5  22404057.553 4
      1508.398        1173.201  
 104789028.344    81653807.1634   19940689.547 8  19940689.62846  19940691.92146
      3203.026        2495.867  
 117800238.458    91622452.056    22075716.727 5  22075715.906 4  22075720.948 4
      6638.105        5162.967  
 108427473.331                    20340717.203 7  20340716.929 6                
      1236.827                  
 124986707.404    97392261.3774   23784178.733 6  23784178.95143  23784183.46443
      4661.226        3632.137  
 108847515.521    84659200.840    20412332.279 7  20412331.945 7  20412337.831 7
      1095.628         852.164  
 103124003.974    80207583.162    19291478.601 8  19291477.728 8  19291481.392 7
      3876.900        3015.370  
 107014226.144    83233311.210    20026254.201 7  20026254.456 7  20026258.021 7
      5943.891        4623.035  
 119095386.965    92801618.7254   22663099.106 7  22663098.57144  22663103.74044
       -41.477         -32.319  
 11  5 30  7 33  0.0000000  0 15G30G 4G 2G 7G23G10R21G13R 6R14G16R 3
                                R 5R15G20                           
 124039104.503    96653866.0644   23603858.102 6  23603857.86643  23603863.61343
      3278.697        2554.820  
 112024234.706    87291631.1324   21317504.189 8  21317504.12546  21317507.67946
      2017.307        1571.919  
 118583721.522    92402909.5614   22565730.322 5  22565729.83741  22565732.32841
      5143.153        4007.730  
 118505212.790    92341744.0344   22550792.782 7  22550792.88745  22550796.15845
      6490.207        5057.300  
 110061319.475    85762085.5594   20943973.537 8  20943973.10246  20943974.28446
      1241.809         967.638  
 111852451.890    87157775.6084   21284813.722 7  21284813.10844  21284817.08344
      5461.846        4255.991  
 119881086.256    93240865.568    22402644.798 5  22402645.022 4  22402647.113 4
      1508.412        1173.185  
 104773011.180    81641326.2514   19937641.556 8  19937641.74746  19937644.05646
      3203.856        2496.509  
 117767039.262    91596630.443    22069493.325 5  22069493.661 5  22069499.101 4
      6640.917        5165.144  
 108421290.384                    20339557.969 7  20339557.536 7                
      1236.234                  
 124963399.438    97374099.3374   23779744.430 6  23779743.47643  23779748.23543
      4662.020        3632.737  
 108842038.505    84654940.927    20411305.110 8  20411304.858 7  20411310.743 7
      1095.248         851.862  
 103104617.697    80192504.949    19287851.765 8  19287851.030 8  19287854.893 7
      3877.705        3015.988  
 106984507.547    83210196.747    20020691.984 7  20020692.804 7  20020696.690 7
      5943.453        4622.684  
 119095589.636    92801776.6344   22663138.119 7  22663137.13744  22663142.30344
       -39.349         -30.655  
 11  5 30  7 33  5.0000000  0 15G30G 4G 2G 7G23G10R21G13R 6R14G16R 3
                                R 5R15G20                           
 124022710.674    96641091.6464   23600738.912 6  23600738.85144  23600744.00944
      3278.908        2554.991  
 112014147.126    87283770.6814   21315584.470 8  21315584.47746  21315588.10346
      2017.597        1572.153  
 118558003.947    92382869.8764   22560837.831 5  22560836.62841  22560838.17941
      5144.147        4008.441  
 118472756.210    92316453.1974   22544616.454 7  22544616.37445  22544619.88445
      6492.251        5058.898  
 110055105.574    85757243.5434   20942791.142 8  20942790.58946  20942791.92946
      1243.631         969.068  
 111825138.945    87136492.8024   21279616.218 6  21279615.36844  21279619.88744
      5463.300        4257.104  
 119873544.344    93234999.626    22401237.966 4  22401235.812 4  22401236.283 4
      1508.535        1173.316  
 104756988.590    81628841.1144   19934592.552 8  19934592.67546  19934595.02146
      3205.014        2497.403  
 117733825.558    91570797.574    22063269.718 5  22063268.832 5  22063275.858 4
      6643.973        5167.509  
 108415110.011                    20338398.270 7  20338397.929 7                
      1236.035                  
 124940087.673    97355934.3284   23775309.128 6  23775307.48943  23775311.98143
      4662.725        3633.317  
 108836563.466    84650682.561    20410278.781 8  20410278.746 7  20410283.867 7
      1094.939         851.617  
 103085226.788    80177423.128    19284224.421 8  19284223.829 8  19284227.622 7
      3878.574        3016.666  
 106954789.995    83187083.099    20015131.325 7  20015131.520 7  20015135.600 7
      5943.419        4622.653  
 119095781.006    92801925.7404   22663174.779 7  22663173.80744  22663178.46944
       -36.982         -28.815  
 11  5 30  7 33 10.0000000  0 15G30G 4G 2G 7G23G10R21G13R 6R14G16R 3
                                R 5R15G20                           
 124006317.157    96628317.4684   23597619.602 7  23597619.36544  23597624.49744
      3278.525        2554.688  
 112004058.342    87275909.2804   21313665.122 8  21313664.74646  21313668.17046
      2017.848        1572.344  
 118532283.247    92362827.7874   22555941.026 5  22555940.62141  22555942.61641
      5144.450        4008.649  
 118440290.078    92291154.9174   22538438.332 7  22538438.17245  22538441.73845
      6494.213        5060.416  
 110048883.003    85752394.7874   20941607.126 8  20941606.47246  20941607.83846
      1245.356         970.403  
 111797818.007    87115203.7644   21274417.776 7  21274416.56944  21274420.89944
      5464.733        4258.217  
 119866004.492    93229135.294    22399828.600 5  22399828.620 5  22399827.813 4
      1508.046        1172.910  
 104740961.064    81616352.1304   19931542.829 8  19931542.72846  19931544.98946
      3205.889        2498.095  
 117700597.548    91544953.590    22057043.673 5  22057042.447 5  22057050.126 4
      6647.007        5169.857  
 108408932.481                    20337239.537 7  20337238.902 7                
      1235.020                  
 124916772.618    97337766.7684   23770872.164 6  23770871.07943  23770874.93943
      4663.431        3633.827  
 108831090.866    84646426.103    20409252.849 8  20409252.875 7  20409257.733 7
      1094.291         851.108  
 103065831.704    80162338.064    19280596.541 8  19280595.956 8  19280599.242 7
      3879.389        3017.301  
 106925073.422    83163970.216    20009570.402 7  20009570.409 7  20009574.671 7
      5943.084        4622.400  
 119095961.579    92802066.4324   22663209.702 7  22663208.39644  22663212.82744
       -35.071         -27.326  
 11  5 30  7 33 15.0000000  0 15G30G 4G 2G 7G23G10R21G13R 6R14G16R 3
                                R 5R15G20                           
 123989923.554    96615543.2434   23594500.225 6  23594499.99444  23594504.69844
      3278.498        2554.668  
 111993967.979    87268046.6554   21311744.555 8  21311744.60346  21311747.91046
      2018.204        1572.629  
 118506559.001    92342782.9044   22551045.750 5  22551044.76341  22551046.68141
      5145.276        4009.239  
 118407813.993    92265848.8874   22532258.585 7  22532258.21045  22532261.60545
      6496.317        5062.051  
 110042651.414    85747539.0034   20940420.837 8  20940420.56946  20940421.96346
      1247.168         971.820  
 111770488.664    87093908.1664   21269216.945 7  21269216.11944  21269220.04144
      5466.731        4259.783  
 119858466.497    93223272.402    22398424.951 5  22398420.052 5  22398420.810 4
      1507.344        1172.368  
 104724928.152    81603858.9494   19928491.636 8  19928491.83046  19928494.06246
      3206.994        2498.952  
 117667355.059    91519098.364    22050814.890 5  22050813.243 5  22050819.836 4
      6650.077        5172.267  
 108402757.582                    20336080.656 7  20336079.937 7                
      1234.738                  
 124893453.892    97319596.3574   23766434.326 6  23766433.53543  23766437.51143
      4664.152        3634.377  
 108825620.192    84642171.133    20408227.335 8  20408227.002 7  20408232.074 7
      1093.901         850.813  
 103046432.066    80147249.450    19276967.840 8  19276967.058 8  19276970.019 7
      3880.396        3018.086  
 106895358.031    83140858.249    20004009.266 7  20004009.578 7  20004013.808 7
      5942.917        4622.263  
 119096130.920    92802198.3844   22663242.752 7  22663240.93544  22663244.77844
       -32.738         -25.512  
 11  5 30  7 33 20.0000000  0 15G30G 4G 2G 7G23G10R21G13R 6R14G16R 3
                                R 5R15G20                           
 123973530.361    96602769.3344   23591380.568 7  23591380.56744  23591385.39744
      3278.840        2554.928  
 111983876.563    87260183.2174   21309824.292 8  21309824.41346  21309827.73946
      2018.489        1572.851  
 118480831.663    92322735.6464   22546149.370 5  22546148.77741  22546151.11741
      5145.999        4009.839  
 118375328.479    92240535.5054   22526076.799 7  22526076.52545  22526079.78445
      6498.025        5063.386  
 110036411.299    85742676.5654   20939233.657 8  20939233.11746  20939234.58546
      1248.922         973.179  
 111743151.411    87072606.4154   21264014.080 7  21264013.59144  21264018.21444
      5468.274        4261.018  
 119850930.798    93217411.298    22397008.196 5  22397009.593 5  22397013.402 4
      1507.257        1172.338  
 104708890.385    81591361.9854   19925439.862 7  19925439.89146  19925442.21746
      3207.962        2499.714  
 117634098.589    91493232.259    22044581.412 5  22044580.833 5  22044586.094 4
      6652.474        5174.139  
 108396585.733                    20334923.316 7  20334922.437 7                
      1234.038                  
 124870132.005    97301423.4684   23761997.059 6  23761995.81543  23761999.77343
      4664.601        3634.770  
 108820151.977    84637918.072    20407202.392 8  20407201.390 7  20407206.375 7
      1093.373         850.403  
 103027028.309    80132157.636    19273336.559 8  19273336.565 8  19273339.913 7
      3881.199        3018.703  
 106865644.103    83117747.417    19998448.823 7  19998448.819 7  19998453.167 7
      5942.666        4622.079  
 119096289.494    92802321.9394   22663272.401 6  22663271.00944  22663274.98644
       -30.579         -23.837  
 11  5 30  7 33 25.0000000  0 15G30G 4G 2G 7G23G10R21G13R 6R14G16R 3
                                R 5R15G20                           
 123957137.372    96589995.5784   23588261.465 7  23588261.26544  23588266.02644
      3278.624        2554.779  
 111973783.714    87252318.6494   21307904.054 8  21307903.92546  21307907.08746
      2018.760        1573.054  
 118455101.081    92302685.8464   22541252.686 5  22541253.96441  22541253.90241
      5146.420        4010.146  
 118342833.236    92215214.5414   22519892.696 7  22519892.97345  22519895.97245
      6500.206        5065.099  
 110030162.300    85737807.2134   20938044.434 8  20938043.95146  20938045.44146
      1250.739         974.593  
 111715806.020    87051298.3254   21258810.193 6  21258810.00644  21258814.66044
      5470.018        4262.358  
 119843396.953    93211551.637    22395601.571 5  22395600.188 5  22395605.269 5
      1506.775        1171.926  
 104692847.477    81578861.0174   19922387.192 8  19922387.02646  19922389.33046
      3209.215        2500.684  
 117600827.840    91467354.985    22038347.155 5  22038345.724 5  22038349.727 4
      6655.701        5176.683  
 108390416.702                    20333766.137 7  20333765.554 7                
      1233.693                  
 124846806.671    97283247.8934   23757557.883 6  23757557.31343  23757561.11043
      4665.454        3635.424  
 108814685.944    84633666.711    20406175.989 7  20406175.763 7  20406181.437 7
      1093.044         850.160  
 103007620.370    80117062.572    19269706.297 8  19269705.511 8  19269709.477 7
      3882.074        3019.393  
 106835931.460    83094637.581    19992888.336 7  19992888.551 7  19992892.897 7
      5942.563        4621.996  
 119096437.125    92802436.9564   22663300.058 7  22663299.27744  22663303.57144
       -28.333         -22.082  
 11  5 30  7 33 30.0000000  0 15G30G 4G 2G 7G23G10R21G13R 6R14G16R 3
                                R 5R15G20                           
 123940744.767    96577222.1144   23585140.720 7  23585141.59944  23585147.00544
      3278.466        2554.637  
 111963689.720    87244453.1924   21305982.991 8  21305983.09146  21305986.29846
      2018.932        1573.191  
 118429367.502    92282633.7284   22536355.195 5  22536355.79141  22536355.93141
      5147.256        4010.960  
 118310328.539    92189886.2044   22513707.587 7  22513707.54145  22513710.67945
      6501.929        5066.428  
 110023904.679    85732931.1414   20936854.145 8  20936853.31046  20936854.60446
      1252.348         975.854  
 111688452.755    87029984.0904   21253605.624 7  21253604.74844  21253609.46944
      5471.365        4263.396  
 119835865.328    93205693.730    22394193.679 5  22394194.142 4  22394197.037 5
      1506.062        1171.376  
 104676799.700    81566356.2574   19919333.292 8  19919333.25346  19919335.55946
      3209.953        2501.262  
 117567542.864    91441466.659    22032108.115 5  22032107.736 4  22032111.141 4
      6657.925        5178.365  
 108384250.662                    20332609.528 7  20332608.967 7                
      1232.819                  
 124823478.183    97265069.8534   23753118.242 6  23753118.13443  23753121.65743
      4665.962        3635.839  
 108809222.312    84629417.211    20405151.620 8  20405151.535 7  20405156.546 7
      1092.489         849.710  
 102988208.378    80101964.360    19266074.597 8  19266074.048 8  19266078.345 7
      3882.848        3019.992  
 106806220.283    83071528.893    19987328.461 7  19987328.406 7  19987332.924 7
      5941.999        4621.549  
 119096573.954    92802543.5754   22663325.603 7  22663325.10744  22663329.78644
       -26.306         -20.509  
 11  5 30  7 33 35.0000000  0 15G30G 4G 2G 7G23G10R21G13R 6R14G16R 3
                                R 5R15G20                           
 123924352.773    96564449.1194   23582022.067 6  23582022.17344  23582027.26044
      3278.351        2554.565  
 111953594.787    87236587.0094   21304061.804 8  21304062.04346  21304065.40746
      2019.131        1573.356  
 118403631.058    92262579.3344   22531458.826 5  22531458.45141  22531460.03341
      5147.569        4011.123  
 118277814.662    92164550.7204   22507520.327 7  22507520.28845  22507523.50845
      6503.684        5067.811  
 110017638.612    85728048.4864   20935661.509 8  20935660.89246  20935662.31346
      1254.057         977.184  
 111661091.774    87008663.8484   21248399.287 7  21248398.22044  21248402.66544
      5472.905        4264.594  
 119828336.058    93199837.623    22392790.356 5  22392788.720 5  22392790.043 5
      1505.896        1171.242  
 104660747.291    81553847.8824   19916278.615 8  19916278.53646  19916280.85446
      3210.986        2502.072  
 117534244.030    91415567.555    22025870.116 5  22025868.131 4  22025870.188 4
      6661.126        5180.888  
 108378087.959                    20331452.769 7  20331452.520 7                
      1232.189                  
 124800146.701    97246889.4874   23748678.990 7  23748677.85043  23748681.86743
      4666.647        3636.358  
 108803761.385    84625169.828    20404127.562 8  20404127.733 7  20404132.204 7
      1091.915         849.265  
 102968792.468    80086863.100    19262443.550 8  19262442.374 8  19262446.475 7
      3883.496        3020.499  
 106776510.851    83048421.559    19981768.638 7  19981768.855 7  19981773.305 7
      5941.723        4621.342  
 119096700.243    92802641.9714   22663348.936 7  22663349.25544  22663353.86644
       -24.099         -18.775  
 11  5 30  7 33 40.0000000  0 15G30G 4G 2G 7G23G10R21G13R 6R14G16R 3
                                R 5R15G20                           
 123907961.259    96551676.5154   23578903.474 6  23578902.98144  23578907.65944
      3277.979        2554.250  
 111943498.761    87228719.9684   21302141.203 8  21302141.03946  21302144.21946
      2019.247        1573.431  
 118377891.665    92242522.6644   22526564.427 5  22526561.55341  22526561.97541
      5148.171        4011.605  
 118245291.424    92139207.9424   22501331.275 7  22501331.37445  22501334.50845
      6505.560        5069.263  
 110011363.926    85723159.1154   20934467.885 8  20934466.87446  20934468.24646
      1255.663         978.433  
 111633722.987    86987337.5104   21243190.915 7  21243189.87844  21243194.43344
      5474.542        4265.878  
 119820809.155    93193983.355    22391384.888 6  22391383.002 5  22391383.529 5
      1505.119        1170.658  
 104644690.071    81541335.7604   19913223.121 8  19913222.83646  19913225.20446
      3211.954        2502.826  
 117500931.294    91389657.624    22019628.773 5  22019626.322 4  22019629.685 4
      6663.887        5183.011  
 108371928.163                    20330296.549 7  20330296.895 7                
      1231.483                  
 124776812.174    97228706.7584   23744238.194 6  23744237.26543  23744241.12543
      4667.100        3636.702  
 108798302.867    84620924.318    20403104.175 8  20403104.242 7  20403108.775 7
      1091.351         848.833  
 102949372.663    80071758.807    19258809.873 8  19258809.474 8  19258813.446 7
      3884.184        3021.025  
 106746803.158    83025315.578    19976208.924 7  19976209.515 7  19976213.808 7
      5941.220        4620.949  
 119096815.860    92802732.0474   22663371.392 7  22663371.30644  22663375.92344
       -22.102         -17.224  
 11  5 30  7 33 45.0000000  0 15G30G 4G 2G 7G23G10R21G13R 6R14G16R 3
                                R 5R15G20                           
 123891570.533    96538904.5314   23575783.959 7  23575783.87844  23575788.58944
      3278.025        2554.307  
 111933401.920    87220852.2944   21300219.597 8  21300219.64746  21300223.00246
      2019.400        1573.559  
 118352149.677    92222463.9454   22521665.752 5  22521662.54141  22521664.43841
      5148.765        4012.044  
 118212759.133    92113858.1134   22495140.679 7  22495140.61945  22495143.88245
      6507.403        5070.701  
 110005080.915    85718263.2594   20933271.945 8  20933271.27146  20933272.56146
      1257.471         979.852  
 111606346.628    86966005.2984   21237981.269 7  21237980.46144  21237985.06144
      5476.183        4267.142  
 119813284.743    93188131.034    22389975.883 5  22389976.448 5  22389978.121 5
      1504.582        1170.228  
 104628628.289    81528820.0874   19910166.382 8  19910166.37046  19910168.78246
      3212.981        2503.629  
 117467605.029    91363737.180    22013379.183 5  22013380.877 4  22013384.382 4
      6666.500        5185.063  
 108365771.674                    20329142.277 7  20329142.046 7                
      1231.029                  
 124753474.827    97210521.8114   23739797.086 6  23739796.56643  23739799.94243
      4667.864        3637.283  
 108792846.870    84616680.769    20402080.567 8  20402080.545 7  20402085.821 7
      1090.945         848.520  
 102929949.142    80056651.626    19255176.001 8  19255175.761 8  19255179.828 8
      3885.151        3021.784  
 106717097.198    83002210.944    19970650.742 7  19970650.417 7  19970654.816 7
      5941.107        4620.863  
 119096920.979    92802813.9474   22663391.837 7  22663391.42644  22663395.76544
       -19.916         -15.522  
 11  5 30  7 33 50.0000000  0 16R16G30G 4G 2G 7G23G10R21G13R 6R14G16
                                R 3R 5R15G20                        
 125819690.688    97859781.846    23553710.588 7  23553709.960 6  23553715.665 6
      7863.192        6115.829  
 123875180.654    96526133.1844   23572665.543 6  23572665.47344  23572669.43644
      3277.893        2554.191  
 111923304.387    87212984.0814   21298298.080 8  21298298.12946  21298301.40046
      2019.565        1573.699  
 118326405.089    92202403.2224   22516765.224 5  22516763.00141  22516763.90541
      5148.877        4012.188  
 118180217.903    92088501.3144   22488948.662 7  22488948.52145  22488951.53645
      6509.137        5072.058  
 109998789.718    85713361.0224   20932074.455 8  20932074.04846  20932075.27546
      1259.025         981.059  
 111578962.870    86944667.3104   21232770.470 7  21232769.38144  21232774.08744
      5477.480        4268.147  
 119805762.911    93182280.725    22388567.674 5  22388568.388 5  22388572.203 5
      1504.139        1169.874  
 104612562.094    81516300.9734   19907109.221 8  19907109.06046  19907111.49446
      3213.674        2504.161  
 117434265.169    91337806.165    22007134.631 5  22007134.002 4  22007137.520 4
      6669.353        5187.262  
 108359618.574                    20327988.276 7  20327987.937 7                
      1230.215                  
 124730134.758    97192334.7484   23735355.496 6  23735354.88443  23735358.81543
      4668.530        3637.802  
 108787393.562    84612439.301    20401057.315 7  20401057.464 7  20401063.921 7
      1090.373         848.066  
 102910522.039    80041541.656    19251541.907 8  19251541.638 8  19251545.742 7
      3885.756        3022.253  
 106687393.271    82979107.895    19965092.249 7  19965091.924 7  19965096.042 7
      5940.744        4620.581  
 119097015.735    92802887.7714   22663409.521 7  22663409.42544  22663413.87544
       -17.946         -13.975  
 11  5 30  7 33 55.0000000  0 16R16G30G 4G 2G 7G23G10R21G13R 6R14G16
                                R 3R 5R15G20                        
 125780367.402    97829197.075    23546347.159 6  23546348.259 6  23546354.164 6
      7866.162        6118.128  
 123858791.948    96513362.7574   23569546.201 6  23569546.58744  23569550.83244
      3277.456        2553.860  
 111913206.412    87205115.5264   21296376.161 8  21296376.49246  21296379.91446
      2019.622        1573.725  
 118300658.211    92182340.7214   22511860.762 4  22511863.79341  22511865.05941
      5149.504        4012.683  
 118147668.022    92063137.7704   22482755.242 7  22482754.48545  22482757.30645
      6510.912        5073.438  
 109992490.559    85708452.5824   20930875.328 8  20930875.17046  20930876.53846
      1260.686         982.353  
 111551572.014    86923323.7764   21227558.773 7  21227557.63144  21227562.05744
      5478.937        4269.313  
 119798243.976    93176432.668    22387166.027 5  22387163.738 5  22387167.534 5
      1503.540        1169.421  
 104596491.679    81503778.5664   19904051.226 8  19904050.95546  19904053.42846
      3214.584        2504.873  
 117400911.979    91311864.801    22000884.272 5  22000883.683 4  22000887.667 4
      6672.031        5189.329  
 108353469.315                    20326834.647 7  20326834.311 7                
      1229.478                  
 124706792.320    97174145.8444   23730914.021 6  23730912.98543  23730916.96043
      4668.890        3638.101  
 108781943.390    84608200.265    20400034.767 7  20400035.135 7  20400042.157 7
      1089.779         847.597  
 102891091.751    80026429.212    19247907.753 8  19247907.022 8  19247910.787 7
      3886.422        3022.773  
 106657691.706    82956006.680    19959533.393 7  19959533.692 7  19959537.820 7
      5940.009        4620.006  
 119097100.510    92802953.8144   22663426.667 7  22663425.53744  22663429.88344
       -15.886         -12.380  
 11  5 30  7 34  0.0000000  0 16R16G30G 4G 2G 7G23G10R21G13R 6R14G16
                                R 3R 5R15G20                        
 125741029.690    97798601.112    23538982.259 6  23538984.049 6  23538989.888 6
      7869.034        6120.333  
 123842404.577    96500593.3864   23566428.061 6  23566427.96144  23566432.50544
      3277.433        2553.833  
 111903108.142    87197246.7464   21294454.823 8  21294454.77246  21294458.49746
      2019.709        1573.800  
 118274909.310    92162276.6684   22506959.435 4  22506960.30241  22506963.67841
      5149.889        4012.853  
 118115109.690    92037767.6454   22476559.480 7  22476558.88145  22476561.77945
      6512.602        5074.771  
 109986183.693    85703538.1374   20929675.057 8  20929674.99746  20929676.31446
      1262.141         983.487  
 111524174.204    86901974.8344   21222344.507 7  21222343.81844  21222348.56844
      5480.323        4270.375  
 119790728.121    93170586.981    22385763.118 6  22385761.583 6  22385763.855 5
      1502.894        1168.919  
 104580417.275    81491253.0574   19900992.263 8  19900992.14146  19900994.56746
      3215.199        2505.349  
 117367545.770    91285913.314    21994629.583 5  21994628.279 4  21994634.763 4
      6674.625        5191.380  
 108347323.758                    20325681.753 7  20325681.438 7                
      1228.655                  
 124683447.715    97155955.2654   23726471.192 6  23726470.66543  23726475.45443
      4669.043        3638.177  
 108776496.527    84603963.798    20399014.336 8  20399014.052 7  20399020.310 7
      1089.073         847.060  
 102871658.299    80011314.307    19244272.311 8  19244271.565 8  19244275.217 7
      3887.043        3023.256  
 106627992.669    82932907.429    19953975.733 7  19953975.976 7  19953979.945 7
      5939.525        4619.633  
 119097175.393    92803012.1664   22663440.421 7  22663439.72844  22663444.13744
       -13.972         -10.889  
 11  5 30  7 34  5.0000000  0 16R16G30G 4G 2G 7G23G10R21G13R 6R14G16
                                R 3R 5R15G20                        
 125701677.467    97767993.828    23531617.299 6  23531617.414 6  23531623.474 6
      7871.762        6122.488  
 123826018.344    96487824.8944   23563310.316 6  23563309.68644  23563314.52844
      3277.132        2553.603  
 111893009.365    87189377.5614   21292532.552 8  21292532.87346  21292536.70246
      2019.703        1573.789  
 118249158.130    92142210.7614   22502061.174 4  22502060.97941  22502061.38841
      5150.750        4013.591  
 118082542.716    92012390.7924   22470361.684 7  22470361.45145  22470364.50545
      6514.284        5076.063  
 109979868.872    85698617.4924   20928473.572 8  20928473.31146  20928474.56846
      1263.767         984.757  
 111496769.285    86880620.3614   21217129.687 7  21217128.82044  21217133.79044
      5481.757        4271.492  
 119783215.056    93164743.468    22384358.650 6  22384358.236 6  22384359.002 5
      1502.404        1168.525  
 104564338.679    81478724.2774   19897932.589 8  19897932.48146  19897934.94346
      3216.189        2506.120  
 117334166.154    91259951.458    21988371.863 5  21988372.430 4  21988379.874 4
      6677.674        5193.747  
 108341181.943                    20324529.240 7  20324529.080 7                
      1228.116                  
 124660100.677    97137762.7804   23722028.043 6  23722027.94843  23722032.62843
      4669.639        3638.679  
 108771052.537    84599729.589    20397993.974 8  20397993.731 7  20397999.276 7
      1088.524         846.638  
 102852221.614    79996196.881    19240635.962 8  19240635.518 8  19240639.224 7
      3887.758        3023.815  
 106598295.885    82909809.935    19948418.451 7  19948418.602 7  19948422.595 7
      5939.138        4619.328  
 119097240.165    92803062.6264   22663452.722 7  22663452.19544  22663456.83644
       -11.833          -9.221  
 11  5 30  7 34 10.0000000  0 16R16G30G 4G 2G 7G23G10R21G13R 6R14G16
                                R 3R 5R15G20                        
 125662311.020    97737375.489    23524247.049 6  23524247.433 6  23524253.947 6
      7874.626        6124.696  
 123809633.651    96475057.5844   23560191.922 6  23560192.05244  23560196.49044
      3276.814        2553.369  
 111882910.545    87181508.3454   21290610.543 8  21290611.10746  21290615.00146
      2019.760        1573.838  
 118223405.095    92122143.5054   22497164.799 5  22497161.53441  22497161.87741
      5150.647        4013.489  
 118049967.505    91987007.5164   22464161.828 7  22464162.50445  22464165.82345
      6515.920        5077.333  
 109973546.481    85693690.9524   20927270.380 8  20927270.16046  20927271.33846
      1265.231         985.905  
 111469357.619    86859260.6274   21211913.904 7  21211912.97044  21211917.20744
      5483.037        4272.488  
 119775705.289    93158902.532    22382954.825 6  22382953.331 6  22382954.803 5
      1501.830        1168.082  
 104548256.317    81466192.5644   19894872.282 8  19894872.13346  19894874.59446
      3216.838        2506.622  
 117300773.941    91233979.734    21982117.693 4  21982114.950 4  21982122.449 4
      6679.630        5195.281  
 108335043.986                    20323378.224 7  20323377.361 7                
      1227.129                  
 124636751.665    97119568.7574   23717584.445 6  23717584.28543  23717588.98143
      4670.260        3639.162  
 108765611.928    84595498.010    20396973.872 8  20396973.378 7  20396979.101 7
      1087.791         846.075  
 102832782.049    79981077.220    19236999.394 8  19236999.147 8  19237002.729 7
      3888.230        3024.186  
 106568601.797    82886714.539    19942861.582 7  19942861.749 7  19942865.839 7
      5938.619        4618.921  
 119097295.235    92803105.5314   22663463.836 7  22663462.68744  22663467.68544
       -10.057          -7.840  
 11  5 30  7 34 15.0000000  0 16R16G30G 4G 2G 7G23G10R21G13R 6R14G16
                                R 3R 5R15G20                        
 125622930.381    97706746.118    23516875.394 7  23516875.246 6  23516882.095 6
      7877.525        6126.958  
 123793250.410    96462291.4234   23557074.664 7  23557074.60344  23557078.60644
      3276.265        2552.913  
 111872811.596    87173639.0364   21288689.230 8  21288689.21546  21288693.21246
      2019.678        1573.784  
 118197650.164    92102074.7234   22492262.412 5  22492259.37741  22492259.13141
      5150.710        4013.438  
 118017383.964    91961617.7434   22457962.091 7  22457962.24545  22457965.37045
      6517.512        5078.591  
 109967216.433    85688758.4454   20926065.076 8  20926065.63046  20926066.83546
      1266.557         986.938  
 111441939.201    86837895.6244   21206696.315 7  21206695.58344  21206699.69844
      5484.244        4273.467  
 119768198.543    93153063.956    22381551.288 6  22381550.016 5  22381551.818 5
      1501.248        1167.655  
 104532170.024    81453657.7884   19891811.139 8  19891810.93046  19891813.50046
      3217.684        2507.291  
 117267368.553    91207997.789    21975853.869 4  21975854.228 4  21975861.040 4
      6682.033        5197.147  
 108328910.091                    20322226.951 7  20322226.888 6                
      1226.260                  
 124613400.592    97101373.1144   23713140.865 6  23713140.72443  23713145.62843
      4670.438        3639.302  
 108760174.804    84591269.128    20395953.159 7  20395952.838 7  20395958.829 7
      1086.969         845.422  
 102813339.518    79965955.248    19233362.285 8  19233361.849 8  19233365.703 7
      3888.686        3024.534  
 106538910.625    82863621.410    19937305.408 7  19937305.482 7  19937309.716 7
      5937.790        4618.287  
 119097340.522    92803140.8064   22663472.873 7  22663471.36544  22663476.42844
        -8.036          -6.257  
 11  5 30  7 34 20.0000000  0 16R16G30G 4G 2G 7G23G10R21G13R 6R14G16
                                R 3R 5R15G20                        
 125583535.775    97676105.888    23509500.571 6  23509500.435 6  23509507.186 6
      7880.351        6129.157  
 123776868.833    96449526.5684   23553957.329 7  23553957.08244  23553961.38144
      3276.176        2552.867  
 111862712.698    87165769.7634   21286767.281 8  21286767.46246  21286771.48746
      2019.727        1573.805  
 118171893.545    92082004.6264   22487361.177 4  22487360.49741  22487356.76441
      5151.228        4013.914  
 117984792.376    91936221.7034   22451760.066 7  22451760.34345  22451763.59845
      6519.149        5079.858  
 109960878.959    85683820.1424   20924860.103 8  20924859.79746  20924860.71746
      1268.251         988.260  
 111414514.211    86816525.5044   21201476.786 7  21201476.53544  21201481.20944
      5485.826        4274.675  
 119760695.209    93147228.010    22380148.848 6  22380147.163 5  22380150.431 5
      1500.349        1166.918  
 104516080.091    81441120.1814   19888749.674 8  19888749.19046  19888751.67646
      3218.467        2507.890  
 117233950.601    91182006.079    21969590.066 4  21969592.795 4  21969596.028 4
      6684.873        5199.366  
 108322780.278                    20321078.138 7  20321077.162 7                
      1225.582                  
 124590047.687    97083176.0494   23708698.727 6  23708697.21043  23708701.82443
      4670.757        3639.539  
 108754741.175    84587042.970    20394934.116 7  20394933.871 7  20394939.917 7
      1086.420         844.988  
 102793894.358    79950831.235    19229724.512 8  19229724.267 8  19229727.925 7
      3889.360        3025.050  
 106509222.383    82840530.562    19931749.552 7  19931749.506 7  19931754.072 7
      5937.390        4617.964  
 119097376.236    92803168.6284   22663479.063 7  22663478.17544  22663483.30144
        -6.136          -4.773  
 11  5 30  7 34 25.0000000  0 16R16G30G 4G 2G 7G23G10R21G13R 6R14G16
                                R 3R 5R15G20                        
 125544126.986    97645454.632    23502123.188 7  23502123.332 6  23502129.508 6
      7883.239        6131.408  
 123760488.771    96436762.8834   23550840.645 7  23550840.46944  23550844.13544
      3275.681        2552.504  
 111852613.572    87157900.3104   21284845.671 8  21284845.59746  21284849.68646
      2019.775        1573.859  
 118146134.997    92061933.0174   22482459.989 5  22482458.63841  22482456.17041
      5152.237        4014.711  
 117952192.456    91910819.1674   22445556.937 7  22445556.81745  22445560.00145
      6520.903        5081.232  
 109954533.819    85678875.8714   20923652.785 8  20923652.31946  20923653.29946
      1269.767         989.443  
 111387082.446    86795150.1054   21196257.077 7  21196256.07944  21196261.12344
      5486.973        4275.562  
 119753194.967    93141394.490    22378747.176 6  22378746.103 5  22378749.024 5
      1499.798        1166.508  
 104499986.242    81428579.5144   19885686.511 8  19885686.59146  19885689.15246
      3219.243        2508.505  
 117200519.801    91156004.298    21963328.049 4  21963328.736 4  21963333.055 4
      6687.262        5201.245  
 108316654.383                    20319928.459 7  20319928.175 7                
      1224.789                  
 124566692.711    97064977.3804   23704254.805 6  23704253.77443  23704256.95643
      4671.294        3639.992  
 108749310.794    84582819.333    20393916.314 8  20393916.145 7  20393922.375 7
      1085.668         844.408  
 102774446.235    79935704.913    19226086.864 8  19226085.946 8  19226089.595 7
      3889.919        3025.497  
 106479536.774    82817441.760    19926193.772 7  19926194.203 7  19926198.742 7
      5936.805        4617.513  
 119097402.158    92803188.8234   22663483.564 7  22663482.78844  22663488.21244
        -4.340          -3.394  
 11  5 30  7 34 30.0000000  0 16R16G30G 4G 2G 7G23G10R21G13R 6R14G16
                                R 3R 5R15G20                        
 125504704.620    97614792.802    23494744.640 7  23494743.552 6  23494749.433 6
      7885.716        6133.351  
 123744110.667    96424000.7234   23547724.464 7  23547723.90444  23547727.55444
      3275.289        2552.175  
 111842514.759    87150031.1034   21282923.985 8  21282924.02846  21282927.96346
      2019.641        1573.751  
 118120375.097    92041860.3684   22477556.542 4  22477557.75341  22477554.35641
      5152.030        4014.679  
 117919584.751    91885410.5734   22439351.528 7  22439351.62245  22439355.21545
      6522.330        5082.334  
 109948181.503    85673926.0074   20922443.680 8  20922443.40046  20922444.48946
      1271.145         990.500  
 111359644.384    86773769.8014   21191036.042 7  21191034.81544  21191039.70844
      5488.183        4276.505  
 119745698.307    93135563.735    22377347.022 6  22377346.321 6  22377347.962 5
      1499.062        1165.938  
 104483888.999    81416036.2034   19882623.616 8  19882623.37246  19882625.92546
      3219.762        2508.917  
 117167076.469    91129992.832    21957064.774 4  21957061.231 4  21957068.083 4
      6689.611        5203.020  
 108310532.816                    20318779.469 7  20318779.620 7                
      1223.732                  
 124543336.212    97046777.5174   23699809.831 6  23699809.37743  23699812.45443
      4671.430        3640.087  
 108743884.212    84578598.658    20392898.958 8  20392898.997 7  20392905.094 7
      1084.892         843.815  
 102754995.651    79920576.685    19222447.793 8  19222447.241 8  19222450.650 7
      3890.349        3025.833  
 106449854.677    82794355.684    19920639.113 7  19920639.645 7  19920644.062 7
      5936.241        4617.072  
 119097418.734    92803201.7314   22663486.457 7  22663485.93544  22663491.37444
        -2.469          -1.918  
 11  5 30  7 34 35.0000000  0 16R16G30G 4G 2G 7G23G10R21G13R 6R14G16
                                R 3R 5R15G20                        
 125465268.481    97584120.263    23487362.261 7  23487361.327 6  23487367.241 6
      7888.348        6135.369  
 123727734.475    96411240.0554   23544607.582 7  23544607.78344  23544611.35844
      3274.975        2551.915  
 111832416.207    87142162.1014   21281002.565 8  21281002.32246  21281006.22046
      2019.714        1573.800  
 118094613.733    92021786.5874   22472653.177 4  22472655.71641  22472653.13541
      5151.964        4014.514  
 117886969.245    91859995.8964   22433144.862 7  22433144.93545  22433148.77245
      6523.921        5083.570  
 109941822.015    85668970.5544   20921233.327 8  20921233.16846  20921234.33046
      1272.584         991.634  
 111332200.024    86752384.5874   21185813.192 7  21185812.22844  21185817.19844
      5489.600        4277.619  
 119738205.215    93129735.754    22375946.586 6  22375946.691 6  22375947.942 5
      1498.288        1165.330  
 104467788.293    81403490.1974   19879559.603 8  19879559.54046  19879562.10746
      3220.486        2509.466  
 117133620.772    91103971.738    21950792.795 5  21950792.847 4  21950800.768 4
      6692.215        5205.094  
 108304415.645                    20317631.336 7  20317631.577 6                
      1223.129                  
 124519978.167    97028576.4414   23695365.383 6  23695364.67843  23695367.69743
      4671.730        3640.285  
 108738461.286    84574380.826    20391882.687 8  20391882.113 7  20391888.528 7
      1084.202         843.278  
 102735542.604    79905446.529    19218808.848 8  19218808.274 8  19218811.918 7
      3890.879        3026.244  
 106420175.550    82771271.914    19915086.049 7  19915085.714 7  19915089.987 7
      5935.436        4616.463  
 119097426.005    92803207.3854   22663487.728 7  22663487.26244  22663492.62844
        -0.666          -0.508  
 11  5 30  7 34 40.0000000  0 16R16G30G 4G 2G 7G23G10R21G13R 6R14G16
                                R 3R 5R15G20                        
 125425818.907    97553437.308    23479976.952 7  23479976.393 6  23479981.859 6
      7891.185        6137.575  
 123711360.361    96398481.0204   23541491.449 7  23541491.50344  23541495.51344
      3274.479        2551.532  
 111822318.124    87134293.4594   21279080.976 8  21279080.74946  21279084.57646
      2019.564        1573.693  
 118068851.122    92001711.7824   22467753.006 4  22467751.73841  22467751.39741
      5152.552        4014.936  
 117854346.120    91834575.2864   22426936.780 7  22426936.71545  22426940.88245
      6525.383        5084.708  
 109935455.487    85664009.6204   20920021.614 8  20920021.71046  20920022.85746
      1274.030         992.753  
 111304749.551    86730994.6144   21180589.612 7  21180589.05644  21180593.72844
      5490.744        4278.494  
 119730715.765    93123910.618    22374545.999 6  22374546.798 6  22374548.882 5
      1497.541        1164.754  
 104451684.336    81390941.6624   19876494.852 8  19876494.99846  19876497.67646
      3221.075        2509.925  
 117100152.843    91077941.106    21944518.471 5  21944520.489 4  21944529.348 4
      6694.762        5207.067  
 108298302.991                    20316484.699 7  20316484.949 7                
      1222.037                  
 124496618.711    97010374.2964   23690920.368 6  23690919.03943  23690922.95943
      4671.900        3640.436  
 108733042.111    84570165.901    20390865.682 8  20390865.734 7  20390872.044 7
      1083.357         842.620  
 102716087.368    79890314.682    19215169.338 8  19215168.891 8  19215172.306 7
      3891.301        3026.573  
 106390499.825    82748190.802    19909531.936 7  19909532.232 7  19909536.488 7
      5934.782        4615.942  
 119097424.056    92803205.8564   22663487.702 7  22663487.02544  22663492.35044
         1.319           1.028  
 11  5 30  7 34 45.0000000  0 16R16G30G 4G 2G 7G23G10R21G13R 6R14G16
                                R 3R 5R15G20                        
 125386355.932    97522743.895    23472588.826 7  23472588.808 6  23472594.207 6
      7894.066        6139.831  
 123694988.451    96385723.6774   23538376.098 7  23538375.89244  23538380.59444
      3274.303        2551.400  
 111812220.513    87126425.1824   21277159.385 8  21277159.23146  21277163.22646
      2019.507        1573.644  
 118043087.375    91981636.1464   22462850.023 4  22462848.68941  22462848.56441
      5153.076        4015.411  
 117821715.470    91809148.8134   22420727.896 7  22420727.34945  22420731.42345
      6526.966        5085.935  
 109929082.027    85659043.2744   20918808.668 8  20918808.95046  20918809.98546
      1275.319         993.759  
 111277293.004    86709599.9044   21175364.583 7  21175363.93144  21175368.83344
      5491.836        4279.350  
 119723230.094    93118088.426    22373148.945 6  22373147.124 6  22373149.682 5
      1496.889        1164.244  
 104435577.217    81378390.6574   19873430.095 8  19873429.91946  19873432.58446
      3221.922        2510.583  
 117066672.690    91051900.958    21938243.727 4  21938245.749 4  21938256.377 4
      6697.040        5208.777  
 108292194.857                    20315339.139 7  20315338.875 6                
      1221.162                  
 124473257.980    96992171.1494   23686473.997 6  23686473.26143  23686477.70243
      4672.412        3640.854  
 108727626.977    84565954.122    20389850.370 8  20389849.887 7  20389855.816 7
      1082.630         842.039  
 102696629.875    79875181.072    19211529.759 8  19211529.198 8  19211532.521 7
      3891.827        3026.975  
 106360827.504    82725112.326    19903978.169 7  19903979.043 7  19903983.801 7
      5934.245        4615.518  
 119097413.014    92803197.2464   22663486.169 7  22663485.10144  22663490.01244
         3.197           2.491  
 11  5 30  7 34 50.0000000  0 15R16G 4G 2G 7G23G10R21G13R 6R14G16R 3
                                R 5R15G20                           
 126948324.971    98737608.699    23764990.738 6  23764992.773 6  23764998.298 6
      7896.508        6141.707  
 113377545.513    88346158.9504   21575030.140 8  21575030.63246  21575034.59746
      2019.286        1573.470  
 119592747.582    93189163.5284   22757739.368 4  22757736.69441  22757738.01341
      5153.535        4015.641  
 119364503.885    93011321.6064   22714311.318 7  22714310.34845  22714314.12945
      6528.351        5087.026  
 111498122.839    86881672.4784   21217387.903 8  21217387.40546  21217388.54146
      1276.787         994.908  
 112825255.940    87915804.7944   21469932.013 7  21469931.35544  21469936.28844
      5493.250        4280.457  
 121319999.780    94360020.390    22671542.850 6  22671541.563 6  22671544.117 5
      1495.886        1163.460  
 105994890.163    82593439.7054   20170157.691 8  20170157.38046  20170159.97746
      3222.288        2510.878  
 118632937.054    92270106.584    22231761.404 4  22231763.683 4  22231772.831 4
      6699.742        5210.941  
 109884155.007                    20613987.408 7  20613986.690 6                
      1220.290                  
 126025320.690    98201570.6754   23981820.567 6  23981820.96443  23981825.78543
      4672.480        3640.897  
 110320841.938    85805121.318    20688627.983 8  20688627.945 7  20688633.119 7
      1081.781         841.382  
 104279736.702    81106486.375    19507682.369 8  19507682.020 8  19507685.425 7
      3892.169        3027.246  
 107933164.698    83948041.263    20198220.133 7  20198220.494 7  20198225.168 7
      5933.332        4614.805  
 120672812.872    94030781.5424   22963273.737 7  22963273.73444  22963278.52844
         4.982           3.878  
 11  5 30  7 34 55.0000000  0 15R16G 4G 2G 7G23G10R21G13R 6R14G16R 3
                                R 5R15G20                           
 126908835.774    98706894.910    23757600.117 6  23757600.594 6  23757605.337 6
      7899.021        6143.676  
 113367449.428    88338291.8694   21573109.349 7  21573109.42546  21573113.42246
      2019.243        1573.433  
 119566982.091    93169086.5084   22752836.764 4  22752833.98941  22752836.49741
      5153.066        4015.348  
 119331858.739    92985883.8344   22708098.833 7  22708098.42245  22708101.91345
      6529.768        5088.126  
 111491735.875    86876695.6134   21216172.368 8  21216172.22146  21216173.31146
      1278.034         995.870  
 112797787.866    87894401.1004   21464705.028 7  21464704.39644  21464709.28644
      5494.190        4281.182  
 121312522.123    94354204.430    22670144.619 6  22670144.879 6  22670146.485 5
      1495.147        1162.911  
 105978777.137    82580884.0974   20167091.701 8  20167091.11646  20167093.81246
      3222.947        2511.393  
 118599433.279    92244048.089    22225484.186 4  22225483.677 4  22225495.309 4
      6701.753        5212.433  
 109878056.435                    20612843.204 7  20612842.310 6                
      1219.336                  
 126001957.940    98183365.9344   23977375.216 6  23977374.75543  23977379.67243
      4672.577        3640.959  
 110315435.151    85800916.041    20687614.293 7  20687614.127 7  20687619.443 7
      1080.909         840.714  
 104260275.326    81091349.753    19504042.422 8  19504041.584 8  19504044.783 7
      3892.475        3027.478  
 107903499.917    83924968.655    20192669.043 7  20192669.473 7  20192673.894 7
      5932.542        4614.201  
 120672784.093    94030759.1134   22963269.141 7  22963268.37744  22963273.00044
         6.620           5.140  
 11  5 30  7 35  0.0000000  0 15R16G 4G 2G 7G23G10R21G13R 6R14G16R 3
                                R 5R15G20                           
 126869333.593    98676171.002    23750206.411 7  23750206.101 6  23750210.788 6
      7901.794        6145.842  
 113357354.280    88330425.5134   21571188.410 8  21571188.26946  21571192.39846
      2019.157        1573.382  
 119541215.753    93149008.8364   22747930.785 3  22747928.04441  22747933.14041
      5152.824        4015.194  
 119299206.564    92960440.5854   22701884.863 7  22701885.15545  22701888.43745
      6531.098        5089.166  
 111485342.374    86871713.6534   21214955.859 8  21214955.57946  21214956.72446
      1279.418         996.958  
 112770314.242    87872993.0754   21459477.367 7  21459476.48144  21459480.83744
      5495.284        4282.045  
 121305048.716    94348391.769    22668748.487 6  22668747.918 6  22668749.588 5
      1493.961        1161.958  
 105962661.426    82568326.3994   20164024.935 8  20164024.38546  20164027.02846
      3223.449        2511.775  
 118565917.787    92217980.444    22219200.303 4  22219201.756 4  22219213.431 4
      6703.975        5214.191  
 109871962.890                    20611699.561 7  20611699.273 6                
      1218.108                  
 125978594.388    98165160.5874   23972928.548 6  23972928.09843  23972933.47643
      4672.517        3640.937  
 110310032.628    85796714.079    20686601.672 8  20686601.386 7  20686606.906 7
      1080.153         840.115  
 104240812.259    81076211.806    19500401.050 8  19500400.703 8  19500404.098 7
      3892.759        3027.707  
 107873839.315    83901899.299    20187118.422 7  20187118.855 7  20187123.174 7
      5931.676        4613.527  
 120672746.645    94030729.9284   22963262.785 7  22963261.19244  22963265.92144
         8.329           6.495  
 11  5 30  7 35  5.0000000  0 15R16G 4G 2G 7G23G10R21G13R 6R14G16R 3
                                R 5R15G20                           
 126829818.975    98645437.426    23742810.200 7  23742808.980 7  23742813.641 6
      7904.132        6147.658  
 113347260.399    88322560.1504   21569267.502 7  21569267.41946  21569271.71946
      2018.650        1572.976  
 119515449.601    93128932.3014   22743030.444 3  22743024.01041  22743030.18041
      5153.226        4015.486  
 119266547.696    92934992.1114   22695670.541 7  22695670.43645  22695673.77445
      6532.417        5090.195  
 111478942.663    86866726.8654   21213738.136 8  21213737.61946  21213739.01246
      1280.629         997.891  
 112742835.387    87851580.9834   21454248.426 7  21454247.41744  21454252.03244
      5496.302        4282.823  
 121297579.835    94342582.640    22667352.132 6  22667351.979 6  22667353.159 5
      1492.938        1161.168  
 105946543.282    82555766.8054   20160957.291 8  20160957.19946  20160959.92446
      3223.891        2512.118  
 118532391.000    92191903.993    22212918.936 4  22212918.626 4  22212929.729 4
      6706.431        5216.107  
 109865874.443                    20610556.804 7  20610557.027 6                
      1217.234                  
 125955230.371    98146954.8674   23968482.300 6  23968481.87643  23968487.72643
      4672.848        3641.200  
 110304634.745    85792515.719    20685588.235 7  20685588.473 7  20685594.704 7
      1079.217         839.398  
 104221347.870    81061072.834    19496759.948 8  19496759.438 8  19496763.003 7
      3893.041        3027.917  
 107844183.138    83878833.382    20181568.495 7  20181569.040 7  20181573.445 7
      5930.936        4612.951  
 120672700.798    94030694.1894   22963253.363 7  22963252.55544  22963257.00444
         9.943           7.753  
 11  5 30  7 35 10.0000000  0 15R16G 4G 2G 7G23G10R21G13R 6R14G16R 3
                                R 5R15G20                           
 126790291.886    98614694.167    23735409.495 7  23735409.412 7  23735413.702 6
      7906.790        6149.740  
 113337167.863    88314695.8344   21567346.909 8  21567346.82246  21567351.06946
      2018.409        1572.776  
 119489683.302                    22738132.018 3                                
      5154.000                  
 119233882.238    92909538.5054   22689454.334 7  22689454.38245  22689457.81145
      6533.700        5091.185  
 111472536.848    86861735.3184   21212519.091 8  21212518.84446  21212520.01746
      1281.776         998.784  
 112715351.423    87830164.9094   21449019.197 7  21449017.50044  21449021.83744
      5497.242        4283.569  
 121290115.338    94336776.913    22665957.522 6  22665957.056 6  22665958.187 5
      1492.611        1160.939  
 105930422.828    82543205.4104   20157889.499 8  20157889.63146  20157892.27246
      3224.298        2512.438  
 118498852.937    92165818.802    22206636.281 4  22206634.857 4  22206645.208 4
      6708.365        5217.647  
 109859791.538                    20609416.324 7  20609415.886 6                
      1215.960                  
 125931866.008    98128748.8644   23964036.462 6  23964036.01343  23964041.51043
      4672.861        3641.194  
 110299241.657    85788321.084    20684577.164 7  20684576.715 7  20684583.177 7
      1078.201         838.586  
 104201882.263    81045932.917    19493118.112 8  19493117.714 8  19493121.513 7
      3893.231        3028.071  
 107814531.179    83855770.750    20176019.957 7  20176020.117 7  20176024.347 7
      5929.849        4612.108  
 120672646.667    94030652.0064   22963242.663 7  22963242.06644  22963246.52444
        11.636           9.064  
 11  5 30  7 35 15.0000000  0 14R16G 4G 7G23G10R21G13R 6R14G16R 3R 5
                                R15G20                              
 126750752.308    98583941.166    23728009.030 7  23728007.485 7  23728011.827 6
      7909.166        6151.566  
 113327076.701    88306832.5904   21565426.631 8  21565426.58546  21565430.80046
      2017.962        1572.433  
 119201210.132    92884079.7264   22683237.040 7  22683236.84545  22683240.65845
      6535.205        5092.367  
 111466124.898    86856738.9844   21211299.106 8  21211298.68946  21211299.95746
      1283.012         999.751  
 112687862.313    87808744.8154   21443787.728 7  21443786.74244  21443790.95144
      5498.168        4284.293  
 121282655.588    94330974.876    22664565.440 6  22664563.920 6  22664564.345 5
      1491.335        1159.920  
 105914300.021    82530642.1814   20154821.643 8  20154821.55746  20154824.19446
      3224.868        2512.884  
 118465303.716    92139724.970    22200348.989 4  22200348.927 4  22200357.764 4
      6709.972        5218.851  
 109853713.872                    20608276.324 7  20608275.705 6                
      1214.904                  
 125908501.276    98110542.5864   23959590.508 6  23959590.15343  23959595.28543
      4672.988        3641.279  
 110293853.140    85784130.008    20683566.582 7  20683566.327 7  20683572.530 7
      1077.270         837.887  
 104182415.305    81030791.949    19489476.352 8  19489475.728 8  19489479.537 7
      3893.417        3028.220  
 107784883.670    83832711.584    20170471.735 7  20170472.223 7  20170476.278 7
      5929.038        4611.472  
 120672584.254    94030603.3574   22963230.636 7  22963230.16544  22963234.73344
        13.180          10.286  
 11  5 30  7 35 20.0000000  0 14R16G 4G 7G23G10R21G13R 6R14G16R 3R 5
                                R15G20                              
 126711200.664    98553178.789    23720603.853 7  23720603.343 7  23720607.944 6
      7911.532        6153.395  
 113316987.003    88298970.4874   21563506.661 8  21563506.55146  21563510.72946
      2017.511        1572.079  
 119168531.672    92858615.9984   22677018.229 7  22677018.13945  22677022.16945
      6536.279        5093.194  
 111459707.036    86851738.0524   21210077.668 8  21210077.33146  21210078.73746
      1284.060        1000.557  
 112660368.313    87787320.9184   21438555.499 7  21438554.61044  21438559.20044
      5499.075        4284.998  
 121275200.608    94325176.546    22663170.676 6  22663170.900 6  22663171.495 5
      1490.540        1159.317  
 105898175.114    82518077.3134   20151753.294 8  20151753.04546  20151755.79746
      3225.089        2513.048  
 118431743.427    92113622.495    22194062.663 4  22194060.475 4  22194067.001 4
      6713.150        5221.321  
 109847641.921                    20607137.898 7  20607137.137 7                
      1213.747                  
 125885136.395    98092336.1994   23955144.213 6  23955144.07243  23955148.84643
      4672.830        3641.141  
 110288469.568    85779942.781    20682556.920 7  20682556.673 7  20682562.329 7
      1076.150         836.998  
 104162947.428    81015650.266    19485834.294 8  19485833.695 8  19485837.649 7
      3893.450        3028.223  
 107755240.986    83809656.165    20164925.467 7  20164925.009 7  20164929.179 7
      5927.958        4610.630  
 120672513.767    94030548.4214   22963217.629 7  22963217.10344  22963221.38944
        14.920          11.637  
 11  5 30  7 35 25.0000000  0 14R16G 4G 7G23G10R21G13R 6R14G16R 3R 5
                                R15G20                              
 126671637.165    98522407.186    23713197.134 7  23713196.771 7  23713201.464 6
      7913.983        6155.314  
 113306899.299    88291109.9364   21561586.740 8  21561587.01546  21561591.05746
      2017.336        1571.957  
 119135847.224    92833147.5974   22670798.345 7  22670798.48345  22670802.67745
      6537.617        5094.232  
 111453283.616    86846732.7864   21208855.333 8  21208854.94746  21208856.37546
      1285.246        1001.491  
 112632869.815    87765893.5194   21433322.560 7  21433321.70844  21433326.20344
      5500.101        4285.800  
 121267750.764    94319382.250    22661777.885 6  22661777.725 6  22661779.301 5
      1489.479        1158.487  
 105882048.466    82505511.0934   20148684.625 8  20148684.28446  20148686.94446
      3225.627        2513.481  
 118398172.684    92087511.785    22187766.635 4  22187768.966 4  22187775.451 4
      6714.505        5222.365  
 109841575.872                    20605999.016 7  20605999.140 7                
      1212.819                  
 125861771.767    98074130.0094   23950698.748 6  23950697.98043  23950702.28643
      4673.032        3641.329  
 110283091.353    85775759.723    20681548.550 8  20681548.001 7  20681553.906 7
      1075.119         836.205  
 104143478.932    81000508.100    19482192.096 8  19482191.703 8  19482195.539 7
      3893.808        3028.528  
 107725603.451    83786604.756    20159378.559 7  20159378.669 7  20159382.792 7
      5926.950        4609.855  
 120672435.608    94030487.5004   22963203.279 7  22963202.24244  22963206.54244
        16.395          12.777  
 11  5 30  7 35 30.0000000  0 14R16G 4G 7G23G10R21G13R 6R14G16R 3R 5
                                R15G20                              
 126632062.198    98491626.664    23705788.336 7  23705787.725 7  23705792.808 6
      7916.147        6157.008  
 113296813.691    88283251.0134   21559667.936 8  21559667.77446  21559671.78546
      2016.900        1571.617  
 119103156.980    92807674.6884   22664577.676 7  22664577.72045  22664581.97046
      6538.687        5095.074  
 111446854.797    86841723.3134   21207631.916 8  21207631.55546  21207633.13046
      1286.199        1002.237  
 112605366.952    87744462.7154   21428088.588 7  21428087.79744  21428092.63244
      5500.960        4286.462  
 121260306.181    94313592.016    22660386.043 6  22660385.762 6  22660388.930 5
      1488.291        1157.553  
 105865920.231    82492943.6414   20145615.381 8  20145615.23046  20145617.86646
      3225.737        2513.565  
 118364591.415    92061393.002    22181478.300 4  22181474.861 4  22181482.786 4
      6717.439        5224.643  
 109835515.870                    20604862.971 7  20604862.205 6                
      1211.433                  
 125838407.564    98055924.1564   23946252.058 6  23946251.49843  23946256.13143
      4672.751        3641.089  
 110277718.530    85771580.860    20680540.430 7  20680539.988 7  20680546.524 7
      1073.890         835.243  
 104124009.818    80985365.460    19478550.844 8  19478549.920 8  19478553.521 7
      3893.791        3028.504  
 107695971.271    83763557.503    20153833.563 7  20153833.515 7  20153837.512 7
      5925.855        4608.998  
 120672349.886    94030420.6964   22963187.093 7  22963185.90344  22963190.10844
        17.943          13.981  
 11  5 30  7 35 35.0000000  0 14R16G 4G 7G23G10R21G13R 6R14G16R 3R 5
                                R15G20                              
 126592475.583    98460837.085    23698375.123 7  23698376.640 7  23698381.936 6
      7918.543        6158.882  
 113286730.170    88275393.7194   21557749.034 8  21557749.05746  21557752.94246
      2016.596        1571.384  
 119070460.924    92782197.2504   22658355.953 7  22658355.84745  22658360.06746
      6539.871        5096.001  
 111440420.594    86836709.6424   21206407.142 8  21206407.03146  21206408.72546
      1287.468        1003.233  
 112577859.785    87723028.5674   21422855.297 7  21422853.49244  21422858.23644
      5501.981        4287.275  
 121252866.946    94307805.957    22658997.207 6  22658995.995 6  22658998.435 5
      1487.214        1156.731  
 105849790.448    82480374.9734   20142545.693 8  20142545.90946  20142548.49146
      3226.262        2513.976  
 118330999.760    92035266.156    22175179.582 4  22175179.917 4  22175186.596 4
      6718.861        5225.748  
 109829461.905                    20603726.821 7  20603726.362 6                
      1210.250                  
 125815043.818    98037718.6414   23941806.640 6  23941805.77443  23941810.33143
      4672.737        3641.085  
 110272351.160    85767406.227    20679533.612 7  20679533.301 7  20679540.329 7
      1073.046         834.593  
 104104540.394    80970222.573    19474907.968 8  19474907.737 8  19474911.565 7
      3894.060        3028.718  
 107666344.313    83740514.315    20148289.532 7  20148289.145 7  20148293.171 7
      5924.945        4608.298  
 120672256.629    94030348.0114   22963169.162 7  22963168.22644  22963172.36444
        19.520          15.215  
 11  5 30  7 35 40.0000000  0 14R16G 4G 7G23G10R21G13R 6R14G16R 3R 5
                                R15G20                              
 126552877.303    98430038.428    23690963.545 7  23690963.632 6  23690969.058 6
      7920.834        6160.637  
 113276648.540    88267537.9014   21555830.621 8  21555830.74046  21555834.43446
      2016.134        1571.015  
 119037758.972    92756715.2134   22652133.139 7  22652133.02345  22652136.94345
      6541.007        5096.891  
 111433980.857    86831691.6614   21205181.876 8  21205181.69846  21205183.35246
      1288.509        1004.027  
 112550348.223    87701590.9834   21417620.174 7  21417618.83444  21417623.09744
      5502.765        4287.862  
 121245432.851    94302023.879    22657607.531 6  22657607.710 6  22657609.233 5
      1486.182        1155.925  
 105833658.988    82467805.0064   20139476.272 8  20139476.18046  20139478.67746
      3226.417        2514.099  
 118297397.683    92009131.182    22168882.290 4  22168882.753 4  22168887.494 4
      6721.484        5227.839  
 109823413.887                    20602591.928 7  20602591.772 7                
      1209.096                  
 125791680.392    98019513.3964   23937360.610 6  23937359.80243  23937364.14243
      4672.609        3640.987  
 110266989.155    85763235.771    20678528.516 7  20678528.416 7  20678534.676 7
      1072.020         833.797  
 104085070.336    80955079.198    19471265.967 8  19471265.415 8  19471269.413 7
      3894.173        3028.808  
 107636722.539    83717475.163    20142745.266 7  20142745.588 7  20142749.788 7
      5923.863        4607.453  
 120672155.711    94030269.3694   22963149.070 7  22963149.05044  22963152.95544
        20.882          16.269  
 11  5 30  7 35 45.0000000  0 14R16G 4G 7G23G10R21G13R 6R14G16R 3R 5
                                R15G20                              
 126513267.419    98399230.754    23683548.154 7  23683548.395 6  23683553.805 6
      7923.213        6162.508  
 113266568.927    88259683.6594   21553912.538 8  21553912.62046  21553916.38946
      2015.489        1570.512  
 119005051.221    92731228.6514   22645909.592 7  22645909.07146  22645912.84045
      6542.062        5097.712  
 111427535.632    86826669.4024   21203955.257 8  21203955.34546  21203956.94546
      1289.382        1004.724  
 112522832.312    87680150.0024   21412383.880 7  21412382.74644  21412387.04344
      5503.534        4288.459  
 121238003.927    94296245.798    22656219.557 6  22656220.001 6  22656220.139 5
      1484.879        1154.899  
 105817525.874    82455233.7474   20136406.167 8  20136406.16546  20136408.68346
      3226.651        2514.268  
 118263784.946    91982987.879    22162577.871 4  22162582.781 4  22162587.400 4
      6724.165        5229.949  
 109817371.857                    20601459.403 7  20601458.753 7                
      1207.849                  
 125768317.356    98001308.4404   23932914.123 6  23932913.86743  23932918.58343
      4672.514        3640.910  
 110261632.546    85759069.520    20677524.544 7  20677524.329 7  20677529.611 7
      1070.653         832.731  
 104065599.858    80939935.491    19467623.862 8  19467623.250 8  19467627.130 7
      3894.042        3028.713  
 107607106.066    83694440.137    20137203.199 7  20137203.402 7  20137207.575 7
      5922.640        4606.499  
 120672047.186    94030184.7964   22963128.248 7  22963128.18944  22963132.40644
        22.407          17.465  
 11  5 30  7 35 50.0000000  0 14R16G 4G 7G23G10R21G13R 6R14G16R 3R 5
                                R15G20                              
 126473646.633    98368414.594    23676131.960 7  23676131.184 7  23676136.769 6
      7925.245        6164.078  
 113256492.014    88251831.5154   21551995.350 8  21551995.19446  21551998.70746
      2015.192        1570.279  
 118972338.342    92705738.0884   22639684.108 7  22639683.91946  22639687.74045
      6543.141        5098.552  
 111421085.609    86821643.4064   21202728.629 8  21202728.15546  21202729.55546
      1290.501        1005.577  
 112495312.739    87658706.1804   21407146.934 7  21407145.68144  21407150.36244
      5504.106        4288.887  
 121230580.932    94290472.339    22654832.072 6  22654832.004 6  22654833.539 5
      1484.070        1154.290  
 105801391.800    82442661.7404   20133336.323 7  20133335.98947  20133338.44746
      3226.804        2514.396  
 118230162.461    91956837.077    22156279.028 4  22156282.248 4  22156289.483 4
      6725.398        5230.828  
 109811336.532                    20600327.234 7  20600326.899 7                
      1206.566                  
 125744955.440    97983104.3374   23928467.747 6  23928468.22143  23928472.86043
      4672.346        3640.797  
 110256281.893    85754907.901    20676520.667 8  20676520.582 7  20676526.077 7
      1069.584         831.896  
 104046129.522    80924791.894    19463981.492 8  19463980.849 8  19463984.468 7
      3894.074        3028.725  
 107577495.569    83671409.752    20131662.480 7  20131662.370 7  20131666.488 7
      5921.457        4605.581  
 120671931.737    94030094.8214   22963105.950 7  22963106.10944  22963110.31944
        23.840          18.591  
 11  5 30  7 35 55.0000000  0 14R16G 4G 7G23G10R21G13R 6R14G16R 3R 5
                                R15G20                              
 126434014.569    98337589.681    23668712.321 7  23668711.902 7  23668717.662 6
      7927.490        6165.828  
 113246417.301    88243981.0734   21550078.024 8  21550077.99346  21550081.55246
      2014.612        1569.848  
 118939619.886    92680243.2024   22633457.554 7  22633457.75145  22633461.71745
      6544.062        5099.270  
 111414630.352    86816613.3304   21201500.146 8  21201499.76946  21201501.26446
      1291.352        1006.256  
 112467789.020    87637259.1324   21401908.850 7  21401907.64544  21401912.54944
      5505.159        4289.757  
 121223163.341    94284703.098    22653446.077 6  22653445.264 6  22653447.863 5
      1482.788        1153.302  
 105785256.298    82430088.6184   20130265.388 8  20130265.47746  20130267.98146
      3227.366        2514.844  
 118196530.067    91930678.593    22149980.281 4  22149980.133 4  22149988.007 4
      6727.288        5232.323  
 109805307.323                    20599196.165 7  20599195.738 7                
      1205.233                  
 125721594.172    97964900.7594   23924022.622 6  23924023.05543  23924027.30343
      4672.067        3640.576  
 110250936.898    85750750.682    20675517.854 7  20675517.740 7  20675523.989 7
      1068.375         830.974  
 104026658.934    80909648.104    19460339.044 8  19460338.516 8  19460341.707 7
      3894.057        3028.728  
 107547890.371    83648383.487    20126122.693 7  20126122.271 7  20126126.293 7
      5920.468        4604.814  
 120671808.899    94029999.0854   22963083.586 7  22963082.85344  22963086.72444
        25.223          19.658  
 11  5 30  7 36  0.0000000  0 14R16G 4G 7G23G10R21G13R 6R14G16R 3R 5
                                R15G20                              
 126394371.821    98306756.444    23661290.951 7  23661290.406 6  23661296.656 6
      7929.743        6167.592  
 113236345.485    88236132.9004   21548161.121 8  21548161.47046  21548164.95146
      2014.105        1569.442  
 118906896.522    92654744.4724   22627230.559 7  22627230.80246  22627234.72646
      6545.087        5100.074  
 111408170.475    86811579.6544   21200270.834 8  21200270.50146  21200271.99546
      1292.464        1007.121  
 112440261.866    87615809.4014   21396670.822 7  21396669.53344  21396674.23044
      5505.750        4290.194  
 121215751.679    94278938.483    22652059.783 6  22652060.348 6  22652062.838 5
      1481.885        1152.589  
 105769120.026    82417514.8984   20127194.985 8  20127194.88546  20127197.31046
      3227.217        2514.706  
 118162887.867    91904512.446    22143679.517 4  22143675.112 4  22143683.006 4
      6728.996        5233.650  
 109799284.930                    20598065.797 7  20598065.331 6                
      1203.717                  
 125698234.197    97946698.1884   23919579.051 6  23919577.77943  23919582.04343
      4671.777        3640.341  
 110245598.127    85746598.291    20674517.240 8  20674516.510 7  20674523.510 7
      1066.976         829.879  
 104007188.783    80894504.655    19456696.492 8  19456696.223 8  19456699.557 7
      3893.920        3028.604  
 107518291.329    83625362.010    20120582.738 7  20120583.047 7  20120587.131 7
      5919.174        4603.799  
 120671679.275    94029898.0714   22963059.606 7  22963058.24944  22963061.99744
        26.456          20.612  
 11  5 30  7 36  5.0000000  0 14R16G 4G 7G23G10R21G13R 6R14G16R 3R 5
                                R15G20                              
 126354718.097    98275914.668    23653867.917 7  23653867.240 7  23653873.245 6
      7931.860        6169.230  
 113226276.142    88228286.6614   21546245.105 8  21546245.30346  21546248.73946
      2013.677        1569.101  
 118874167.861    92629241.6244   22621002.317 7  22621002.65245  22621006.70645
      6546.336        5101.045  
 111401705.621    86806542.1044   21199041.105 8  21199040.35946  21199041.65946
      1293.461        1007.887  
 112412730.904    87594356.6974   21391432.823 7  21391431.06944  21391435.24644
      5506.645        4290.920  
 121208345.848    94273178.409    22650677.215 6  22650676.340 6  22650678.483 5
      1480.637        1151.595  
 105752982.589    82404940.2744   20124124.122 8  20124124.07146  20124126.42846
      3227.606        2515.026  
 118129235.869    91878338.686    22137370.381 4  22137368.394 4  22137375.477 4
      6731.062        5235.268  
 109793269.066                    20596937.582 7  20596936.901 6                
      1202.456                  
 125674875.224    97928496.4004   23915133.965 6  23915133.03743  23915137.41243
      4671.794        3640.337  
 110240265.162    85742450.420    20673517.798 7  20673516.796 7  20673523.678 7
      1066.040         829.149  
 103987718.684    80879361.245    19453054.060 8  19453053.686 8  19453057.409 7
      3894.013        3028.676  
 107488698.420    83602345.307    20115045.082 7  20115045.044 7  20115049.085 7
      5918.014        4602.910  
 120671542.518    94029791.5014   22963033.055 7  22963032.11744  22963036.18444
        27.920          21.779  
 11  5 30  7 36 10.0000000  0 14R16G 4G 7G23G10R21G13R 6R14G16R 3R 5
                                R15G20                              
 126315053.909    98245064.757    23646442.412 7  23646441.931 7  23646448.201 6
      7933.721        6170.689  
 113216209.782    88220442.7354   21544329.818 8  21544329.73946  21544333.28946
      2013.023        1568.576  
 118841434.450    92603735.0734   22614773.747 7  22614773.72746  22614777.70245
      6547.260        5101.762  
 111395236.289    86801501.0604   21197809.421 8  21197809.17846  21197810.63646
      1294.282        1008.539  
 112385196.645    87572901.4304   21386192.876 7  21386191.37044  21386195.66044
      5507.280        4291.417  
 121200946.185    94267423.105    22649294.853 6  22649293.710 6  22649295.830 5
      1479.371        1150.626  
 105736844.525    82392365.1574   20121053.318 8  20121053.15846  20121055.40846
      3227.729        2515.123  
 118095574.444    91852157.561    22131063.557 4  22131061.468 4  22131067.688 4
      6732.883        5236.694  
 109787260.084                    20595809.799 7  20595809.866 7                
      1201.168                  
 125651517.686    97910295.7414   23910688.540 6  23910687.97843  23910692.36043
      4671.309        3639.969  
 110234938.441    85738307.410    20672519.031 8  20672518.333 7  20672524.669 7
      1064.719         828.120  
 103968249.138    80864218.265    19449412.315 8  19449411.357 8  19449415.515 7
      3893.922        3028.616  
 107459111.748    83579333.461    20109508.476 7  20109508.423 7  20109512.214 7
      5916.661        4601.854  
 120671399.106    94029679.7444   22963005.434 7  22963004.94944  22963009.18044
        29.404          22.924  
 11  5 30  7 36 15.0000000  0 14R16G 4G 7G23G10R21G13R 6R14G16R 3R 5
                                R15G20                              
 126275379.113    98214206.589    23639014.419 7  23639014.899 7  23639020.360 6
      7935.854        6172.314  
 113206146.376    88212601.1134   21542414.652 8  21542414.79346  21542418.28746
      2012.381        1568.098  
 118808696.243    92578224.7894   22608543.814 7  22608543.71746  22608547.87446
      6548.102        5102.417  
 111388762.455    86796456.5054   21196577.601 8  21196577.33546  21196578.72846
      1295.170        1009.227  
 112357659.024    87551443.5484   21380952.299 7  21380950.94644  21380956.00644
      5507.902        4291.871  
 121193552.595    94261672.520    22647912.242 6  22647912.731 6  22647913.717 5
      1478.113        1149.647  
 105720705.765    82379789.4934   20117982.303 8  20117982.10946  20117984.37246
      3227.878        2515.234  
 118061903.747    91825969.217    22124751.834 5  22124751.967 4  22124757.552 4
      6734.837        5238.236  
 109781258.009                    20594684.243 7  20594683.993 7                
      1199.743                  
 125628161.601    97892096.2164   23906243.797 6  23906242.96243  23906248.14143
      4671.208        3639.897  
 110229617.915    85734169.224    20671520.689 8  20671520.757 7  20671526.197 7
      1063.513         827.181  
 103948779.987    80849075.595    19445770.470 8  19445769.639 8  19445773.540 7
      3893.820        3028.530  
 107429531.412    83556326.535    20103972.408 7  20103972.768 7  20103976.786 7
      5915.450        4600.903  
 120671249.028    94029562.7984   22962977.767 7  22962976.63144  22962980.99544
        30.664          23.890  
 11  5 30  7 36 20.0000000  0 14R16G 4G 7G23G10R21G13R 6R14G16R 3R 5
                                R15G20                              
 126235693.911    98183340.328    23631585.803 7  23631585.797 7  23631592.002 6
      7938.064        6174.034  
 113196085.939    88204761.8074   21540500.216 8  21540500.38746  21540504.01446
      2011.682        1567.547  
 118775953.314    92552710.8264   22602313.426 7  22602313.11745  22602317.00045
      6549.114        5103.207  
 111382284.169    86791408.4904   21195345.298 8  21195344.53046  21195346.01846
      1296.066        1009.919  
 112330118.123    87529983.1124   21375710.800 7  21375710.07644  21375715.23644
      5508.273        4292.154  
 121186165.142    94255926.700    22646533.213 6  22646532.121 6  22646533.195 6
      1476.779        1148.615  
 105704566.401    82367213.3664   20114911.033 8  20114910.92046  20114913.17046
      3227.823        2515.188  
 118028223.642    91799773.567    22118439.269 5  22118439.844 4  22118444.888 4
      6737.793        5240.507  
 109775262.727                    20593559.746 7  20593559.413 7                
      1198.300                  
 125604807.029    97873897.8574   23901799.013 6  23901798.89243  23901804.02643
      4670.816        3639.597  
 110224303.664    85730035.914    20670523.911 7  20670523.839 7  20670528.936 7
      1062.195         826.149  
 103929311.569    80833933.497    19442128.472 8  19442127.719 8  19442131.327 7
      3893.618        3028.375  
 107399957.567    83533324.654    20098438.321 7  20098438.436 7  20098442.605 7
      5914.271        4599.988  
 120671092.345    94029440.7054   22962947.185 6  22962946.57944  22962951.28944
        32.004          24.938  
 11  5 30  7 36 25.0000000  0 14R16G 4G 7G23G10R21G13R 6R14G16R 3R 5
                                R15G20                              
 126195998.333    98152466.003    23624156.064 7  23624155.171 7  23624160.913 6
      7940.257        6175.756  
 113186028.516    88196924.8484   21538585.900 8  21538586.51946  21538590.21046
      2011.245        1567.202  
 118743205.697    92527193.2024   22596081.067 7  22596081.37845  22596085.20245
      6550.048        5103.930  
 111375801.399    86786356.9784   21194111.607 8  21194110.82046  21194112.36146
      1297.004        1010.651  
 112302573.968    87508520.1424   21370469.379 7  21370468.22744  21370473.73044
      5509.151        4292.834  
 121178783.912    94250185.735    22645152.876 6  22645152.352 6  22645154.292 6
      1475.599        1147.676  
 105688426.437    82354636.7694   20111839.843 8  20111839.67246  20111841.87646
      3228.079        2515.390  
 117994534.312    91773570.735    22112124.539 5  22112125.937 4  22112129.132 4
      6738.661        5241.170  
 109769274.554                    20592436.122 7  20592435.831 7                
      1196.930                  
 125581453.992    97855700.6904   23897355.799 6  23897355.17043  23897359.47043
      4670.460        3639.322  
 110218995.741    85725907.537    20669528.400 7  20669528.546 7  20669533.553 7
      1061.029         825.244  
 103909843.727    80818791.836    19438486.048 8  19438485.674 8  19438489.231 7
      3893.472        3028.254  
 107370389.989    83510327.657    20092905.845 7  20092905.323 7  20092909.601 7
      5912.972        4598.976  
 120670929.023    94029313.4204   22962915.836 7  22962915.23744  22962920.06944
        33.357          26.011  
 11  5 30  7 36 30.0000000  0 14R16G 4G 7G23G10R21G13R 6R14G16R 3R 5
                                R15G20                              
 126156292.289    98121583.549    23616723.024 7  23616722.491 7  23616727.779 6
      7942.221        6177.271  
 113175974.127    88189090.2584   21536672.706 8  21536673.08346  21536676.84446
      2010.573        1566.699  
 118710453.457    92501671.9774   22589848.577 7  22589848.94645  22589852.42446
      6550.916        5104.615  
 111369314.220    86781302.0254   21192876.687 8  21192876.24846  21192877.83646
      1297.789        1011.257  
 112275026.617    87487054.6804   21365227.599 7  21365226.36544  21365231.15344
      5509.798        4293.347  
 121171408.800    94244449.535    22643775.112 6  22643774.360 6  22643776.188 6
      1474.355        1146.738  
 105672285.873    82342059.7064   20108768.206 8  20108768.20746  20108770.40246
      3228.218        2515.500  
 117960835.639    91747360.644    22105811.556 5  22105811.123 4  22105813.700 4
      6740.601        5242.718  
 109763293.381                    20591314.572 7  20591313.639 7                
      1195.499                  
 125558102.659    97837504.8504   23892912.750 6  23892911.68843  23892915.56943
      4670.106        3639.048  
 110213694.052    85721783.998    20668533.954 7  20668534.039 7  20668539.957 7
      1059.740         824.244  
 103890376.640    80803650.773    19434844.598 8  19434843.885 8  19434847.365 7
      3893.338        3028.150  
 107340828.789    83487335.611    20087372.828 7  20087373.225 7  20087377.527 7
      5911.630        4597.938  
 120670759.148    94029181.0374   22962883.005 7  22962882.86844  22962887.54544
        34.540          26.913  
 11  5 30  7 36 35.0000000  0 14R16G 4G 7G23G10R21G13R 6R14G16R 3R 5
                                R15G20                              
 126116576.055    98090693.150    23609287.834 7  23609287.583 7  23609292.747 6
      7944.280        6178.879  
 113165922.877    88181258.1104   21534760.697 8  21534760.42846  21534764.31346
      2009.890        1566.154  
 118677696.681    92476147.2194   22583615.857 7  22583615.63846  22583619.04545
      6551.701        5105.220  
 111362822.660    86776243.6584   21191641.694 8  21191640.96546  21191642.46846
      1298.752        1012.003  
 112247476.180    87465586.7954   21359985.544 7  21359983.88144  21359988.49344
      5510.383        4293.793  
 121164040.014    94238718.243    22642398.572 6  22642397.738 6  22642399.213 6
      1473.035        1145.692  
 105656144.831    82329482.2644   20105697.053 8  20105696.68646  20105698.87346
      3228.225        2515.501  
 117927127.829    91721143.446    22099495.486 5  22099494.896 4  22099497.806 4
      6742.496        5244.154  
 109757319.056                    20590193.077 7  20590193.038 7                
      1194.046                  
 125534752.985    97819310.3004   23888468.905 6  23888468.25343  23888471.95443
      4669.720        3638.723  
 110208398.778    85717665.438    20667541.693 7  20667540.964 7  20667547.828 7
      1058.350         823.155  
 103870910.088    80788510.117    19431203.121 8  19431202.521 8  19431205.638 7
      3893.196        3028.042  
 107311274.294    83464348.782    20081842.565 7  20081842.512 7  20081846.787 7
      5910.150        4596.783  
 120670582.752    94029043.5764   22962849.949 7  22962849.41444  22962854.04644
        35.834          27.923  
 11  5 30  7 36 40.0000000  0 14R16G 4G 7G23G10R21G13R 6R14G16R 3R 5
                                R15G20                              
 126076849.556    98059794.770    23601850.710 7  23601850.514 7  23601856.095 6
      7946.432        6180.554  
 113155874.674    88173428.3374   21532848.291 8  21532848.29846  21532852.18846
      2009.362        1565.736  
 118644935.285    92450618.8654   22577381.558 7  22577381.45945  22577384.40145
      6552.818        5106.107  
 111356326.682    86771181.8534   21190404.657 8  21190404.67646  21190406.10746
      1299.645        1012.713  
 112219922.568    87444116.4434   21354742.772 7  21354740.99544  21354744.97244
      5511.183        4294.449  
 121156677.280    94232991.669    22641021.242 6  22641021.285 6  22641023.440 6
      1471.989        1144.876  
 105640003.228    82316904.3934   20102625.495 8  20102625.08546  20102627.23146
      3228.467        2515.689  
 117893410.713    91694919.019    22093176.252 5  22093175.849 4  22093180.245 4
      6744.145        5245.436  
 109751351.738                    20589073.619 7  20589073.885 7                
      1192.838                  
 125511404.886    97801116.9824   23884026.037 6  23884025.31243  23884029.12943
      4669.635        3638.650  
 110203109.736    85713551.729    20666549.471 7  20666549.212 7  20666556.179 7
      1057.181         822.253  
 103851444.343    80773370.094    19427561.456 8  19427561.174 8  19427564.242 7
      3893.137        3027.995  
 107281726.633    83441367.264    20076312.658 7  20076312.896 7  20076317.441 7
      5908.832        4595.755  
 120670399.790    94028901.0024   22962815.899 7  22962814.94344  22962819.12944
        37.156          28.949  
 11  5 30  7 36 45.0000000  0 14R16G 4G 7G23G10R21G13R 6R14G16R 3R 5
                                R15G20                              
 126037113.142    98028888.676    23594412.188 7  23594411.668 7  23594417.396 6
      7948.312        6182.013  
 113145829.888    88165601.2304   21530937.064 8  21530936.82146  21530940.66246
      2008.588        1565.134  
 118612169.639    92425087.1944   22571146.016 7  22571146.41845  22571149.30245
      6553.500        5106.615  
 111349826.571    86766116.8204   21189168.492 8  21189167.79946  21189169.05446
      1300.496        1013.374  
 112192366.096    87422643.8664   21349498.323 7  21349497.14644  21349501.36744
      5511.889        4294.972  
 121149321.241    94227270.305    22639644.990 6  22639646.158 6  22639648.824 6
      1470.215        1143.506  
 105623861.384    82304326.3334   20099553.447 8  20099553.43946  20099555.62346
      3228.446        2515.673  
 117859684.705    91668687.653    22086855.346 4  22086854.980 4  22086859.409 4
      6746.695        5247.443  
 109745391.713                    20587956.215 7  20587955.663 7                
      1191.511                  
 125488058.736    97782925.1884   23879583.652 6  23879583.03743  23879587.18443
      4669.125        3638.287  
 110197827.359    85709443.203    20665559.038 8  20665558.817 7  20665564.864 7
      1055.845         821.212  
 103831979.593    80758230.844    19423921.050 8  19423919.941 8  19423922.944 7
      3892.995        3027.882  
 107252185.593    83418390.902    20070785.308 7  20070784.973 7  20070789.309 7
      5907.594        4594.792  
 120670210.532    94028753.5284   22962780.245 7  22962779.10044  22962783.48644
        38.434          29.954  
 11  5 30  7 36 50.0000000  0 14R16G 4G 7G23G10R21G13R 6R14G16R 3R 5
                                R15G20                              
 125997366.743    97997974.824    23586972.748 7  23586971.501 7  23586976.715 6
      7950.287        6183.555  
 113135788.405    88157776.6934   21529026.080 8  21529026.10846  21529029.95046
      2007.999        1564.670  
 118579399.727    92399552.1974   22564910.199 7  22564910.48746  22564913.41646
      6554.425        5107.347  
 111343322.380    86761048.6184   21187930.757 8  21187930.28146  21187931.27446
      1301.199        1013.930  
 112164806.847    87401169.1274   21344253.053 7  21344252.80344  21344257.24844
      5512.006        4295.064  
 121141971.541    94221553.891    22638271.955 6  22638273.196 6  22638274.750 6
      1469.233        1142.738  
 105607719.320    82291748.1004   20096481.786 8  20096481.68146  20096483.85246
      3228.491        2515.709  
 117825949.928    91642449.484    22080536.300 4  22080533.381 4  22080537.075 4
      6747.293        5247.895  
 109739438.780                    20586838.457 7  20586838.470 7                
      1189.838                  
 125464714.533    97764734.9254   23875141.978 7  23875140.98643  23875145.44843
      4668.618        3637.913  
 110192551.601    85705339.841    20664569.916 7  20664569.700 7  20664574.924 7
      1054.449         820.123  
 103812515.970    80743092.467    19420279.126 8  19420278.994 8  19420281.823 7
      3892.547        3027.533  
 107222651.519    83395419.959    20065257.861 7  20065257.994 7  20065262.435 7
      5906.158        4593.676  
 120670015.038    94028601.1814   22962743.058 7  22962741.85944  22962746.11144
        39.781          31.000  
 11  5 30  7 36 55.0000000  0 15R16G 4G 2G 7G23G10R21G13R 6R14G16R 3
                                R 5R15G20                           
 125957610.164    97967053.045    23579529.776 7  23579528.923 7  23579534.420 6
      7952.331        6185.144  
 113125749.983    88149954.5424   21527115.346 8  21527115.80546  21527119.79146
      2007.402        1564.212  
 118948762.252                    22635193.381 4                                
      5148.041                  
 118546625.329    92374013.7074   22558673.784 7  22558673.87546  22558676.81245
      6555.462        5108.158  
 111336813.840    86755977.0204   21186692.073 8  21186691.77646  21186692.78246
      1302.213        1014.715  
 112137244.519    87379691.9894   21339008.310 7  21339007.53644  21339012.61144
      5512.868        4295.758  
 121134628.155    94215842.358    22636903.123 6  22636901.218 6  22636902.668 6
      1467.951        1141.745  
 105591576.792    82279169.5034   20093409.762 8  20093409.88546  20093412.02246
      3228.589        2515.786  
 117792205.951    91616204.189    22074212.557 4  22074211.667 4  22074213.047 4
      6749.740        5249.789  
 109733492.940                    20585722.990 7  20585723.245 7                
      1188.677                  
 125441372.036    97746545.9834   23870700.146 6  23870699.12143  23870703.54343
      4668.430        3637.743  
 110187282.281    85701241.480    20663581.164 7  20663581.266 7  20663586.371 7
      1053.311         819.247  
 103793053.013    80727954.610    19416638.337 8  19416638.078 8  19416641.113 7
      3892.554        3027.548  
 107193124.005    83372454.112    20059731.997 7  20059732.206 7  20059736.793 7
      5904.892        4592.694  
 120669813.043    94028443.7644   22962704.424 7  22962703.24244  22962707.90744
        40.910          31.882  
 11  5 30  7 37  0.0000000  0 15R16G 4G 2G 7G23G10R21G13R 6R14G16R 3
                                R 5R15G20                           
 125917843.683    97936123.582    23572085.741 7  23572084.255 7  23572090.305 6
      7954.290        6186.670  
 113115714.944    88142135.0304   21525206.429 8  21525206.28046  21525209.95546
      2006.649        1563.614  
 118923022.050                    22630294.104 4                                
      5147.934                  
 118513846.703    92348471.9204   22552436.483 7  22552436.33745  22552439.10945
      6556.172        5108.707  
 111330301.158    86750902.2034   21185453.634 8  21185452.41546  21185453.46946
      1302.970        1015.301  
 112109679.366    87358212.6504   21333763.059 7  21333762.21544  21333767.07644
      5513.301        4296.067  
 121127291.166    94210135.824    22635530.945 6  22635529.765 6  22635532.255 6
      1466.703        1140.777  
 105575434.017    82266590.7154   20090338.206 8  20090338.00647  20090340.13646
      3228.554        2515.760  
 117758453.159    91589952.023    22067888.158 4  22067887.837 4  22067887.975 4
      6751.137        5250.881  
 109727554.299                    20584609.351 7  20584609.673 7                
      1186.952                  
 125418031.512    97728358.5864   23866258.409 6  23866257.33943  23866262.00443
      4667.886        3637.322  
 110182019.488    85697148.191    20662594.155 7  20662593.993 7  20662599.434 7
      1051.974         818.203  
 103773591.192    80712817.635    19412997.705 8  19412997.252 8  19413000.507 7
      3892.296        3027.344  
 107163603.512    83349493.729    20054208.917 7  20054208.025 7  20054212.335 7
      5903.332        4591.486  
 120669604.767    94028281.4564   22962664.751 7  22962663.60444  22962667.97444
        42.311          32.993  
 11  5 30  7 37  5.0000000  0 15R16G 4G 2G 7G23G10R21G13R 6R14G16R 3
                                R 5R15G20                           
 125878067.114    97905186.253    23564637.645 7  23564638.042 7  23564644.209 6
      7956.449        6188.332  
 113105682.996    88134317.9284   21523297.611 7  21523297.28846  21523300.97346
      2005.854        1562.987  
 118897283.727                    22625397.712 4                                
      5147.738                  
 118481063.584    92322926.6394   22546197.913 7  22546197.78045  22546200.68345
      6556.910        5109.273  
 111323784.134    86745824.0024   21184212.828 8  21184212.33346  21184213.31846
      1303.859        1015.987  
 112082111.187    87336730.9594   21328517.070 7  21328516.04644  21328520.52944
      5513.851        4296.500  
 121119960.310    94204434.049    22634159.974 6  22634159.701 5  22634162.523 6
      1465.717        1139.995  
 105559290.729    82254011.5304   20087266.488 8  20087266.08846  20087268.21046
      3228.629        2515.809  
 117724691.188    91563692.721    22061562.526 5  22061561.841 4  22061559.512 4
      6753.281        5252.563  
 109721622.590                    20583497.104 7  20583496.568 7                
      1185.610                  
 125394692.773    97710172.5444   23861815.438 6  23861815.91443  23861820.60143
      4667.479        3637.001  
 110176763.039    85693059.842    20661608.876 7  20661608.254 7  20661614.112 7
      1050.619         817.146  
 103754130.212    80697681.314    19409357.429 8  19409356.542 8  19409360.023 7
      3892.039        3027.144  
 107134089.622    83326538.483    20048684.533 7  20048684.942 7  20048689.229 7
      5902.029        4590.461  
 120669389.939    94028114.0574   22962623.524 6  22962622.36244  22962627.14244
        43.674          34.037  
 11  5 30  7 37 10.0000000  0 15R16G 4G 2G 7G23G10R21G13R 6R14G16R 3
                                R 5R15G20                           
 125838280.437    97874241.076    23557189.229 7  23557189.876 7  23557196.200 6
      7958.354        6189.810  
 113095654.150    88126503.2374   21521388.684 8  21521388.85646  21521392.55746
      2005.558        1562.776  
 118871547.384                    22620499.438 4                                
      5146.652                  
 118448276.035    92297377.9104   22539958.765 8  22539958.44145  22539961.31945
      6558.131        5110.233  
 111317262.759    86740742.4014   21182971.909 8  21182971.43446  21182972.35946
      1304.766        1016.685  
 112054540.028    87315246.9314   21323270.578 7  21323269.74544  21323273.92344
      5514.694        4297.182  
 121112635.770    94198737.191    22632791.407 5  22632791.360 5  22632792.934 5
      1464.261        1138.879  
 105543146.964    82241431.9684   20084194.143 8  20084194.02546  20084196.09846
      3228.896        2516.020  
 117690920.277    91537426.440    22055232.528 5  22055233.343 4  22055232.190 4
      6754.932        5253.840  
 109715697.897                    20582385.804 7  20582385.081 7                
      1184.247                  
 125371355.804    97691987.8964   23857374.629 6  23857375.11843  23857379.21043
      4667.301        3636.853  
 110171512.875    85688976.375    20660624.029 7  20660623.589 7  20660630.172 7
      1049.474         816.264  
 103734669.992    80682545.588    19405716.554 8  19405716.135 8  19405719.695 7
      3892.144        3027.218  
 107104582.624    83303588.601    20043163.479 7  20043163.069 7  20043167.346 7
      5900.853        4589.547  
 120669168.612    94027941.5844   22962581.419 7  22962580.32744  22962585.01144
        45.026          35.099  
 11  5 30  7 37 15.0000000  0 16R16G30G 4G 2G 7G23G10R21G13R 6R14G16
                                R 3R 5R15G20                        
 125798483.604    97843288.002    23549739.039 7  23549739.845 7  23549746.033 6
      7960.315        6191.354  
 124780999.037                    23745034.810 7                                
      3248.761                  
 113085628.324    88118690.9064   21519480.856 8  21519481.04946  21519484.64946
      2004.942        1562.291  
 118845812.814                    22615600.931 4                                
      5146.781                  
 118415484.003    92271825.6784   22533717.995 7  22533718.27545  22533721.26345
      6558.924        5110.852  
 111310736.946    86735657.3474   21181730.490 8  21181729.55346  21181730.41046
      1305.655        1017.389  
 112026965.784    87293760.5034   21318022.984 7  21318022.45744  21318026.54644
      5515.253        4297.599  
 121105317.205    94193044.954    22631424.766 6  22631424.487 6  22631424.355 5
      1463.038        1137.925  
 105527002.665    82228851.9904   20081121.800 8  20081121.91446  20081123.94946
      3228.929        2516.051  
 117657140.140    91511153.024    22048901.841 5  22048903.157 5  22048902.711 4
      6756.594        5255.137  
 109709780.038                    20581274.972 7  20581274.871 7                
      1182.862                  
 125348020.509    97673804.5634   23852935.768 6  23852934.71643  23852938.68243
      4666.983        3636.613  
 110166268.921    85684897.733    20659640.445 7  20659640.377 7  20659646.994 7
      1048.168         815.251  
 103715210.557    80667410.474    19402076.435 8  19402075.835 8  19402079.320 7
      3891.792        3026.951  
 107075082.247    83280643.865    20037641.880 7  20037642.113 7  20037646.714 7
      5899.494        4588.496  
 120668940.678    94027763.9714   22962538.745 7  22962537.37844  22962541.83744
        46.271          36.059  
 11  5 30  7 37 20.0000000  0 16R16G30G 4G 2G 7G23G10R21G13R 6R14G16
                                R 3R 5R15G20                        
 125758676.799    97812327.171    23542286.464 7  23542288.065 7  23542293.878 6
      7962.125        6192.749  
 124764758.158    97219306.6474   23741942.914 6  23741944.1164   23741953.1864 
      3247.724        2530.686  
 113075605.677    88110881.0424   21517573.927 8  21517573.84546  21517577.32546
      2004.308        1561.795  
 118820080.198                    22610706.483 4                                
      5146.399                  
 118382687.599    92246270.0404   22527477.158 7  22527477.27245  22527480.18445
      6559.647        5111.415  
 111304206.817    86730568.9284   21180487.297 8  21180486.86446  21180487.75746
      1306.570        1018.102  
 111999388.630    87272271.8094   21312775.017 7  21312774.53844  21312779.08644
      5515.703        4297.955  
 121098004.962    94187357.641    22630056.256 6  22630057.847 5  22630057.877 5
      1461.753        1136.950  
 105510857.960    82216271.7004   20078049.802 8  20078049.72446  20078051.68246
      3229.014        2516.114  
 117623351.077    91484872.671    22042570.701 5  22042570.136 5  22042570.825 4
      6759.040        5257.039  
 109703869.213                    20580166.544 7  20580166.161 7                
      1181.630                  
 125324686.990    97655622.6154   23848495.654 7  23848494.90543  23848498.69043
      4666.514        3636.237  
 110161031.273    85680824.002    20658658.705 7  20658658.317 7  20658664.268 7
      1046.862         814.234  
 103695752.042    80652276.068    19398436.254 8  19398435.720 8  19398439.093 7
      3891.630        3026.827  
 107045588.696    83257704.441    20032123.051 7  20032122.796 7  20032127.446 7
      5898.015        4587.344  
 120668706.231    94027581.2834   22962493.966 7  22962492.98744  22962497.26244
        47.423          36.946  
 11  5 30  7 37 25.0000000  0 16R16G30G 4G 2G 7G23G10R21G13R 6R14G16
                                R 3R 5R15G20                        
 125718859.664    97781358.288    23534833.365 7  23534834.181 7  23534839.990 6
      7964.551        6194.639  
 124748522.039    97206655.1164   23738853.277 6  23738853.63444  23738860.51844
      3247.031        2530.158  
 113065585.879    88103073.3954   21515666.858 8  21515667.14546  21515670.62746
      2003.687        1561.305  
 118794349.390                    22605810.451 4                                
      5146.072                  
 118349886.557    92220710.7904   22521235.875 7  22521235.40145  22521238.39545
      6560.741        5112.271  
 111297672.099    86725476.9294   21179244.011 8  21179243.39746  21179244.09046
      1307.433        1018.772  
 111971808.268    87250780.6144   21307527.728 7  21307526.41444  21307530.84944
      5516.518        4298.601  
 121090698.571    94181674.915    22628691.879 5  22628691.945 5  22628692.888 5
      1460.554        1135.972  
 105494712.521    82203690.8344   20074977.604 8  20074977.34846  20074979.30446
      3229.179        2516.238  
 117589552.727    91458585.056    22036237.493 5  22036235.002 4  22036237.385 4
      6760.906        5258.475  
 109697964.922                    20579059.387 7  20579058.653 7                
      1180.209                  
 125301355.064    97637441.9064   23844055.643 6  23844055.17543  23844058.37743
      4666.289        3636.064  
 110155799.553    85676754.883    20657677.372 7  20657677.032 7  20657682.689 7
      1045.665         813.286  
 103676294.200    80637142.191    19394795.996 8  19394795.548 8  19394799.146 7
      3891.571        3026.772  
 107016101.593    83234770.029    20026604.383 7  20026604.854 7  20026609.144 7
      5896.814        4586.405  
 120668465.057    94027393.3464   22962447.763 7  22962446.89344  22962451.37844
        48.954          38.144  
 11  5 30  7 37 30.0000000  0 16R16G30G 4G 2G 7G23G10R21G13R 6R14G16
                                R 3R 5R15G20                        
 125679032.476    97750381.593    23527377.824 7  23527378.217 7  23527384.118 6
      7966.386        6196.071  
 124732290.955    97194007.5094   23735766.086 6  23735765.51244  23735771.05844
      3245.954        2529.308  
 113055569.095    88095268.1134   21513760.669 8  21513760.95046  21513764.48846
      2003.154        1560.892  
 118768620.406                    22600915.166 4                                
      5145.548                  
 118317081.122    92195148.1104   22514993.073 7  22514992.68545  22514995.65145
      6561.479        5112.836  
 111291132.976    86720381.4984   21177999.837 8  21177999.10046  21177999.84746
      1308.361        1019.509  
 111944224.950    87229287.1184   21302279.474 7  21302277.30344  21302281.93844
      5517.006        4298.977  
 121083398.400    94175997.012    22627328.366 5  22627328.022 5  22627329.969 5
      1459.099        1134.858  
 105478566.576    82191109.5754   20071904.925 8  20071904.93446  20071906.82346
      3229.274        2516.312  
 117555745.219    91432290.336    22029901.483 5  22029897.318 4  22029902.153 5
      6762.622        5259.806  
 109692067.577                    20577952.854 7  20577952.324 7                
      1178.850                  
 125278024.986    97619262.6494   23839616.150 6  23839615.49643  23839618.71043
      4665.952        3635.798  
 110150574.072    85672690.618    20656697.271 7  20656696.967 7  20656702.573 7
      1044.500         812.387  
 103656837.204    80622008.974    19391156.275 8  19391155.687 8  19391159.368 7
      3891.361        3026.606  
 106986621.378    83211840.974    20021087.783 7  20021088.037 7  20021092.164 7
      5895.431        4585.329  
 120668217.352    94027200.3124   22962399.956 7  22962399.45344  22962404.34844
        50.176          39.097  
 11  5 30  7 37 35.0000000  0 16R16G30G 4G 2G 7G23G10R21G13R 6R14G16
                                R 3R 5R15G20                        
 125639194.985    97719396.902    23519920.351 7  23519920.702 7  23519926.288 6
      7968.506        6197.731  
 124716064.618    97181363.6124   23732678.429 6  23732678.07144  23732683.03944
      3244.806        2528.426  
 113045555.226    88087465.0954   21511855.975 8  21511855.40446  21511858.95146
      2002.536        1560.421  
 118742893.195                    22596018.255 4                                
      5145.410                  
 118284271.015    92169581.7994   22508749.498 7  22508749.02045  22508752.17045
      6562.545        5113.670  
 111284589.207    86715282.4534   21176753.814 8  21176753.85546  21176754.49746
      1309.300        1020.240  
 111916638.368    87207791.0854   21297029.230 7  21297027.70544  21297032.44244
      5517.715        4299.514  
 121076103.937    94170323.538    22625964.891 5  22625964.024 5  22625966.431 5
      1458.350        1134.271  
 105462419.874    82178527.7274   20068832.533 8  20068832.28646  20068834.20946
      3229.408        2516.426  
 117521928.520    91405988.500    22023560.255 4  22023560.230 4  22023565.223 5
      6764.814        5261.520  
 109686176.797                    20576848.100 7  20576847.291 7                
      1177.500                  
 125254696.491    97601084.5964   23835175.674 6  23835175.73943  23835179.33543
      4665.602        3635.528  
 110145354.591    85668631.019    20655718.153 7  20655717.760 7  20655723.897 7
      1043.277         811.439  
 103637380.767    80606876.190    19387516.732 8  19387515.989 8  19387519.785 7
      3891.202        3026.497  
 106957147.540    83188916.873    20015572.332 7  20015572.177 7  20015576.430 7
      5894.185        4584.373  
 120667962.822    94027001.9634   22962351.992 7  22962351.08344  22962356.17444
        51.642          40.256  
 11  5 30  7 37 40.0000000  0 17G 8R16G30G 4G 2G 7G23G10R21G13R 6R14
                                G16R 3R 5R15G20                     
 131458361.337   102435101.4434   25015693.370 6  25015691.68643  25015697.59543
      7095.383        5528.886  
 125599347.424    97688404.370    23512461.209 7  23512461.306 6  23512466.591 6
      7970.776        6199.481  
 124699843.241    97168723.5894   23729591.176 6  23729591.02244  23729596.14444
      3243.684        2527.552  
 113035544.262    88079664.3354   21509950.387 8  21509950.36046  21509953.95246
      2001.871        1559.905  
 118717167.793                    22591121.632 4                                
      5145.072                  
 118251456.501    92144012.0544   22502505.016 7  22502504.56545  22502507.67645
      6563.425        5114.357  
 111278040.993    86710179.9434   21175507.757 8  21175507.78846  21175508.53546
      1310.131        1020.879  
 111889048.755    87186292.6884   21291778.428 7  21291777.38244  21291782.31244
      5518.369        4300.035  
 121068815.541    94164654.799    22624602.866 5  22624601.401 5  22624603.032 5
      1457.026        1133.233  
 105446272.615    82165945.4474   20065759.760 8  20065759.54446  20065761.49146
      3229.586        2516.564  
 117488102.693    91379679.514    22017223.156 4  22017222.933 4  22017225.689 5
      6765.495        5262.071  
 109680292.701                    20575744.121 7  20575743.635 7                
      1176.263                  
 125231369.769    97582907.9324   23830737.480 6  23830736.37643  23830739.76243
      4665.162        3635.187  
 110140141.253    85664576.190    20654740.437 7  20654740.136 7  20654746.332 7
      1041.986         810.437  
 103617925.126    80591744.025    19383876.825 8  19383876.376 8  19383880.237 7
      3891.048        3026.374  
 106927680.321    83165997.931    20010057.221 7  20010057.815 7  20010062.111 7
      5892.736        4583.248  
 120667701.687    94026798.4784   22962301.393 7  22962301.25844  22962306.35244
        53.003          41.307  
 11  5 30  7 37 45.0000000  0 17G 8R16G30G 4G 2G 7G23G10R21G13R 6R14
                                G16R 3R 5R15G20                     
 131422878.601   102407452.5554   25008940.968 6  25008939.69243  25008945.99643
      7097.876        5530.795  
 125559489.314    97657403.626    23505000.371 7  23504999.917 7  23505005.354 6
      7972.541        6200.853  
 124683626.317    97156087.0234   23726504.687 6  23726504.96843  23726509.92143
      3242.741        2526.840  
 113025535.793    88071865.5224   21508045.981 8  21508045.86446  21508049.53646
      2001.373        1559.516  
 118691443.802                    22586229.120 5                                
      5144.848                  
 118218637.075    92118438.4804   22496259.232 8  22496259.24645  22496262.42245
      6564.400        5115.123  
 111271487.806    86705073.5624   21174261.406 8  21174260.80946  21174261.52746
      1311.093        1021.637  
 111861455.606    87164791.5354   21286527.548 7  21286526.42744  21286531.24744
      5518.929        4300.468  
 121061532.796    94158990.442    22623237.192 5  22623240.388 5  22623242.270 5
      1455.764        1132.286  
 105430124.285    82153362.3314   20062686.768 8  20062686.66047  20062688.55746
      3229.804        2516.737  
 117454267.332    91353363.097    22010885.404 4  22010884.826 4  22010884.761 5
      6767.726        5263.814  
 109674415.098                    20574640.934 7  20574640.766 7                
      1174.862                  
 125208044.326    97564732.2664   23826298.719 6  23826297.76343  23826301.19343
      4665.028        3635.060  
 110134933.542    85660525.748    20653764.946 8  20653764.224 7  20653769.480 7
      1040.815         809.518  
 103598469.823    80576612.122    19380237.809 8  19380237.050 8  19380240.685 7
      3890.987        3026.331  
 106898219.610    83143084.037    20004544.409 7  20004544.630 7  20004549.021 7
      5891.460        4582.250  
 120667433.451    94026589.4454   22962250.490 7  22962250.23244  22962255.07744
        54.250          42.278  
 11  5 30  7 37 50.0000000  0 17G 8R16G30G 4G 2G 7G23G10R21G13R 6R14
                                G16R 3R 5R15G20                     
 131387383.867   102379794.3284   25002187.191 6  25002185.21543  25002191.53943
      7100.070        5532.509  
 125519620.945    97626394.911    23497535.645 7  23497536.274 6  23497541.938 6
      7974.649        6202.497  
 124667414.166    97143454.1614   23723418.706 6  23723419.28143  23723424.54543
      3241.793        2526.090  
 113015530.053    88064068.8424   21506141.485 8  21506141.77046  21506145.51446
      2000.972        1559.188  
 118665721.567    92466808.8144   22581334.309 5  22581335.48941  22581335.01741
      5144.304        4008.636  
 118185813.023    92092861.3034   22490013.244 7  22490012.96745  22490016.24345
      6565.367        5115.873  
 111264929.931    86699963.5274   21173012.807 8  21173012.71246  21173013.63946
      1312.046        1022.374  
 111833859.239    87143287.8794   21281276.331 7  21281275.22644  21281279.70744
      5519.821        4301.136  
 121054255.688    94153330.500    22621883.434 5  22621881.117 5  22621883.189 5
      1454.773        1131.475  
 105413975.199    82140778.6244   20059613.735 8  20059613.69247  20059615.45847
      3229.934        2516.826  
 117420422.600    91327039.399    22004543.407 4  22004542.455 4  22004542.793 5
      6770.177        5265.687  
 109668543.922                    20573540.128 7  20573539.047 7                
      1173.812                  
 125184720.470    97546557.8434   23821859.696 6  23821859.05543  23821863.21343
      4664.598        3634.758  
 110129731.778    85656479.927    20652789.351 8  20652789.016 7  20652794.106 7
      1039.722         808.671  
 103579015.100    80561480.669    19376598.054 8  19376597.635 8  19376601.220 7
      3890.970        3026.303  
 106868765.280    83120175.121    19999032.938 7  19999032.723 7  19999037.053 7
      5890.310        4581.345  
 120667158.337    94026375.0634   22962198.934 7  22962198.17544  22962202.67244
        55.860          43.521  
 11  5 30  7 37 55.0000000  0 17G 8R16G30G 4G 2G 7G23G10R21G13R 6R14
                                G16R 3R 5R15G20                     
 131351877.058   102352126.6954   24995430.899 6  24995428.88143  24995434.72443
      7102.657        5534.561  
 125479742.242    97595378.144    23490070.494 7  23490070.894 7  23490076.234 6
      7976.669        6204.088  
 124651206.677    97130824.9524   23720334.458 6  23720334.70843  23720340.50043
      3240.808        2525.271  
 113005527.003    88056274.2604   21504237.732 8  21504238.37046  21504242.11246
      2000.306        1558.663  
 118640000.921    92446766.7134   22576440.773 5  22576438.36341  22576440.01041
      5143.871        4008.091  
 118152984.295    92067280.4704   22483766.274 7  22483766.19945  22483769.24046
      6566.269        5116.574  
 111258367.312    86694849.7884   21171763.791 8  21171763.83546  21171764.87746
      1312.928        1023.064  
 111806259.582    87121781.6364   21276023.939 7  21276022.97644  21276027.40844
      5520.458        4301.681  
 121046984.354    94147675.006    22620524.128 5  22620523.571 5  22620524.605 5
      1453.769        1130.720  
 105397825.263    82128194.2534   20056540.754 8  20056540.46446  20056542.26946
      3229.995        2516.878  
 117386568.522    91300708.456    21998196.652 5  21998198.116 4  21998199.494 5
      6771.592        5266.779  
 109662679.135                    20572439.437 7  20572438.688 7                
      1172.281                  
 125161398.091    97528384.5814   23817422.006 6  23817421.46143  23817425.05443
      4664.161        3634.427  
 110124535.857    85652438.658    20651814.518 7  20651814.568 7  20651819.863 7
      1038.539         807.749  
 103559560.882    80546349.613    19372958.743 8  19372958.191 8  19372961.844 7
      3890.775        3026.156  
 106839317.313    83097271.152    19993522.353 7  19993522.135 7  19993526.388 7
      5888.762        4580.150  
 120666876.310    94026155.2994   22962145.951 7  22962144.70644  22962148.76244
        57.040          44.431  
 11  5 30  7 38  0.0000000  0 17G 8R16G30G 4G 2G 7G23G10R21G13R 6R14
                                G16R 3R 5R15G20                     
 131316358.397   102324449.8314   24988671.418 6  24988669.48643  24988675.78343
      7104.897        5536.281  
 125439853.528    97564353.602    23482604.669 7  23482603.906 7  23482608.586 6
      7978.762        6205.695  
 124635004.075    97118199.5314   23717251.414 6  23717251.54943  23717257.30043
      3240.110        2524.771  
 112995526.906    88048481.9754   21502335.355 8  21502335.38446  21502339.17646
      1999.698        1558.197  
 118614282.092    92426726.0564   22571546.978 4  22571545.10641  22571546.43841
      5143.573        4008.008  
 118120151.085    92041696.1504   22477518.248 7  22477518.36945  22477521.33845
      6567.139        5117.252  
 111251800.139    86689732.5064   21170514.563 8  21170514.00746  21170515.21046
      1313.829        1023.759  
 111778656.890    87100273.0414   21270770.838 7  21270770.07644  21270774.50744
      5520.938        4302.021  
 121039718.943    94142024.130    22619166.737 5  22619165.532 5  22619166.232 5
      1452.589        1129.784  
 105381674.702    82115609.3974   20053467.119 8  20053467.08646  20053468.88846
      3230.102        2516.955  
 117352705.418    91274370.511    21991849.974 5  21991851.852 4  21991853.966 5
      6773.730        5268.435  
 109656821.126                    20571340.374 7  20571340.055 7                
      1170.967                  
 125138077.501    97510212.6874   23812983.949 6  23812983.76343  23812987.45343
      4663.917        3634.200  
 110119346.030    85648402.119    20650841.453 7  20650840.946 7  20650846.814 7
      1037.439         806.893  
 103540107.467    80531219.182    19369319.517 8  19369318.997 8  19369322.681 7
      3890.675        3026.087  
 106809876.284    83074372.577    19988012.062 7  19988012.752 7  19988016.704 7
      5887.667        4579.292  
 120666587.614    94025930.3334   22962090.515 7  22962089.60944  22962094.18744
        58.350          45.460  
 11  5 30  7 38  5.0000000  0 17G 8R16G30G 4G 2G 7G23G10R21G13R 6R14
                                G16R 3R 5R15G20                     
 131280827.645   102296763.5414   24981909.448 6  24981908.16543  24981914.57543
      7107.229        5538.117  
 125399954.499    97533321.033    23475136.011 7  23475135.004 7  23475139.585 6
      7980.780        6207.276  
 124618806.150    97105577.7784   23714169.006 6  23714168.72443  23714174.84143
      3238.980        2523.844  
 112985529.418    88040691.7154   21500432.858 8  21500432.81046  21500436.71446
      1999.203        1557.817  
 118588564.886    92406686.6574   22566650.367 4  22566650.68741  22566650.51341
      5142.901        4007.430  
 118087313.200    92016108.1914   22471269.119 7  22471269.45445  22471272.35345
      6567.984        5117.904  
 111245228.166    86684611.4804   21169263.326 8  21169263.47446  21169264.49646
      1314.882        1024.575  
 111751050.865    87078761.8534   21265517.622 7  21265517.10644  21265521.55144
      5521.411        4302.409  
 121032459.142    94136377.595    22617808.899 5  22617808.879 5  22617809.087 5
      1451.378        1128.864  
 105365523.245    82103023.8414   20050393.692 8  20050393.49146  20050395.36146
      3230.285        2517.098  
 117318832.813    91248025.201    21985502.513 5  21985502.762 4  21985505.942 5
      6774.678        5269.181  
 109650969.510                    20570242.644 7  20570242.667 7                
      1169.463                  
 125114758.377    97492041.9574   23808547.164 6  23808546.06943  23808550.14043
      4663.505        3633.919  
 110114161.894    85644370.002    20649868.736 7  20649868.408 7  20649874.851 7
      1036.177         805.911  
 103520654.527    80516089.115    19365680.153 8  19365679.989 8  19365683.666 7
      3890.352        3025.833  
 106780441.466    83051478.823    19982503.956 7  19982504.313 7  19982508.106 7
      5886.081        4578.059  
 120666291.937    94025699.9234   22962034.230 7  22962033.43344  22962038.17644
        59.809          46.595  
 11  5 30  7 38 10.0000000  0 16G 8R16G30G 4G 2G 7G23G10R21G13R14G16
                                R 3R 5R15G20                        
 131245285.192   102269068.1224   24975145.514 6  24975144.69143  24975150.90743
      7109.799        5540.091  
 125360045.577    97502280.761    23467664.820 7  23467663.823 7  23467668.395 6
      7982.768        6208.825  
 124602613.257    97092959.9294   23711086.969 6  23711087.27343  23711093.52643
      3238.216        2523.216  
 112975534.937    88032903.8094   21498531.305 8  21498530.98146  21498534.66146
      1998.579        1557.328  
 118562849.621    92386648.8154   22561758.320 4  22561756.51941  22561758.88941
      5143.147        4007.658  
 118054470.995    91990516.8634   22465019.870 7  22465019.67045  22465022.63745
      6568.920        5118.646  
 111238651.787    86679487.0234   21168012.762 8  21168012.10046  21168013.16546
      1315.829        1025.321  
 111723441.913    87057248.3874   21260263.898 7  21260263.05544  21260267.62044
      5522.138        4302.948  
 121025205.344    94130735.742    22616451.612 5  22616452.429 5  22616453.667 5
      1450.297        1128.038  
 105349371.303    82090437.9084   20047320.114 8  20047319.95647  20047321.75946
      3230.431        2517.219  
 109645124.582                    20569146.620 7  20569146.507 7                
      1168.436                  
 125091441.137    97473872.6944   23804109.234 6  23804109.01943  23804112.82143
      4663.349        3633.773  
 110108983.770    85640342.563    20648898.141 7  20648897.453 7  20648903.983 7
      1035.050         805.049  
 103501202.567    80500959.815    19362041.497 8  19362041.014 8  19362044.861 7
      3890.408        3025.870  
 106751013.706    83028590.567    19976997.239 7  19976997.382 7  19977000.954 7
      5884.965        4577.199  
 120665989.703    94025464.4054   22961976.764 7  22961976.12544  22961980.95544
        61.079          47.600  
 11  5 30  7 38 15.0000000  0 16G 8R16G30G 4G 2G 7G23G10R21G13R14G16
                                R 3R 5R15G20                        
 131209730.680   102241363.3174   24968378.121 6  24968378.93443  24968384.97143
      7112.171        5541.951  
 125320126.356    97471232.495    23460190.144 7  23460190.530 7  23460195.477 6
      7984.891        6210.459  
 124586425.067    97080345.7474   23708007.012 6  23708007.23243  23708012.94543
      3237.050        2522.344  
 112965543.221    88025118.0514   21496629.964 8  21496629.65846  21496633.22746
      1998.075        1556.940  
 118537136.046    92366612.2794   22556868.231 4  22556865.71341  22556863.35341
      5142.793        4007.358  
 118021624.092    91964921.8794   22458768.958 7  22458768.93645  22458772.16645
      6569.885        5119.392  
 111232070.637    86674358.8474   21166760.007 8  21166759.75746  21166760.90546
      1316.755        1026.045  
 111695829.711    87035732.3834   21255009.642 7  21255008.81944  21255012.92044
      5522.812        4303.490  
 121017957.189    94125098.298    22615098.092 5  22615097.076 5  22615100.114 5
      1449.319        1127.246  
 105333218.533    82077851.3284   20044246.229 8  20044246.18146  20044248.00746
      3230.667        2517.406  
 109639286.139                    20568050.724 7  20568050.862 7                
      1167.112                  
 125068125.499    97455704.6654   23799672.168 6  23799672.15643  23799675.91843
      4663.217        3633.696  
 110103811.353    85636319.568    20647928.098 8  20647928.036 7  20647933.638 7
      1033.958         804.201  
 103481751.041    80485830.852    19358402.222 8  19358402.078 8  19358406.129 7
      3890.261        3025.754  
 106721592.539    83005707.446    19971491.486 7  19971491.650 7  19971495.341 7
      5883.551        4576.094  
 120665680.480    94025223.4444   22961917.353 7  22961917.02644  22961922.14144
        62.682          48.850  
 11  5 30  7 38 20.0000000  0 16G 8R16G30G 4G 2G 7G23G10R21G13R14G16
                                R 3R 5R15G20                        
 131174164.162   102213649.1564   24961610.126 6  24961610.86443  24961616.88543
      7114.486        5543.757  
 125280196.904    97440176.277    23452715.852 7  23452715.427 6  23452720.654 6
      7986.876        6212.013  
 124570241.499    97067735.1664   23704928.485 6  23704927.98643  23704932.65543
      3236.337        2521.849  
 112955554.068    88017334.2904   21494728.565 8  21494728.76246  21494732.39046
      1997.527        1556.518  
 118511424.169    92346577.0334   22551975.144 4  22551972.53141  22551972.19041
      5142.175        4006.903  
 117988772.540    91939323.2724   22452517.001 7  22452517.39845  22452520.65545
      6570.804        5120.117  
 111225484.655    86669226.9084   21165506.783 8  21165506.46246  21165507.79046
      1317.714        1026.794  
 111668214.256    87014213.8454   21249755.178 7  21249753.91344  21249757.97644
      5523.395        4303.927  
 121010714.701    94119465.253    22613746.500 6  22613744.756 5  22613747.435 5
      1447.738        1126.034  
 105317064.864    82065264.0464   20041172.287 8  20041172.20546  20041174.01846
      3230.799        2517.514  
 109633454.033                    20566956.370 7  20566956.351 7                
      1165.781                  
 125044811.389    97437537.8344   23795235.567 6  23795235.36943  23795238.78543
      4662.774        3633.339  
 110098644.696    85632301.057    20646959.283 8  20646959.219 7  20646964.163 7
      1032.686         803.200  
 103462300.071    80470702.317    19354764.091 8  19354763.473 8  19354767.267 7
      3890.046        3025.591  
 106692177.760    82982829.290    19965986.874 7  19965987.204 7  19965990.997 7
      5882.300        4575.129  
 120665364.256    94024977.0294   22961856.967 7  22961856.92344  22961861.93144
        63.794          49.712  
 11  5 30  7 38 25.0000000  0 16G 8R16G30G 4G 2G 7G23G10R21G13R14G16
                                R 3R 5R15G20                        
 131138585.679   102185925.6954   24954840.945 6  24954840.03043  24954846.76543
      7116.974        5545.687  
 125240257.282    97409112.143    23445241.029 7  23445238.914 6  23445243.984 6
      7988.901        6213.592  
 124554062.713    97055128.3184   23701849.979 7  23701849.54043  23701854.09843
      3235.263        2520.994  
 112945567.582    88009552.6124   21492828.066 7  21492828.38046  21492832.04446
      1996.950        1556.083  
 118485714.004    92326543.1214   22547081.240 5  22547079.94641  22547079.38941
      5141.664        4006.522  
 117955916.450    91913721.1264   22446264.360 7  22446265.24745  22446268.48545
      6571.755        5120.853  
 111218893.938    86664091.2804   21164252.907 8  21164252.36746  21164253.64946
      1318.599        1027.482  
 111640595.636    86992692.8354   21244499.613 7  21244498.23444  21244502.40344
      5523.950        4304.353  
 121003477.779    94113836.528    22612392.642 6  22612392.400 6  22612394.465 5
      1446.962        1125.416  
 105300910.378    82052676.1344   20038098.190 8  20038098.04746  20038099.96046
      3231.113        2517.754  
 109627628.409                    20565863.332 7  20565863.117 7                
      1164.596                  
 125021498.907    97419372.2724   23790798.968 6  23790798.57243  23790802.94443
      4662.154        3632.854  
 110093483.876    85628287.078    20645991.033 7  20645990.903 7  20645996.020 7
      1031.597         802.357  
 103442849.844    80455574.362    19351125.103 8  19351124.848 8  19351128.549 7
      3890.050        3025.595  
 106662769.660    82959956.326    19960483.758 7  19960483.878 7  19960487.672 7
      5881.099        4574.188  
 120665041.127    94024725.2364   22961796.094 7  22961795.44344  22961800.41344
        65.465          51.010  
 11  5 30  7 38 30.0000000  0 16G 8R16G30G 4G 2G 7G23G10R21G13R14G16
                                R 3R 5R15G20                        
 131102995.370   102158192.9904   24948068.483 6  24948067.67843  24948074.16043
      7119.274        5547.490  
 125200307.679    97378040.243    23437760.674 7  23437760.254 6  23437765.229 6
      7990.962        6215.181  
 124537888.803    97042525.2694   23698771.174 6  23698771.56543  23698776.37743
      3234.257        2520.216  
 112935583.976    88001773.1714   21490928.991 8  21490928.65146  21490932.16946
      1996.361        1555.605  
 118460005.668    92306510.6524   22542188.546 5  22542187.86941  22542186.48741
      5141.589        4006.411  
 117923055.947    91888115.5394   22440011.405 7  22440012.13945  22440015.39445
      6572.388        5121.329  
 111212298.607    86658952.0554   21162998.044 8  21162997.56546  21162998.71846
      1319.335        1028.052  
 111612973.983    86971169.4724   21239242.875 7  21239242.13444  21239246.03944
      5524.498        4304.796  
 120996246.700    94108212.355    22611041.850 6  22611041.023 6  22611042.837 5
      1445.634        1124.390  
 105284755.206    82040087.6824   20035023.880 8  20035023.76446  20035025.76246
      3231.024        2517.676  
 109621809.200                    20564772.800 7  20564772.130 7                
      1163.197                  
 124998188.208    97401208.1024   23786362.561 6  23786362.48643  23786366.70443
      4661.907        3632.648  
 110088328.952    85624277.688    20645024.483 7  20645024.208 7  20645029.568 7
      1030.351         801.379  
 103423400.222    80440446.881    19347486.755 8  19347486.572 8  19347489.815 7
      3889.705        3025.324  
 106633368.449    82937088.720    19954982.002 7  19954981.943 7  19954985.608 7
      5879.433        4572.890  
 120664711.285    94024468.2004   22961733.958 7  22961732.77244  22961737.50744
        66.438          51.748  
 11  5 30  7 38 35.0000000  0 16G 8R16G30G 4G 2G 7G23G10R21G13R14G16
                                R 3R 5R15G20                        
 131067393.470   102130451.2544   24941294.374 6  24941292.60943  24941299.36643
      7121.610        5549.326  
 125160348.239    97346960.682    23430278.033 7  23430279.448 6  23430284.861 6
      7992.977        6216.755  
 124521719.896    97029926.1174   23695693.968 6  23695694.34643  23695699.42043
      3233.343        2519.483  
 112925603.293    87993996.0104   21489029.522 8  21489029.46146  21489032.80346
      1995.788        1555.157  
 118434299.377    92286479.8134   22537296.615 4  22537294.91841  22537296.42041
      5141.552        4006.477  
 117890191.142    91862506.6054   22433758.411 7  22433758.20645  22433761.48745
      6573.373        5122.106  
 111205698.807    86653809.3454   21161742.333 8  21161741.70146  21161742.85346
      1320.464        1028.931  
 111585349.436    86949643.8494   21233986.109 7  21233985.26344  21233989.25544
      5525.218        4305.345  
 120989021.536    94102592.769    22609693.239 6  22609691.682 6  22609693.132 6
      1444.490        1123.483  
 105268599.450    82027498.7814   20031949.739 8  20031949.30946  20031951.49446
      3231.258        2517.859  
 109615996.754                    20563682.852 7  20563682.499 7                
      1161.986                  
 124974879.387    97383045.3844   23781927.746 6  23781926.82043  23781931.98943
      4661.699        3632.457  
 110083180.001    85620272.946    20644059.510 8  20644058.954 7  20644064.455 7
      1029.359         800.612  
 103403951.583    80425320.155    19343848.847 8  19343848.342 8  19343851.398 7
      3889.650        3025.279  
 106603974.177    82914226.510    19949480.723 7  19949481.389 7  19949484.777 7
      5878.318        4572.022  
 120664374.723    94024205.9314   22961670.453 7  22961668.82144  22961673.26344
        68.023          53.018  
 11  5 30  7 38 40.0000000  0 16G 8R16G30G 4G 2G 7G23G10R21G13R14G16
                                R 3R 5R15G20                        
 131031779.927   102102700.4554   24934516.623 6  24934515.70243  24934522.07743
      7123.746        5550.975  
 125120379.057    97315873.552    23422796.114 6  23422796.909 6  23422802.377 6
      7994.746        6218.133  
 124505556.074    97017330.9104   23692618.658 6  23692618.48143  23692623.71543
      3232.208        2518.607  
 112915625.746    87986221.2964   21487130.727 8  21487130.87546  21487134.14846
      1995.051        1554.578  
 118408595.278    92266450.6074   22532403.898 4  22532403.90641  22532405.62641
      5140.450        4005.562  
 117857322.154    91836894.4104   22427504.491 8  22427503.51345  22427506.70645
      6574.102        5122.667  
 111199094.616    86648663.2264   21160485.815 8  21160485.05746  21160486.14446
      1321.199        1029.512  
 111557722.136    86928116.0684   21228729.380 7  21228728.37344  21228731.73444
      5525.489        4305.569  
 120981802.438    94096977.915    22608343.886 6  22608343.055 6  22608344.365 6
      1443.267        1122.531  
 105252443.248    82014909.5284   20028874.633 8  20028874.85246  20028877.01846
      3231.126        2517.757  
 109610191.057                    20562594.394 7  20562593.729 7                
      1160.364                  
 124951572.630    97364884.2824   23777493.444 6  23777492.40243  23777496.65143
      4661.043        3631.991  
 110078037.077    85616272.892    20643094.897 8  20643094.711 7  20643100.147 7
      1027.994         799.554  
 103384503.955    80410194.219    19340210.587 8  19340210.145 8  19340213.431 7
      3889.354        3025.057  
 106574586.645    82891369.540    19943982.387 7  19943981.850 7  19943985.529 7
      5876.818        4570.861  
 120664031.611    94023938.5624   22961604.826 7  22961603.51044  22961608.06144
        69.092          53.830  
 11  5 30  7 38 45.0000000  0 16G 8R16G30G 4G 2G 7G23G10R21G13R14G16
                                R 3R 5R15G20                        
 130996154.974   102074940.7724   24927736.036 6  24927736.31643  24927742.80843
      7126.249        5552.938  
 125080400.294    97284778.968    23415312.052 7  23415312.531 6  23415318.256 6
      7996.639        6219.617  
 124489397.498    97004739.8214   23689544.168 6  23689543.86143  23689549.00943
      3231.200        2517.822  
 112905651.298    87978448.9914   21485232.837 8  21485232.75346  21485235.99846
      1994.555        1554.203  
 118382893.354    92246423.1454   22527510.869 4  22527512.02941  22527513.56441
      5139.777        4005.081  
 117824449.120    91811279.0654   22421248.915 7  22421247.95445  22421251.13945
      6574.996        5123.372  
 111192486.180    86643513.7914   21159228.522 8  21159227.65046  21159228.66046
      1322.105        1030.217  
 111530092.153    86906586.2104   21223471.590 7  21223470.54444  21223474.28644
      5526.087        4306.032  
 120974589.464    94091367.827    22606995.189 6  22606994.374 6  22606996.552 6
      1442.043        1121.594  
 105236286.739    82002320.0374   20025800.172 8  20025800.31946  20025802.59846
      3231.284        2517.884  
 109604392.161                    20561505.817 7  20561505.270 7                
      1159.156                  
 124928268.027    97346724.8564   23773059.506 6  23773058.07443  23773061.42743
      4660.619        3631.654  
 110072900.380    85612277.685    20642131.681 7  20642131.378 7  20642136.899 7
      1026.678         798.520  
 103365057.387    80395069.119    19336572.768 8  19336572.165 8  19336575.917 7
      3889.301        3025.012  
 106545206.294    82868518.160    19938483.648 7  19938483.578 7  19938487.510 7
      5875.318        4569.691  
 120663682.032    94023666.1614   22961537.170 7  22961536.90844  22961541.70344
        70.479          54.918  
 11  5 30  7 38 50.0000000  0 16G 8R16G30G 4G 2G 7G23G10R21G13R14G16
                                R 3R 5R15G20                        
 130960518.455   102047172.0614   24920954.733 6  24920954.81843  24920961.24843
      7128.301        5554.537  
 125040411.585    97253676.658    23407825.905 6  23407826.396 6  23407832.399 6
      7998.758        6221.238  
 124473243.906    96992152.6074   23686470.526 6  23686470.51043  23686475.33643
      3230.109        2516.992  
 112895679.790    87970678.9784   21483335.318 8  21483335.33246  21483338.42246
      1993.939        1553.718  
 118357193.432    92226397.2764   22522622.092 4  22522622.02241  22522624.48041
      5139.554        4004.787  
 117791571.861    91785660.4264   22414992.015 7  22414991.70045  22414994.82445
      6575.835        5124.020  
 111185873.219    86638360.8304   21157970.618 8  21157969.25646  21157970.27446
      1322.965        1030.887  
 111502459.238    86885054.0554   21218212.679 7  21218212.15844  21218215.96944
      5526.669        4306.482  
 120967382.331    94085762.278    22605647.642 6  22605646.922 6  22605649.903 6
      1440.785        1120.614  
 105220129.626    81989730.0744   20022725.310 8  20022725.69846  20022728.07346
      3231.406        2517.980  
 109598599.925                    20560418.355 7  20560417.773 7                
      1157.589                  
 124904965.291    97328566.8824   23768624.508 6  23768623.82543  23768626.78043
      4660.165        3631.323  
 110067769.605    85608287.077    20641168.954 7  20641168.782 7  20641174.880 7
      1025.353         797.506  
 103345611.871    80379944.826    19332935.062 8  19332934.612 8  19332938.267 7
      3888.966        3024.751  
 106515833.151    82845672.386    19932986.318 7  19932986.646 7  19932990.826 7
      5873.767        4568.482  
 120663325.776    94023388.5464   22961469.231 7  22961469.20844  22961473.93244
        71.885          56.020  
 11  5 30  7 38 55.0000000  0 16G 8R16G30G 4G 2G 7G23G10R21G13R14G16
                                R 3R 5R15G20                        
 130924870.247   102019394.2664   24914170.596 6  24914171.22143  24914177.54843
      7130.811        5556.478  
 125000413.201    97222566.830    23400338.492 6  23400338.309 6  23400344.339 6
      8000.561        6222.659  
 124457095.336    96979569.3214   23683397.369 6  23683397.22943  23683402.41443
      3229.246        2516.299  
 112885711.165    87962911.2164   21481438.212 8  21481438.38446  21481441.53946
      1993.374        1553.281  
 118331495.580    92206372.9974   22517731.887 4  22517731.38541  22517733.92741
      5139.428        4004.674  
 117758690.360    91760038.4724   22408734.143 7  22408734.44645  22408737.54445
      6576.918        5124.878  
 111179255.770    86633204.3724   21156710.784 8  21156710.02046  21156711.10146
      1323.941        1031.651  
 111474823.468    86863519.6934   21212953.365 7  21212952.97444  21212957.44044
      5527.270        4306.953  
 120960181.015    94080161.253    22604303.041 6  22604302.168 6  22604304.463 6
      1439.752        1119.824  
 105203971.927    81977139.6514   20019651.017 8  20019650.99646  20019653.33846
      3231.714        2518.224  
 109592814.199                    20559332.891 7  20559332.508 7                
      1156.510                  
 124881664.478    97310410.4204   23764189.545 6  23764189.66743  23764192.33443
      4660.004        3631.172  
 110062644.748    85604301.070    20640208.078 7  20640207.572 7  20640213.890 7
      1024.441         796.781  
 103326167.253    80364821.229    19329297.392 8  19329297.007 8  19329300.729 7
      3888.820        3024.645  
 106486466.973    82822832.030    19927491.268 7  19927491.269 7  19927495.301 7
      5872.484        4567.487  
 120662962.855    94023105.7394   22961400.898 7  22961400.35144  22961404.84844
        73.266          57.088  
 11  5 30  7 39  0.0000000  0 16G 8R16G30G 4G 2G 7G23G10R21G13R14G16
                                R 3R 5R15G20                        
 130889210.479   101991607.4384   24907384.990 6  24907385.68543  24907391.30443
      7133.291        5558.400  
 124960404.992    97191449.344    23392848.804 6  23392848.172 6  23392854.825 6
      8002.528        6224.187  
 124440951.791    96966989.9154   23680325.234 7  23680325.03243  23680330.46643
      3228.022        2515.328  
 112875745.484    87955145.7484   21479541.633 8  21479541.97646  21479545.07046
      1992.843        1552.870  
 118305799.821    92186350.3174   22512843.899 4  22512841.07341  22512843.57141
      5139.245        4004.577  
 117725804.658    91734413.2544   22402476.267 7  22402476.49445  22402479.51345
      6577.469        5125.295  
 111172633.783    86628044.3794   21155450.787 8  21155449.86846  21155450.99846
      1324.823        1032.318  
 111447184.884    86841983.1334   21207694.639 7  21207693.42344  21207698.19644
      5528.057        4307.581  
 120952985.599    94074564.794    22602957.788 6  22602958.413 6  22602959.542 6
      1438.314        1118.693  
 105187813.712    81964548.8344   20016576.438 8  20016576.17946  20016578.56346
      3231.648        2518.168  
 109587035.072                    20558249.810 7  20558249.165 7                
      1155.209                  
 124858365.643    97292255.4894   23759755.681 6  23759755.79343  23759759.40643
      4659.622        3630.912  
 110057525.907    85600319.738    20639248.187 7  20639247.788 7  20639253.845 7
      1023.139         795.773  
 103306723.641    80349698.427    19325660.348 8  19325659.626 8  19325663.227 7
      3888.613        3024.470  
 106457107.862    82799997.170    19921997.931 7  19921997.270 7  19922000.903 7
      5871.098        4566.400  
 120662593.251    94022817.7324   22961330.635 7  22961329.82244  22961334.78144
        74.548          58.094  
 11  5 30  7 39  5.0000000  0 16G 8R16G30G 4G 2G 7G23G10R21G13R14G16
                                R 3R 5R15G20                        
 130853539.437   101963811.8344   24900597.377 6  24900597.73243  24900603.43743
      7135.473        5560.100  
 124920387.403    97160324.569    23385358.411 6  23385356.713 6  23385363.380 6
      8004.379        6225.640  
 124424813.605    96954414.7224   23677254.449 7  23677254.06643  23677259.53243
      3226.910        2514.475  
 112865783.083    87947382.8304   21477646.024 8  21477646.18146  21477649.35546
      1992.182        1552.354  
 118280106.570    92166329.5814   22507954.264 5  22507953.71041  22507953.14841
      5138.436        4004.002  
 117692915.047    91708784.9854   22396217.463 7  22396217.68845  22396220.79245
      6578.507        5126.119  
 111166007.597    86622881.1114   21154189.931 8  21154188.91546  21154190.00146
      1325.708        1033.023  
 111419543.757    86820444.5954   21202434.212 7  21202433.63744  21202437.98744
      5528.532        4307.968  
 120945796.256    94068973.067    22601613.405 6  22601613.805 6  22601615.003 6
      1437.305        1117.907  
 105171655.249    81951957.8224   20013501.287 8  20013501.33646  20013503.78646
      3231.732        2518.241  
 109581262.762                    20557166.731 7  20557166.838 7                
      1153.747                  
 124835069.126    97274102.3634   23755322.882 6  23755321.99843  23755326.25243
      4659.124        3630.483  
 110052413.322    85596343.274    20638289.571 8  20638289.263 7  20638294.623 7
      1021.925         794.839  
 103287281.219    80334576.536    19322023.625 8  19322022.756 8  19322026.181 7
      3888.443        3024.352  
 106427755.751    82777167.747    19916504.131 7  19916504.317 7  19916508.006 7
      5869.683        4565.312  
 120662217.256    94022524.7404   22961258.685 7  22961257.97744  22961263.44144
        75.805          59.082  
 11  5 30  7 39 10.0000000  0 16G 8R16G30G 4G 2G 7G23G10R21G13R14G16
                                R 3R 5R15G20                        
 130817856.787   101936007.1814   24893808.593 6  24893807.63943  24893813.38243
      7137.714        5561.844  
 124880359.935    97129192.122    23377863.784 6  23377863.353 6  23377869.872 6
      8006.502        6227.278  
 124408680.421    96941843.4014   23674183.583 6  23674184.25543  23674189.19543
      3226.152        2513.872  
 112855823.543    87939622.1394   21475751.258 8  21475750.92746  21475754.00846
      1991.528        1551.837  
 118254415.294    92146310.3554   22503068.365 5  22503065.38341  22503066.20241
      5137.975        4003.689  
 117660021.192    91683153.4104   22389958.327 7  22389958.33045  22389961.38445
      6579.182        5126.633  
 111159376.883    86617714.3114   21152927.917 8  21152927.10146  21152928.26046
      1326.659        1033.766  
 111391899.772    86798903.8224   21197173.708 7  21197173.31444  21197177.20244
      5529.085        4308.380  
 120938612.675    94063385.835    22600271.079 6  22600269.677 6  22600272.597 5
      1436.065        1116.944  
 105155496.163    81939366.3274   20010426.388 8  20010426.35046  20010428.72646
      3231.789        2518.281  
 109575497.125                    20556085.711 7  20556085.091 7                
      1152.460                  
 124811774.532    97255950.7464   23750890.224 6  23750889.52243  23750893.94143
      4658.552        3630.053  
 110047306.747    85592371.499    20637332.313 8  20637331.903 7  20637336.316 7
      1020.694         793.870  
 103267839.737    80319455.385    19318386.338 8  19318385.709 8  19318389.064 7
      3888.193        3024.157  
 106398410.669    82754343.792    19911012.987 7  19911012.625 7  19911016.566 7
      5868.240        4564.189  
 120661834.548    94022226.5044   22961186.299 7  22961185.14444  22961190.31144
        77.200          60.161  
 11  5 30  7 39 15.0000000  0 16G 8R16G30G 4G 2G 7G23G10R21G13R14G16
                                R 3R 5R15G20                        
 130782162.809   101908193.6964   24887016.427 6  24887015.67143  24887020.77343
      7139.823        5563.473  
 124840323.155    97098052.412    23370369.776 6  23370368.402 6  23370374.996 6
      8008.342        6228.708  
 124392552.501    96929276.1904   23671115.835 6  23671115.39343  23671119.91243
      3225.023        2513.039  
 112845867.125    87931863.8884   21473856.338 8  21473856.25246  21473859.44446
      1990.945        1551.389  
 118228726.411    92126293.0804   22498175.827 4  22498176.08241  22498178.78341
      5137.458        4003.210  
 117627123.368    91657518.7394   22383697.812 7  22383698.03845  22383701.22745
      6579.857        5127.158  
 111152741.872    86612544.1734   21151665.507 8  21151664.40846  21151665.67246
      1327.474        1034.396  
 111364253.186    86777361.0264   21191912.989 7  21191912.29544  21191916.17044
      5529.463        4308.665  
 120931435.228    94057803.375    22598930.433 6  22598929.449 6  22598931.112 5
      1435.129        1116.205  
 105139336.760    81926774.5834   20007351.023 8  20007351.33746  20007353.69346
      3231.971        2518.416  
 109569738.152                    20555004.295 7  20555003.901 7                
      1151.076                  
 124788482.149    97237800.8424   23746457.786 6  23746457.26643  23746461.71743
      4658.286        3629.808  
 110042206.294    85588404.486    20636375.364 7  20636375.135 7  20636380.057 7
      1019.352         792.834  
 103248399.419    80304335.136    19314749.089 8  19314748.754 8  19314752.162 7
      3887.958        3023.963  
 106369073.121    82731525.701    19905521.942 7  19905522.128 7  19905526.519 7
      5866.896        4563.140  
 120661445.396    94021923.2534   22961112.963 7  22961111.38244  22961116.31444
        78.687          61.324  
 11  5 30  7 39 20.0000000  0 16G 8R16G30G 4G 2G 7G23G10R21G13R14G16
                                R 3R 5R15G20                        
 130746457.496   101880371.3934   24880221.937 6  24880221.09943  24880226.53943
      7142.237        5565.364  
 124800276.850    97066905.295    23362869.631 6  23362872.111 6  23362878.005 6
      8010.214        6230.175  
 124376429.880    96916713.1024   23668047.909 7  23668047.78943  23668051.73943
      3224.272        2512.383  
 112835913.913    87924108.1274   21471962.334 8  21471962.28146  21471965.40846
      1990.334        1550.920  
 118203039.784    92106277.5444   22493287.819 4  22493287.14941  22493290.49841
      5137.026        4002.819  
 117594221.632    91631881.0244   22377436.672 7  22377436.76645  22377440.24045
      6580.758        5127.864  
 111146102.619    86607370.7294   21150401.058 8  21150400.91546  21150402.21146
      1328.258        1034.998  
 111336604.086    86755816.2644   21186652.047 7  21186650.81544  21186654.71944
      5530.117        4309.188  
 120924263.818    94052225.589    22597589.874 6  22597590.141 6  22597591.476 5
      1434.036        1115.364  
 105123177.090    81914182.6324   20004276.547 8  20004276.24046  20004278.74046
      3231.860        2518.323  
 109563986.150                    20553924.533 7  20553924.491 7                
      1149.751                  
 124765192.081    97219652.7434   23742025.653 6  23742025.13143  23742030.42443
      4657.753        3629.401  
 110037111.993    85584442.239    20635419.112 7  20635419.112 7  20635425.048 7
      1018.290         792.005  
 103228960.498    80289215.978    19311113.168 8  19311112.411 8  19311115.647 7
      3887.621        3023.704  
 106339742.667    82708713.130    19900032.982 7  19900033.374 7  19900037.749 7
      5865.372        4561.952  
 120661049.852    94021615.0294   22961037.323 7  22961036.27744  22961040.67244
        79.854          62.239  
 11  5 30  7 39 25.0000000  0 16G 8R16G30G 4G 2G 7G23G10R21G13R14G16
                                R 3R 5R15G20                        
 130710741.040   101852540.3914   24873424.898 6  24873424.21743  24873430.07943
      7144.224        5566.946  
 124760221.288    97035750.970    23355372.058 6  23355373.745 6  23355379.606 6
      8011.894        6231.469  
 124360312.676    96904154.2394   23664980.683 6  23664980.63943  23664984.86143
      3222.979        2511.425  
 112825964.013    87916354.9514   21470068.949 7  21470068.89946  21470072.05246
      1989.682        1550.399  
 118177355.715    92086263.9954   22488402.592 5  22488399.67941  22488401.72141
      5136.300        4002.302  
 117561316.105    91606240.3554   22371174.485 7  22371174.96345  22371178.50145
      6581.604        5128.525  
 111139459.181    86602194.0154   21149136.938 8  21149136.64946  21149138.02946
      1329.019        1035.603  
 111308952.529    86734269.5964   21181389.382 7  21181389.00444  21181393.15144
      5530.507        4309.485  
 120917098.577    94046652.610    22596249.158 6  22596250.580 6  22596252.645 5
      1432.605        1114.255  
 105107017.219    81901590.5214   20001201.246 8  20001201.12046  20001203.57046
      3232.146        2518.555  
 109558240.942                    20552847.672 7  20552846.918 7                
      1148.342                  
 124741904.346    97201506.4814   23737592.648 6  23737592.95943  23737598.80543
      4657.474        3629.158  
 110032023.865    85580484.797    20634465.089 7  20634465.058 7  20634471.382 7
      1017.068         791.052  
 103209522.746    80274097.722    19307476.215 8  19307476.247 8  19307479.693 7
      3887.403        3023.538  
 106310419.744    82685906.412    19894545.629 7  19894546.099 7  19894550.289 7
      5863.699        4560.652  
 120660647.943    94021301.8464   22960960.131 7  22960959.55944  22960964.00344
        81.097          63.191  
 11  5 30  7 39 30.0000000  0 16G 8R16G30G 4G 2G 7G23G10R21G13R14G16
                                R 3R 5R15G20                        
 130675013.579   101824700.8414   24866626.734 6  24866625.99043  24866631.47943
      7146.452        5568.649  
 124720156.737    97004589.650    23347871.723 6  23347873.306 6  23347879.467 6
      8013.885        6233.013  
 124344201.129    96891599.7784   23661914.966 7  23661914.83243  23661919.00043
      3221.862        2510.536  
 112816017.526    87908604.4374   21468176.693 8  21468176.01946  21468179.33146
      1989.080        1549.923  
 118151674.445    92066252.6424   22483513.191 5  22483512.70841  22483516.05541
      5135.909        4001.957  
 117528407.054    91580596.9414   22364912.636 7  22364912.57245  22364915.96145
      6582.194        5128.987  
 111132811.829    86597014.2534   21147872.438 8  21147871.66246  21147873.06846
      1329.960        1036.322  
 111281298.764    86712721.2114   21176127.960 7  21176126.70744  21176131.11044
      5531.012        4309.863  
 120909939.677    94041084.597    22594910.087 5  22594911.387 5  22594914.599 5
      1431.021        1113.012  
 105090857.443    81888998.4874   19998125.921 8  19998125.95546  19998128.54246
      3231.974        2518.413  
 109552502.868                    20551771.027 7  20551770.705 7                
      1146.973                  
 124718619.303    97183362.2954   23733161.800 6  23733161.92743  23733167.66443
      4656.656        3628.555  
 110026942.173    85576532.369    20633512.666 7  20633512.306 7  20633518.472 7
      1015.661         789.947  
 103190086.671    80258980.770    19303840.630 8  19303840.340 8  19303843.812 7
      3887.110        3023.299  
 106281104.583    82663105.734    19889060.593 7  19889060.311 7  19889064.410 7
      5862.429        4559.656  
 120660239.945    94020983.9174   22960881.793 7  22960882.03144  22960886.16244
        82.242          64.088  
 11  5 30  7 39 35.0000000  0 17G 8R16G30G 4G 2G 7G23G10R21G13R 6R14
                                G16R 3R 5R15G20                     
 130639274.860   101796852.4914   24859825.773 6  24859824.83843  24859830.47643
      7148.885        5570.579  
 124680082.733    96973420.998    23340371.808 6  23340371.746 6  23340377.564 6
      8015.759        6234.491  
 124328094.932    96879049.4824   23658850.229 7  23658849.92743  23658853.97244
      3220.712        2509.664  
 112806074.191    87900856.3834   21466284.154 7  21466283.88846  21466287.26445
      1988.448        1549.453  
 118125995.574    92046243.1444   22478627.496 5  22478627.33641  22478629.54541
      5135.969        4002.083  
 117495494.153    91554950.5264   22358649.541 7  22358649.56045  22358652.75945
      6583.048        5129.658  
 111126160.253    86591831.2034   21146606.579 8  21146606.01246  21146607.20946
      1330.750        1036.962  
 111253642.524    86691170.8904   21170865.819 7  21170864.27544  21170868.55644
      5531.532        4310.292  
 120902786.827    94035521.268    22593576.515 5  22593575.083 5  22593578.049 5
      1429.792        1112.062  
 105074697.370    81876406.2194   19995050.671 8  19995050.80646  19995053.40446
      3232.103        2518.533  
 116707625.278                    21870958.729                                  
      6807.546                  
 109546771.585                    20550696.539 7  20550695.706 7                
      1145.605                  
 124695336.548    97165219.8924   23728733.559 6  23728732.46143  23728737.36243
      4656.523        3628.478  
 110021866.576    85572584.672    20632561.135 7  20632560.345 7  20632566.518 7
      1014.505         789.067  
 103170651.879    80243864.816    19300205.096 8  19300204.633 8  19300207.973 7
      3886.836        3023.102  
 106251796.591    82640310.629    19883575.505 7  19883575.717 7  19883579.720 7
      5860.963        4558.535  
 120659825.538    94020660.9934   22960803.669 7  22960803.21444  22960807.23944
        83.589          65.132  
 11  5 30  7 39 40.0000000  0 17G 8R16G30G 4G 2G 7G23G10R21G13R 6R14
                                G16R 3R 5R15G20                     
 130603524.952   101768995.4244   24853022.852 6  24853021.61543  24853027.64343
      7151.176        5572.373  
 124639999.488    96942245.155    23332869.382 6  23332868.644 6  23332873.629 6
      8017.560        6235.886  
 124311994.107    96866503.3854   23655786.133 7  23655786.43844  23655790.44444
      3219.575        2508.753  
 112796134.144    87893110.8874   21464391.958 8  21464392.33846  21464395.75946
      1987.692        1548.847  
 118100319.226    92026235.5754   22473741.262 5  22473742.22741  22473743.24441
      5134.937        4001.232  
 117462577.499    91529301.1904   22352385.788 7  22352385.73845  22352389.01145
      6583.816        5130.248  
 111119504.475    86586644.8744   21145340.114 8  21145339.50246  21145340.60646
      1331.614        1037.635  
 111225983.842    86669618.6674   21165602.336 7  21165601.06244  21165605.43444
      5531.946        4310.601  
 120895640.055    94029962.667    22592240.298 6  22592240.434 6  22592242.796 5
      1428.801        1111.299  
 105058537.066    81863813.7744   19991975.587 8  19991975.63546  19991978.09646
      3232.024        2518.460  
 116673585.287    90746127.599    21864576.789 4  21864578.486    21864584.477  
      6809.088        5295.968  
 109541047.094                    20549621.490 7  20549621.566 7                
      1144.349                  
 124672056.185    97147079.3564   23724304.954 6  23724303.02643  23724307.16043
      4655.653        3627.766  
 110016797.131    85568641.762    20631609.599 7  20631609.781 7  20631615.487 7
      1013.424         788.220  
 103151218.532    80228749.989    19296569.826 8  19296569.218 8  19296572.635 7
      3886.554        3022.874  
 106222496.064    82617521.332    19878092.385 7  19878092.469 7  19878096.573 7
      5859.358        4557.276  
 120659404.754    94020333.0964   22960723.912 7  22960722.92144  22960727.34744
        84.709          66.004  
 11  5 30  7 39 45.0000000  0 17G 8R16G30G 4G 2G 7G23G10R21G13R 6R14
                                G16R 3R 5R15G20                     
 130567764.075   101741129.8244   24846217.907 6  24846216.62043  24846222.57243
      7153.461        5574.112  
 124599907.225    96911062.283    23325363.407 6  23325363.306 6  23325368.310 6
      8019.457        6237.352  
 124295898.835    96853961.6154   23652723.016 7  23652723.20744  23652728.12944
      3218.429        2507.849  
 112786197.482    87885368.0284   21462501.435 8  21462501.43046  21462504.93045
      1986.949        1548.275  
 118074645.542    92006230.1054   22468855.471 5  22468855.87741  22468858.86941
      5134.573        4000.972  
 117429657.270    91503649.0694   22346121.513 7  22346121.24245  22346124.55345
      6584.501        5130.775  
 111112844.636    86581455.3844   21144073.078 8  21144072.17746  21144073.34346
      1332.332        1038.185  
 111198322.913    86648064.6944   21160338.114 7  21160337.24344  21160341.38744
      5532.308        4310.880  
 120888499.581    94024408.960    22590907.940 6  22590905.762 6  22590909.206 5
      1427.447        1110.249  
 105042376.715    81851221.2944   19988900.627 8  19988900.40146  19988902.88446
      3232.064        2518.492  
 116639537.103    90719645.680    21858193.540 4  21858194.129    21858201.905  
      6810.349        5296.926  
 109535329.669                    20548548.975 7  20548548.868 7                
      1142.636                  
 124648778.417    97128940.8414   23719873.874 6  23719873.67443  23719877.19043
      4655.194        3627.389  
 110011734.047    85564703.800    20630660.152 7  20630660.126 7  20630665.832 7
      1011.975         787.083  
 103131786.608    80213636.270    19292934.591 8  19292934.097 8  19292937.572 7
      3886.186        3022.590  
 106193203.297    82594738.074    19872610.713 7  19872610.750 7  19872614.989 7
      5857.743        4556.021  
 120658977.757    94020000.3574   22960643.043 7  22960641.69044  22960646.05844
        86.058          67.042  
 11  5 30  7 39 50.0000000  0 17G 8R16G30G 4G 2G 7G23G10R21G13R 6R14
                                G16R 3R 5R15G20                     
 130531992.480   101713255.8604   24839411.090 6  24839409.52043  24839415.46843
      7155.409        5575.665  
 124559805.980    96879872.442    23317855.598 6  23317856.403 6  23317861.470 6
      8021.132        6238.650  
 124279809.332    96841424.3494   23649661.272 7  23649661.60144  23649666.37544
      3217.336        2506.987  
 112776264.510    87877628.0464   21460611.278 7  21460611.12246  21460614.70045
      1986.252        1547.731  
 118048974.821    91986226.9484   22463970.502 5  22463970.04241  22463974.23341
      5133.466        4000.100  
 117396733.666    91477994.3104   22339856.245 7  22339856.30445  22339859.40945
      6585.049        5131.213  
 111106180.986    86576262.9314   21142804.449 8  21142804.00146  21142805.20546
      1333.170        1038.837  
 111170659.970    86626509.1594   21155073.555 7  21155072.78844  21155076.93344
      5532.781        4311.244  
 120881365.455    94018860.192    22589572.628 6  22589572.485 6  22589575.211 5
      1426.138        1109.211  
 105026216.526    81838628.9374   19985825.559 8  19985825.20346  19985827.74146
      3232.056        2518.483  
 116605480.692    90693157.373    21851813.959 4  21851811.721    21851819.216 4
      6812.587        5298.698  
 109529619.303                    20547477.935 7  20547477.592 7                
      1141.363                  
 124625503.450    97110804.5204   23715444.387 6  23715443.98943  23715448.64543
      4654.748        3627.074  
 110006677.520    85560770.951    20629712.578 8  20629712.349 7  20629717.614 7
      1010.562         785.988  
 103112356.550    80198524.002    19289299.801 8  19289299.387 8  19289302.752 7
      3885.884        3022.354  
 106163918.431    82571960.960    19867129.901 7  19867130.549 7  19867134.706 7
      5856.167        4554.792  
 120658544.739    94019662.9304   22960560.982 7  22960559.69344  22960563.78244
        87.244          67.981  
 11  5 30  7 39 55.0000000  0 17G 8R16G30G 4G 2G 7G23G10R21G13R 6R14
                                G16R 3R 5R15G20                     
 130496209.751   101685373.2344   24832600.800 6  24832600.30143  24832605.87743
      7157.836        5577.552  
 124519695.753    96848675.616    23310349.384 7  23310347.689 6  23310352.815 6
      8022.983        6240.101  
 124263725.334    96828891.3714   23646600.726 7  23646600.89144  23646605.30244
      3216.227        2506.163  
 112766334.758    87869890.5724   21458721.844 8  21458721.50645  21458725.11745
      1985.666        1547.272  
 118023306.665    91966225.8114   22459085.377 5  22459085.26141  22459089.86541
      5133.548        4000.155  
 117363806.413    91452336.7124   22333589.730 7  22333590.36345  22333593.67145
      6585.916        5131.877  
 111099513.252    86571067.2904   21141535.499 8  21141535.11246  21141536.33246
      1333.969        1039.459  
 111142994.742    86604951.8374   21149809.631 7  21149808.29445  21149812.49445
      5533.374        4311.727  
 120874237.471    94013316.201    22588240.159 6  22588240.297 6  22588242.103 5
      1425.205        1108.504  
 105010056.183    81826036.4604   19982750.010 8  19982750.03446  19982752.58046
      3232.070        2518.504  
 116571416.139    90666662.725    21845430.401 4  21845428.390 4  21845435.541 4
      6813.699        5299.547  
 109523915.904                    20546409.101 7  20546407.942 7                
      1139.872                  
 124602230.979    97092670.1404   23711015.701 6  23711014.85843  23711020.18343
      4654.222        3626.652  
 110001627.233    85556842.954    20628765.172 7  20628765.067 7  20628770.477 7
      1009.456         785.139  
 103092927.889    80183412.816    19285665.414 8  19285665.142 8  19285668.417 7
      3885.557        3022.104  
 106134641.027    82549189.641    19861651.637 7  19861651.912 7  19861655.974 7
      5854.766        4553.709  
 120658105.435    94019320.6044   22960477.637 7  22960476.14944  22960480.02844
        88.603          69.039  
 11  5 30  7 40  0.0000000  0 17G 8R16G30G 4G 2G 7G23G10R21G13R 6R14
                                G16R 3R 5R15G20                     
 130460416.320   101657482.2784   24825789.984 6  24825788.92143  24825794.63843
      7159.637        5578.948  
 124479576.728    96817471.941    23302837.681 7  23302837.619 6  23302842.555 6
      8024.768        6241.475  
 124247647.142    96816362.9124   23643541.498 7  23643541.59344  23643545.56644
      3214.925        2505.150  
 112756408.616    87862155.9124   21456832.430 8  21456832.83845  21456836.28145
      1984.759        1546.571  
 117997641.498    91946226.9974   22454200.573 5  22454200.22241  22454205.25641
      5133.037        3999.696  
 117330875.804    91426676.4984   22327323.455 7  22327323.77945  22327327.23445
      6586.363        5132.232  
 111092841.679    86565868.6484   21140266.089 8  21140265.51646  21140266.79846
      1334.641        1039.991  
 111115327.521    86583392.9554   21144545.217 7  21144543.65045  21144547.87245
      5533.686        4311.969  
 120867116.030    94007777.306    22586910.615 6  22586909.846 6  22586910.576 5
      1423.481        1107.155  
 104993896.017    81813444.1244   19979674.977 8  19979674.79746  19979677.41146
      3232.113        2518.529  
 116537343.512    90640161.798    21839040.566 4  21839043.313 4  21839049.542 4
      6815.707        5301.107  
 109518219.679                    20545340.619 7  20545339.550 7                
      1138.573                  
 124578961.322    97074537.9614   23706587.024 6  23706586.47243  23706591.82643
      4653.637        3626.220  
 109996583.474    85552920.022    20627818.247 7  20627818.484 7  20627824.719 7
      1008.053         784.036  
 103073501.022    80168303.029    19282031.451 8  19282030.960 8  19282034.368 7
      3885.060        3021.715  
 106105371.485    82526424.448    19856174.482 7  19856174.317 7  19856178.397 7
      5853.106        4552.417  
 120657660.135    94018973.6014   22960392.469 7  22960391.22144  22960395.05344
        89.728          69.926  
 11  5 30  7 40  5.0000000  0 17G 8R16G30G 4G 2G 7G23G10R21G13R 6R14
                                G16R 3R 5R15G20                     
 130424612.300   101629583.0554   24818976.469 6  24818975.99243  24818981.53643
      7161.988        5580.770  
 124439448.973    96786261.490    23295326.347 7  23295325.459 6  23295330.519 6
      8026.404        6242.758  
 124231574.858    96803839.0504   23640482.971 7  23640483.03844  23640486.91744
      3214.115        2504.494  
 112746486.180    87854424.1454   21454944.385 8  21454944.56045  21454948.13146
      1984.207        1546.124  
 117971979.349    91926230.5244   22449318.326 5  22449317.55041  22449320.99541
      5132.579        3999.383  
 117297941.948    91401013.7564   22321056.824 7  22321056.39445  22321060.07545
      6587.141        5132.838  
 111086166.390    86560667.1184   21138995.861 8  21138995.23246  21138996.45446
      1335.533        1040.678  
 111087658.458    86561832.6434   21139279.863 7  21139278.49645  21139282.93745
      5534.086        4312.280  
 120860001.107    94002243.469    22585580.520 6  22585580.440 6  22585582.109 5
      1422.543        1106.410  
 104977736.143    81800852.0164   19976600.007 8  19976599.71646  19976602.33346
      3232.011        2518.442  
 116503263.041    90613654.760    21832660.160 4  21832658.051 4  21832661.769 4
      6816.328        5301.566  
 109512530.701                    20544272.412 7  20544272.156 7                
      1137.316                  
 124555694.630    97056408.0714   23702159.990 6  23702158.92443  23702163.53243
      4653.082        3625.807  
 109991546.339    85549002.236    20626873.905 7  20626873.426 7  20626880.475 7
      1006.997         783.225  
 103054076.104    80153194.756    19278397.635 8  19278396.971 8  19278400.638 8
      3884.981        3021.654  
 106076109.946    82503665.482    19850698.258 7  19850698.462 7  19850702.419 7
      5851.583        4551.228  
 120657208.952    94018622.0164   22960306.685 7  22960305.56244  22960309.19144
        90.962          70.867  
 11  5 30  7 40 10.0000000  0 17G 8R16G30G 4G 2G 7G23G10R21G13R 6R14
                                G16R 3R 5R15G20                     
 130388797.356   101601675.3174   24812160.590 6  24812160.63543  24812166.30543
      7164.149        5582.420  
 124399312.252    96755044.070    23287813.221 7  23287811.866 6  23287817.026 6
      8028.218        6244.168  
 124215508.134    96791319.5214   23637425.354 7  23637425.65444  23637430.18744
      3212.795        2503.465  
 112736567.171    87846695.0414   21453056.947 7  21453057.00745  21453060.63745
      1983.402        1545.512  
 117946319.921    91906236.1534   22444437.413 5  22444435.47241  22444438.32241
      5131.992        3998.958  
 117265004.599    91375348.2974   22314789.020 7  22314788.75745  22314792.27145
      6587.688        5133.252  
 111079487.065    86555462.4464   21137724.164 8  21137724.25246  21137725.47846
      1336.302        1041.275  
 111059987.215    86540270.6384   21134013.586 7  21134012.85145  21134017.58945
      5534.402        4312.514  
 120852892.347    93996714.442    22584252.542 6  22584252.023 6  22584254.940 5
      1421.108        1105.313  
 104961576.213    81788259.8594   19973525.073 8  19973524.58546  19973527.17446
      3231.880        2518.337  
 116469174.223    90587141.232    21826270.122 5  21826270.827 4  21826271.823 4
      6818.725        5303.435  
 109506848.626                    20543206.841 7  20543206.146 7                
      1135.704                  
 124532430.591    97038280.2624   23697733.911 6  23697732.26143  23697736.34543
      4652.585        3625.367  
 109986515.514    85545089.366    20625931.156 7  20625930.764 7  20625937.283 7
      1005.468         782.028  
 103034652.838    80138087.770    19274763.474 8  19274763.153 8  19274767.076 8
      3884.488        3021.265  
 106046856.315    82480912.652    19845223.637 7  19845224.195 7  19845228.154 7
      5849.966        4549.979  
 120656751.533    94018265.5794   22960219.973 7  22960218.58044  22960222.08944
        92.087          71.756  
 11  5 30  7 40 15.0000000  0 17G 8R16G30G 4G 2G 7G23G10R21G13R 6R14
                                G16R 3R 5R15G20                     
 130352971.448   101573759.0444   24805343.560 6  24805343.18743  24805349.14943
      7166.255        5584.095  
 124359166.490    96723819.598    23280296.045 6  23280296.342 6  23280301.895 6
      8029.983        6245.545  
 124199446.943    96778804.3104   23634368.269 6  23634368.81844  23634373.96744
      3211.771        2502.644  
 112726651.406    87838968.4734   21451170.219 8  21451170.11345  21451173.57945
      1982.799        1545.045  
 117920663.235    91886243.9394   22439554.288 5  22439554.58341  22439555.42241
      5131.219        3998.386  
 117232063.610    91349679.9964   22308520.148 7  22308520.28845  22308523.70145
      6588.584        5133.964  
 111072803.598    86550254.5464   21136452.799 8  21136452.50946  21136453.64946
      1337.032        1041.838  
 111032313.682    86518706.8544   21128746.807 7  21128746.20945  21128751.16945
      5535.038        4313.027  
 120845789.767    93991190.222    22582925.093 6  22582924.209 6  22582927.521 5
      1419.728        1104.227  
 104945416.142    81775667.5954   19970449.828 8  19970449.44046  19970452.02846
      3232.080        2518.506  
 116435077.155    90560621.310    21819878.562 5  21819878.726 4  21819880.855 4
      6820.434        5304.771  
 109501173.395                    20542142.082 7  20542141.912 7                
      1134.370                  
 124509169.091    97020154.4134   23693306.632 6  23693305.71443  23693309.69743
      4652.035        3624.951  
 109981490.887    85541181.322    20624989.497 8  20624989.415 7  20624994.963 7
      1004.339         781.165  
 103015231.003    80122981.902    19271130.404 8  19271130.124 8  19271133.788 7
      3884.250        3021.088  
 106017610.218    82458165.689    19839750.958 7  19839751.341 7  19839755.180 7
      5848.479        4548.816  
 120656287.862    94017904.2684   22960130.127 7  22960129.68944  22960133.97644
        93.347          72.770  
 11  5 30  7 40 20.0000000  0 17G 8R16G30G 4G 2G 7G23G10R21G13R 6R14
                                G16R 3R 5R15G20                     
 130317134.753   101545834.3534   24798523.737 6  24798523.63343  24798529.63943
      7168.276        5585.682  
 124319012.016    96692588.373    23272780.401 6  23272779.560 6  23272784.700 6
      8031.702        6246.864  
 124183391.465    96766293.5374   23631313.199 6  23631313.67644  23631318.73544
      3210.373        2501.582  
 112716739.125    87831244.6094   21449284.987 8  21449284.04246  21449287.25845
      1982.210        1544.559  
 117895009.492    91866254.0044   22434672.677 5  22434672.72441  22434674.53941
      5130.384        3997.730  
 117199119.273    91324009.0874   22302251.200 7  22302251.22945  22302254.61545
      6589.261        5134.490  
 111066116.253    86545043.6234   21135180.111 8  21135180.01446  21135181.09746
      1337.818        1042.458  
 111004638.167    86497141.5224   21123481.453 7  21123479.80245  21123484.62945
      5535.353        4313.258  
 120838693.464    93985670.879    22581598.082 6  22581598.395 6  22581600.895 5
      1418.206        1103.029  
 104929256.173    81763075.4134   19967374.438 8  19967374.23546  19967376.90046
      3231.981        2518.427  
 116400972.115    90534095.237    21813488.334 4  21813487.491 4  21813488.536 4
      6822.132        5306.076  
 109495505.245                    20541079.218 7  20541079.027 7                
      1132.858                  
 124485910.391    97002030.7564   23688879.576 6  23688879.20043  23688883.93643
      4651.590        3624.589  
 109976472.608    85537278.214    20624047.825 7  20624048.138 7  20624053.506 7
      1003.024         780.134  
 102995810.931    80107877.398    19267497.698 8  19267497.256 8  19267500.924 8
      3883.823        3020.752  
 105988372.093    82435424.931    19834279.474 7  19834279.737 7  19834283.765 7
      5846.841        4547.548  
 120655818.129    94017538.2234   22960040.582 7  22960040.10344  22960044.79344
        94.535          73.685  
 11  5 30  7 40 25.0000000  0 17G 8R16G30G 4G 2G 7G23G10R21G13R 6R14
                                G16R 3R 5R15G20                     
 130281287.677   101517901.5844   24791702.050 6  24791702.37543  24791708.27643
      7170.748        5587.585  
 124278849.097    96661350.560    23265261.981 7  23265261.268 6  23265266.239 6
      8033.505        6248.287  
 124167342.149    96753787.5914   23628259.318 6  23628259.56244  23628265.00444
      3209.283        2500.742  
 112706830.779    87823523.8114   21447398.708 8  21447398.48946  21447401.91845
      1981.386        1543.937  
 117869359.002    91846266.6224   22429791.279 5  22429790.95441  22429794.09641
      5129.752        3997.219  
 117166172.002    91298335.8914   22295981.992 7  22295981.64845  22295984.75145
      6589.783        5134.898  
 111059425.405    86539829.9674   21133906.975 8  21133906.86846  21133907.78846
      1338.543        1043.015  
 110976961.026    86475574.9154   21118214.796 7  21118213.42545  21118217.63045
      5535.730        4313.551  
 120831603.769    93980156.665    22580274.678 6  22580273.637 6  22580274.860 5
      1417.262        1102.299  
 104913096.675    81750483.5984   19964299.244 8  19964299.23946  19964301.86846
      3232.016        2518.458  
 116366859.302    90507563.081    21807094.002 4  21807095.549 4  21807095.930 4
      6823.367        5307.035  
 109489844.568                    20540016.816 7  20540016.945 7                
      1131.352                  
 124462654.925    96983909.6294   23684454.245 6  23684454.18343  23684458.75843
      4650.768        3623.966  
 109971461.067    85533380.347    20623107.663 7  20623107.683 7  20623113.421 7
      1001.674         779.090  
 102976393.067    80092774.613    19263864.566 8  19263864.537 8  19263868.397 7
      3883.434        3020.455  
 105959142.250    82412690.613    19828809.336 7  19828809.640 7  19828813.708 7
      5845.200        4546.269  
 120655342.692    94017167.7404   22959951.926 7  22959949.98644  22959954.22944
        95.734          74.601  
 11  5 30  7 40 30.0000000  0 17G 8R16G30G 4G 2G 7G23G10R21G13R 6R14
                                G16R 3R 5R15G20                     
 130245430.144   101489960.6554   24784878.974 6  24784878.92543  24784884.64443
      7172.625        5589.072  
 124238677.639    96630106.100    23257743.001 7  23257741.358 6  23257746.082 6
      8035.071        6249.502  
 124151298.771    96741286.2534   23625206.080 6  23625206.70344  23625212.22644
      3208.286        2499.967  
 112696926.134    87815805.9024   21445513.363 8  21445513.63946  21445517.13845
      1980.623        1543.350  
 117843711.705    91826281.7284   22424908.548 5  22424909.65241  22424913.93541
      5129.255        3996.783  
 117133221.607    91272660.2594   22289711.663 7  22289711.37445  22289714.58445
      6590.393        5135.377  
 111052730.898    86534613.4654   21132633.707 8  21132632.99646  21132633.95646
      1339.294        1043.593  
 110949282.134    86454006.9354   21112947.490 7  21112946.25545  21112950.20845
      5536.045        4313.807  
 120824520.642    93974647.537    22578949.443 6  22578949.903 6  22578950.781 5
      1416.068        1101.424  
 104896937.533    81737892.0554   19961224.063 8  19961224.22947  19961226.89246
      3231.754        2518.258  
 116332738.828    90481024.944    21800700.300 4  21800699.891 4  21800702.452 4
      6824.588        5308.038  
 109484191.105                    20538956.464 7  20538955.639 7                
      1129.931                  
 124439402.488    96965790.8414   23680029.240 6  23680029.25543  23680034.30143
      4650.440        3623.713  
 109966456.056    85529487.553    20622168.499 7  20622168.578 7  20622175.138 7
      1000.506         778.175  
 102956977.094    80077673.302    19260233.134 8  19260232.274 8  19260236.247 7
      3883.071        3020.160  
 105929920.589    82389962.654    19823341.272 7  19823341.274 7  19823345.289 7
      5843.601        4545.019  
 120654861.432    94016792.7224   22959860.374 7  22959858.56844  22959862.82344
        96.808          75.428  
 11  5 30  7 40 35.0000000  0 17G 8R16G30G 4G 2G 7G23G10R21G13R 6R14
                                G16R 3R 5R15G20                     
 130209562.027   101462011.4814   24778053.732 6  24778053.83843  24778059.08943
      7174.830        5590.787  
 124198497.622    96598854.999    23250219.641 7  23250219.503 6  23250224.014 6
      8036.862        6250.893  
 124135261.341    96728789.5494   23622154.966 6  23622155.01244  23622160.44344
      3206.980        2498.968  
 112687025.114    87808090.8194   21443629.392 7  21443629.61946  21443633.09546
      1979.891        1542.779  
 117818067.426    91806299.1964   22420029.125 5  22420028.94841  22420033.79541
      5128.195        3995.978  
 117100267.999    91246982.1254   22283440.507 7  22283440.54245  22283443.69245
      6591.172        5135.983  
 111046032.633    86529394.0364   21131358.834 8  21131358.60146  21131359.34146
      1340.198        1044.309  
 110921601.359    86432437.5034   21107679.560 7  21107678.60345  21107683.10345
      5536.411        4314.089  
 120817444.049    93969143.507    22577627.905 6  22577627.461 6  22577628.106 5
      1414.494        1100.160  
 104880778.591    81725300.6714   19958149.344 8  19958149.31947  19958151.89746
      3231.813        2518.285  
 116298610.508    90454480.727    21794305.790 4  21794304.025 4  21794307.176 4
      6826.284        5309.338  
 109478544.793                    20537896.367 7  20537896.126 7                
      1128.683                  
 124416153.035    96947674.3934   23675606.195 6  23675605.30143  23675610.03043
      4649.835        3623.257  
 109961457.404    85525599.703    20621231.733 7  20621231.202 7  20621238.299 7
       999.135         777.108  
 102937563.119    80062573.546    19256600.713 8  19256600.320 8  19256604.529 8
      3882.646        3019.834  
 105900707.141    82367241.083    19817874.560 7  19817874.467 7  19817878.351 7
      5841.871        4543.678  
 120654374.148    94016413.0064   22959766.746 7  22959765.90244  22959770.08444
        98.030          76.388  
 11  5 30  7 40 40.0000000  0 17G 8R16G30G 4G 2G 7G23G10R21G13R 6R14
                                G16R 3R 5R15G20                     
 130173683.200   101434053.9644   24771226.252 6  24771225.96343  24771231.24943
      7176.439        5592.024  
 124158308.826    96567597.059    23242695.134 6  23242695.667 6  23242700.760 6
      8038.679        6252.308  
 124119229.614    96716297.2764   23619103.838 6  23619104.12344  23619109.66844
      3205.911        2498.126  
 112677127.613    87800378.4764   21441746.177 7  21441746.01645  21441749.62245
      1979.148        1542.180  
 117792426.130    91786318.9864   22415150.488 5  22415150.01441  22415154.63541
      5127.395        3995.401  
 117067311.131    91221301.4534   22277169.268 7  22277169.08445  22277172.35145
      6591.666        5136.353  
 111039330.495    86524171.5844   21130083.862 8  21130083.23946  21130083.95946
      1340.819        1044.794  
 110893918.582    86410866.5134   21102411.725 7  21102410.75645  21102415.37545
      5536.791        4314.385  
 120810373.634    93963644.283    22576307.121 6  22576306.453 6  22576308.303 5
      1413.093        1099.077  
 104864619.748    81712709.3614   19955074.282 8  19955074.49047  19955077.01446
      3231.722        2518.217  
 116264474.056    90427930.129    21787908.514 4  21787907.762 4  21787909.843 4
      6828.104        5310.772  
 109472905.433                    20536839.185 7  20536838.376 7                
      1127.242                  
 124392906.366    96929560.1074   23671181.833 6  23671181.41243  23671186.15743
      4649.144        3622.722  
 109956464.998    85521716.716    20620295.882 7  20620295.436 7  20620302.226 7
       997.756         776.029  
 102918150.897    80047475.152    19252969.161 8  19252968.565 8  19252973.081 7
      3882.276        3019.548  
 105871501.479    82344525.574    19812408.804 7  19812408.911 7  19812412.849 7
      5840.351        4542.494  
 120653880.737    94016028.5294   22959672.775 7  22959671.94344  22959676.20344
        99.340          77.408  
 11  5 30  7 40 45.0000000  0 17G 8R16G30G 4G 2G 7G23G10R21G13R 6R14
                                G16R 3R 5R15G20                     
 130137794.184   101406088.5124   24764396.922 6  24764396.35443  24764402.00743
      7178.596        5593.699  
 124118111.819    96536332.717    23235168.902 7  23235170.405 6  23235175.628 6
      8040.128        6253.426  
 124103204.158    96703809.9054   23616054.606 6  23616054.53044  23616060.16344
      3204.064        2496.662  
 112667234.107    87792669.2504   21439864.084 8  21439863.36245  21439867.09845
      1978.282        1541.499  
 117766788.317    91766341.4414   22410274.025 5  22410272.33341  22410274.81241
      5127.214        3995.259  
 117034351.496    91195618.6224   22270897.452 7  22270897.15145  22270900.42945
      6592.149        5136.734  
 111032624.940    86518946.4694   21128807.932 8  21128807.22546  21128808.03946
      1341.371        1045.224  
 110866234.377    86389294.4004   21097143.352 7  21097142.64645  21097147.22645
      5536.822        4314.401  
 120803309.911    93958150.282    22574988.012 6  22574986.466 5  22574989.000 5
      1412.036        1098.250  
 104848461.510    81700118.5294   19951999.517 8  19951999.59646  19952002.22146
      3231.654        2518.167  
 116230330.238    90401373.802    21781507.432 5  21781509.441 4  21781512.696 4
      6829.138        5311.536  
 109467273.557                    20535783.020 7  20535782.374 7                
      1125.558                  
 124369663.138    96911448.5134   23666758.246 6  23666757.88643  23666763.08743
      4648.504        3622.218  
 109951479.530    85517839.122    20619361.589 7  20619360.877 7  20619367.061 7
       996.368         774.953  
 102898740.996    80032378.567    19249337.919 8  19249337.686 8  19249342.061 7
      3881.667        3019.072  
 105842304.554    82321816.854    19806944.635 7  19806944.862 7  19806949.055 7
      5838.557        4541.101  
 120653381.779    94015639.7184   22959577.940 7  22959576.72744  22959581.58944
       100.404          78.234  
 11  5 30  7 40 50.0000000  0 17G 8R16G30G 4G 2G 7G23G10R21G13R 6R14
                                G16R 3R 5R15G20                     
 130101895.131   101378115.2404   24757566.174 6  24757564.94743  24757570.84943
      7180.971        5595.573  
 124077906.814    96505062.158    23227643.101 7  23227644.045 6  23227649.088 6
      8041.934        6254.858  
 124087185.090    96691327.5114   23613006.479 6  23613006.21244  23613011.67744
      3203.478        2496.219  
 112657344.738    87784963.2424   21437982.013 8  21437981.51146  21437985.17046
      1977.500        1540.906  
 117741154.109    91746366.7444   22405395.196 5  22405395.26941  22405397.57341
      5126.247        3994.452  
 117001389.233    91169933.7494   22264624.948 7  22264624.77145  22264627.82945
      6592.687        5137.154  
 111025916.017    86513718.7274   21127531.345 8  21127530.55646  21127531.34646
      1342.116        1045.806  
 110838548.882    86367721.2884   21091875.887 7  21091874.47345  21091878.77845
      5537.287        4314.783  
 120796253.151    93952661.691    22573667.210 6  22573666.695 5  22573669.877 5
      1410.494        1097.039  
 104832304.011    81687528.2694   19948925.055 8  19948924.98746  19948927.60246
      3231.373        2517.959  
 116196179.158    90374811.854    21775109.639 5  21775109.162 4  21775115.122 4
      6830.629        5312.710  
 109461649.463                    20534727.715 7  20534727.305 7                
      1124.089                  
 124346423.417    96893339.6414   23662335.940 6  23662335.30943  23662340.53443
      4647.462        3621.360  
 109946501.079    85513966.990    20618427.489 7  20618427.303 7  20618432.949 7
       994.994         773.892  
 102879333.611    80017283.932    19245707.986 8  19245707.429 8  19245711.477 8
      3881.216        3018.732  
 105813116.244    82299114.836    19801482.442 7  19801482.709 7  19801486.863 7
      5836.858        4539.795  
 120652877.349    94015246.6434   22959481.369 7  22959480.48544  22959485.47044
       101.368          78.994  
 11  5 30  7 40 55.0000000  0 17G 8R16G30G 4G 2G 7G23G10R21G13R 6R14
                                G16R 3R 5R15G20                     
 130065985.992   101350134.1024   24750732.263 6  24750731.24343  24750737.30943
      7182.768        5596.968  
 124037693.690    96473785.294    23220115.394 7  23220115.933 7  23220121.489 6
      8043.484        6256.024  
 124071172.374    96678850.0754   23609959.379 7  23609959.34844  23609964.64244
      3201.846        2494.940  
 112647459.402    87777260.3854   21436099.832 8  21436100.31845  21436104.18445
      1976.695        1540.278  
 117715523.470    91726394.8084   22400517.852 5  22400517.07441  22400518.71641
      5125.889        3994.198  
 116968424.300    91144246.7934   22258351.740 7  22258351.79045  22258354.73945
      6593.235        5137.587  
 111019203.727    86508488.3694   21126253.681 8  21126253.29146  21126253.96246
      1342.827        1046.364  
 110810861.985    86346147.0854   21086606.889 7  21086605.86045  21086609.91545
      5537.490        4314.925  
 120789203.131    93947178.325    22572349.718 5  22572349.522 5  22572351.710 5
      1409.385        1096.203  
 104816147.146    81674938.5034   19945850.549 8  19945850.47246  19945853.00946
      3231.338        2517.923  
 116162020.660    90348244.137    21768704.465 5  21768707.404 4  21768714.927 4
      6832.539        5314.202  
 109456032.762                    20533674.073 7  20533673.305 7                
      1122.695                  
 124323187.182    96875233.4984   23657913.303 6  23657913.39943  23657919.01943
      4646.709        3620.810  
 109941529.523    85510100.225    20617494.803 7  20617494.755 7  20617500.198 7
       993.563         772.772  
 102859928.540    80002191.097    19242078.173 8  19242077.319 8  19242081.417 7
      3880.783        3018.390  
 105783936.385    82276419.391    19796020.958 7  19796022.142 7  19796026.242 7
      5835.018        4538.347  
 120652367.332    94014849.2204   22959383.846 7  22959383.33944  22959388.36344
       102.560          79.909  
 11  5 30  7 41  0.0000000  0 17G 8R16G30G 4G 2G 7G23G10R21G13R 6R14
                                G16R 3R 5R15G20                     
 130030066.652   101322145.0214   24743897.912 6  24743896.19043  24743901.99943
      7185.082        5598.771  
 123997472.345    96442502.049    23212586.427 7  23212586.247 7  23212592.076 6
      8045.188        6257.365  
 124055165.844    96666377.4524   23606912.911 6  23606913.42944  23606918.63644
      3200.617        2493.987  
 112637577.950    87769560.5504   21434219.719 8  21434220.05546  21434223.71346
      1976.017        1539.751  
 117689896.190    91706425.4914   22395638.174 5  22395639.26141  22395640.03741
      5125.230        3993.706  
 116935456.597    91118557.6734   22252078.328 7  22252078.25045  22252081.30045
      6593.809        5138.028  
 111012487.950    86503255.2964   21124975.829 8  21124975.35146  21124975.96246
      1343.461        1046.856  
 110783173.594    86324571.7164   21081337.713 7  21081336.99045  21081340.76945
      5537.776        4315.154  
 120782159.760    93941700.140    22571033.115 6  22571033.311 5  22571035.071 5
      1407.692        1094.872  
 104799990.822    81662349.1594   19942775.943 8  19942775.96346  19942778.55946
      3231.240        2517.850  
 116127854.559    90321670.497    21762303.049 5  21762304.282 4  21762311.412 4
      6834.423        5315.658  
 109450423.437                    20532620.933 7  20532620.641 7                
      1121.218                  
 124299954.223    96857129.8884   23653492.008 6  23653492.16443  23653497.76743
      4646.289        3620.488  
 109936564.722    85506238.715    20616563.594 7  20616563.419 7  20616569.012 7
       992.350         771.828  
 102840525.754    79987100.042    19238447.886 8  19238447.716 8  19238451.914 7
      3880.412        3018.099  
 105754764.895    82253730.454    19790563.000 7  19790563.048 7  19790567.300 7
      5833.343        4537.043  
 120651851.639    94014447.3714   22959286.534 7  22959285.32344  22959290.37444
       103.778          80.867  
 11  5 30  7 41  5.0000000  0 17G 8R16G30G 4G 2G 7G23G10R21G13R 6R14
                                G16R 3R 5R15G20                     
 129994137.481   101294148.2914   24737059.336 6  24737058.64943  24737065.10143
      7186.740        5600.097  
 123957243.198    96411212.727    23205055.401 7  23205054.999 6  23205061.329 6
      8046.489        6258.395  
 124039165.873    96653909.9484   23603868.281 7  23603868.22144  23603873.42644
      3199.271        2492.958  
 112627700.744    87761864.0174   21432340.733 8  21432340.46646  21432344.17146
      1975.072        1539.019  
 117664272.824    91686459.2754   22390763.783 5  22390763.40041  22390764.62241
      5123.938        3992.718  
 116902486.414    91092866.6194   22245804.140 7  22245804.30545  22245807.31845
      6594.292        5138.427  
 111005769.028    86498019.7734   21123697.090 8  21123696.63846  21123697.35646
      1344.087        1047.351  
 110755484.077    86302995.4694   21076069.053 7  21076067.83345  21076071.79345
      5537.946        4315.287  
 120775123.495    93936227.478    22569717.961 5  22569718.519 5  22569720.270 5
      1406.514        1093.947  
 104783835.370    81649760.4954   19939701.480 8  19939701.74046  19939704.24546
      3231.105        2517.747  
 116093681.495    90295091.459    21755901.087 4  21755901.364 4  21755906.450 4
      6835.171        5316.264  
 109444821.847                    20531568.654 7  20531569.439 7                
      1119.565                  
 124276724.986    96839029.2074   23649073.046 6  23649071.87843  23649076.94443
      4645.316        3619.725  
 109931606.994    85502382.698    20615633.465 7  20615633.524 7  20615639.549 7
       990.831         770.653  
 102821125.614    79972011.045    19234818.998 8  19234818.367 8  19234822.605 8
      3879.713        3017.562  
 105725602.174    82231048.344    19785105.301 7  19785105.754 7  19785109.961 7
      5831.465        4535.587  
 120651330.597    94014041.3594   22959187.623 7  22959186.43644  22959191.23844
       104.716          81.601  
 11  5 30  7 41 10.0000000  0 17G 8R16G30G 4G 2G 7G23G10R21G13R 6R14
                                G16R 3R 5R15G20                     
 129958198.494   101266143.8974   24730220.666 6  24730219.57243  24730226.15943
      7188.847        5601.697  
 123917006.295    96379917.359    23197520.866 7  23197522.425 6  23197528.859 6
      8048.127        6259.640  
 124023172.512    96641447.5854   23600824.465 6  23600824.40944  23600829.90744
      3197.812        2491.776  
 112617827.877    87754170.8684   21430462.382 8  21430461.77646  21430465.49646
      1974.183        1538.316  
 117638653.307    91666495.9914   22385888.417 5  22385889.29141  22385892.79541
      5123.079        3991.985  
 116869513.833    91067173.7084   22239529.785 8  22239529.61645  22239532.75045
      6594.725        5138.745  
 110999047.017    86492781.8364   21122417.504 8  21122417.26646  21122418.20446
      1344.659        1047.786  
 110727793.459    86281418.3574   21070799.745 7  21070798.30745  21070802.79145
      5538.153        4315.442  
 120768094.161    93930760.214    22568406.049 6  22568404.373 5  22568407.276 5
      1405.221        1092.954  
 104767680.860    81637172.5634   19936627.241 8  19936627.64446  19936630.12346
      3230.865        2517.558  
 116059501.284    90268506.838    21749496.868 4  21749496.781 4  21749500.077 4
      6836.737        5317.493  
 109439228.014                    20530520.199 7  20530519.800 7                
      1117.840                  
 124253499.534    96820931.4584   23644653.023 6  23644652.00443  23644657.76343
      4644.585        3619.150  
 109926656.321    85498532.170    20614705.253 7  20614705.200 7  20614711.690 7
       989.500         769.602  
 102801728.044    79956924.050    19231189.786 8  19231189.564 8  19231193.650 7
      3879.192        3017.145  
 105696448.513    82208373.275    19779649.310 7  19779649.891 7  19779654.208 7
      5829.756        4534.250  
 120650804.303    94013631.2484   22959087.614 7  22959086.58544  22959091.01044
       105.710          82.355  
 11  5 30  7 41 15.0000000  0 17G 8R16G30G 4G 2G 7G23G10R21G13R 6R14
                                G16R 3R 5R15G20                     
 129922249.436   101238131.6614   24723379.003 6  24723378.75843  24723384.92243
      7190.617        5603.070  
 123876761.352    96348615.745    23189987.753 7  23189988.733 7  23189994.655 6
      8049.899        6261.037  
 124007185.430    96628990.1014   23597782.638 6  23597782.33844  23597787.69344
      3196.820        2491.036  
 112607958.959    87746480.7964   21428583.995 8  21428583.95446  21428587.43246
      1973.425        1537.734  
 117613037.280    91646535.4364   22381015.574 5  22381014.40941  22381017.45341
      5122.844        3991.842  
 116836538.535    91041478.6734   22233255.205 7  22233254.58845  22233257.83545
      6595.392        5139.270  
 110992321.605    86487541.2484   21121137.424 8  21121137.45446  21121138.32546
      1345.462        1048.409  
 110700101.443    86259840.1754   21065529.636 7  21065528.38445  21065533.14945
      5538.472        4315.694  
 120761071.605    93925298.228    22567091.813 6  22567092.048 6  22567095.412 5
      1404.036        1092.064  
 104751526.935    81624585.0864   19933553.962 8  19933553.76346  19933556.15946
      3230.898        2517.590  
 116025313.616    90241916.404    21743093.145 4  21743090.789 4  21743091.853 4
      6837.952        5318.396  
 109433641.536                    20529472.803 7  20529472.437 7                
      1116.442                  
 124230277.487    96802836.3464   23640234.182 6  23640233.40443  23640238.73143
      4644.210        3618.885  
 109921712.520    85494686.984    20613779.046 7  20613778.585 7  20613784.971 7
       988.136         768.557  
 102782332.982    79941839.004    19227561.791 8  19227561.502 8  19227565.336 7
      3878.864        3016.897  
 105667303.556    82185704.975    19774195.586 7  19774195.564 7  19774199.883 7
      5828.276        4533.108  
 120650272.447    94013216.8084   22958986.251 7  22958985.26644  22958990.02044
       106.938          83.333  
 11  5 30  7 41 20.0000000  0 17G 8R16G30G 4G 2G 7G23G10R21G13R 6R14
                                G16R 3R 5R15G20                     
 129886290.164   101210111.4594   24716536.941 6  24716536.27343  24716542.09543
      7192.960        5604.913  
 123836508.237    96317307.774    23182453.527 7  23182453.321 7  23182459.240 6
      8051.338        6262.156  
 123991204.534    96616537.4564   23594741.771 7  23594741.48244  23594746.62944
      3195.446        2489.966  
 112598093.879    87738793.7224   21426706.424 8  21426706.65346  21426710.09946
      1972.616        1537.099  
 117587424.834    91626577.6664   22376141.002 5  22376140.57141  22376142.23041
      5121.804        3991.055  
 116803560.470    91015781.4914   22226979.244 7  22226979.03745  22226982.28345
      6595.926        5139.685  
 110985592.713    86482297.9534   21119857.314 8  21119856.97746  21119857.92046
      1346.069        1048.877  
 110672408.010    86238260.8764   21060259.590 7  21060258.51745  21060263.26945
      5538.674        4315.840  
 120754055.588    93919841.327    22565780.841 6  22565780.477 6  22565784.579 5
      1402.532        1090.853  
 104735373.560    81611998.0394   19930480.287 8  19930479.85146  19930482.20146
      3230.535        2517.295  
 115991118.654    90215320.314    21736682.852 4  21736682.257 4  21736683.355 4
      6839.357        5319.496  
 109428062.579                    20528426.414 7  20528426.276 7                
      1114.915                  
 124207058.809    96784743.8854   23635815.224 6  23635815.25243  23635820.61443
      4643.642        3618.432  
 109916775.383    85490846.986    20612853.900 7  20612853.190 7  20612859.168 7
       986.759         767.477  
 102762940.223    79926755.744    19223935.030 8  19223934.053 8  19223937.743 8
      3878.252        3016.413  
 105638166.967    82163043.182    19768742.985 7  19768743.266 7  19768747.398 7
      5826.336        4531.600  
 120649734.838    94012797.8894   22958884.025 7  22958882.91644  22958887.80044
       108.109          84.241  
 11  5 30  7 41 25.0000000  0 17G 8R16G30G 4G 2G 7G23G10R21G13R 6R14
                                G16R 3R 5R15G20                     
 129850320.825   101182083.4294   24709691.718 6  24709691.32943  24709697.60543
      7194.826        5606.347  
 123796247.155    96285993.613    23174916.270 7  23174916.351 7  23174922.388 6
      8053.060        6263.492  
 123975229.991    96604089.7584   23591701.797 6  23591702.14244  23591706.66944
      3194.148        2488.930  
 112588232.926    87731109.8524   21424830.475 8  21424830.25146  21424833.54846
      1971.640        1536.348  
 117561815.900    91606622.6484   22371263.801 5  22371266.65741  22371269.28441
      5121.356        3990.674  
 116770579.795    90990082.2714   22220703.125 7  22220703.10045  22220706.12945
      6596.440        5140.082  
 110978860.425    86477052.0064   21118575.980 8  21118575.95746  21118576.97846
      1346.777        1049.440  
 110644713.223    86216680.5244   21054989.994 7  21054988.45745  21054993.15944
      5538.968        4316.084  
 120747046.226    93914389.601    22564473.138 6  22564471.908 6  22564474.041 5
      1401.316        1089.917  
 104719220.801    81599411.4714   19927406.530 8  19927406.12946  19927408.45546
      3230.503        2517.278  
 115956916.242    90188718.458    21730272.829 5  21730272.838 4  21730273.187 4
      6841.068        5320.845  
 109422490.781                    20527381.715 7  20527381.069 7                
      1113.541                  
 124183843.660    96766654.1674   23631398.243 6  23631397.67743  23631402.97143
      4642.530        3617.567  
 109911844.948    85487012.198    20611928.512 7  20611928.310 7  20611934.211 7
       985.408         766.426  
 102743549.919    79911674.392    19220306.788 8  19220306.508 8  19220310.602 8
      3877.861        3016.114  
 105609038.991    82140388.094    19763293.109 7  19763292.417 7  19763296.553 7
      5824.705        4530.326  
 120649191.688    94012374.6394   22958780.217 7  22958779.40444  22958784.61444
       109.117          85.041  
