     2.10           OBSERVATION DATA    M (MIXED)           RINEX VERSION / TYPE
Pinnacle 1.00                           30-MAY-11 20:31     PGM / RUN BY / DATE
build April 19, 2002                                        COMMENT
-Unknown-           -Unknown-                               OBSERVER / AGENCY
         Begin Pinnacle project                             COMMENT
VG_GPS                                                      COMMENT
                                                            COMMENT
                                                            COMMENT
May 30, 2011 8:29:02 pm                                     COMMENT
                                                            COMMENT
                                                            COMMENT
C:\data\VG_GPS\projekt\Pinnacle.dbd                         COMMENT
         End Pinnacle project                               COMMENT
                                                            COMMENT
1002                                                        MARKER NAME
1002                                                        MARKER NUMBER
8QG4AWP4FEO         TPS HIPER           3.3 Dec,22,2008 p6  REC # / TYPE / VERS
-Unknown-           TPSPG_A1                                ANT # / TYPE
  3917539.9259  1195854.2218  4873694.5416                  APPROX POSITION XYZ
        1.3400        0.0000        0.0000                  ANTENNA: DELTA H/E/N
     1     1                                                WAVELENGTH FACT L1/2
     7    L1    L2    C1    P1    P2    D1    D2            # / TYPES OF OBSERV
     5.000                                                  INTERVAL
  2011     5    30    10    56   50.0000000     GPS         TIME OF FIRST OBS
  2011     5    30    11    21   50.0000000     GPS         TIME OF LAST OBS
    15                                                      LEAP SECONDS
    16                                                      # OF SATELLITES
   R 6   301   301   301   301   301   301   301            PRN / # OF OBS
   R 7   301   301   301   301   301   301   301            PRN / # OF OBS
   R 8   301   301   301   301   301   301   301            PRN / # OF OBS
   R 9   301   301   301   301   301   301   301            PRN / # OF OBS
   R10   301   301   301   301   301   301   301            PRN / # OF OBS
   R16   301   301   301   301   301   301   301            PRN / # OF OBS
   R17   301   301   301   301   301   301   301            PRN / # OF OBS
   R18    97    95    97    95    95    97    95            PRN / # OF OBS
   G 5   301   301   301   301   301   301   301            PRN / # OF OBS
   G 7   301   301   301   301   301   301   301            PRN / # OF OBS
   G 8   301   301   301   301   301   301   301            PRN / # OF OBS
   G10   301   301   301   301   301   301   301            PRN / # OF OBS
   G15   301   301   301   301   301   301   301            PRN / # OF OBS
   G19   254   254   254   254   254   254   254            PRN / # OF OBS
   G26   301   301   301   301   301   301   301            PRN / # OF OBS
   G28   301   301   301   301   301   301   301            PRN / # OF OBS
SE TPS 730d626d                                             COMMENT
                                                            END OF HEADER
 11  5 30 10 56 50.0000000  0 14R 7G28R 8G10R17G26R16G 7R 9R10G15G 8
                                R 6G 5                              
 105601377.249    82134421.583    19727223.988 8  19727222.490 8  19727220.514 7
      4595.120        3573.977  
 115068372.832    89663689.5194   21896782.616 7  21896782.19245  21896785.98945
      5776.567        4501.214  
 120845408.023    93990891.687    22567028.228 7  22567027.505 6  22567028.610 7
      7511.754        5842.472  
 122069023.056    95118738.8674   23228964.366 6  23228962.96044  23228969.21144
      -123.900         -96.529  
 123957830.339    96411660.321    23164482.780 6  23164481.350 5  23164485.871 4
      4723.299        3673.678  
 109802819.038    85560660.2924   20894781.693 8  20894781.66946  20894785.65546
      5875.175        4578.057  
 106675643.996    82969965.591    19969904.436 8  19969904.559 8  19969908.444 7
      1228.193         955.267  
 114273173.422    89044052.4164   21745462.258 7  21745462.20346  21745465.13946
      1010.422         787.346  
 104273768.378    81101840.893    19527126.745 8  19527126.710 8  19527131.053 7
      5033.460        3914.915  
 123600018.641    96133375.298    23187048.313 6  23187048.977 6  23187056.838 5
      7282.059        5663.809  
 128202435.891    99898014.5464   24396112.717 6  24396112.70443  24396116.91043
      6844.040        5332.996  
 107163669.194    83504176.3674   20392567.710 8  20392567.40146  20392571.19046
      2764.310        2154.010  
 110720381.220    86115868.385    20748951.005 7  20748950.788 7  20748954.682 7
        48.025          37.357  
 110739799.955    86290773.6914   21073083.786 8  21073083.76946  21073086.68546
      2394.671        1865.977  
 11  5 30 10 56 55.0000000  0 14R 7G28R 8G10R17G26R16G 7R 9R10G15G 8
                                R 6G 5                              
 105578404.349    82116553.769    19722933.049 8  19722930.969 8  19722928.862 7
      4594.154        3573.229  
 115039487.682    89641181.6144   21891286.779 7  21891285.95145  21891289.41945
      5777.828        4502.197  
 120807844.488    93961675.616    22560013.446 6  22560013.141 6  22560013.763 7
      7513.602        5843.919  
 122069637.019    95119217.2644   23229081.477 7  23229079.88044  23229086.05244
      -121.486         -94.663  
 123934216.589    96393294.088    23160071.140 6  23160069.769 5  23160072.187 4
      4722.516        3673.074  
 109773440.291    85537767.7624   20889191.150 7  20889191.03646  20889195.05146
      5876.322        4578.946  
 106669500.948    82965187.662    19968754.229 8  19968754.417 8  19968758.377 7
      1229.213         956.061  
 114268116.102    89040111.6444   21744500.000 7  21744499.74946  21744502.63946
      1012.385         788.872  
 104248600.436    81082265.831    19522413.580 8  19522413.502 8  19522417.815 7
      5033.693        3915.086  
 123563602.643    96105051.745    23180218.417 6  23180217.860 6  23180225.421 5
      7284.438        5665.679  
 128168207.110    99871342.7884   24389598.818 6  24389599.28743  24389603.61443
      6847.014        5335.302  
 107149845.404    83493404.5804   20389937.356 8  20389936.68746  20389940.60246
      2765.286        2154.765  
 110720139.429    86115680.316    20748906.179 7  20748905.751 7  20748909.689 7
        48.675          37.866  
 110727826.729    86281443.9004   21070805.473 8  21070805.24646  21070808.29346
      2394.764        1866.054  
 11  5 30 10 57  0.0000000  0 14R 7G28R 8G10R17G26R16G 7R 9R10G15G 8
                                R 6G 5                              
 105555435.788    82098689.337    19718641.612 8  19718640.213 8  19718638.149 7
      4593.406        3572.653  
 115010597.457    89618669.7474   21885789.058 7  21885788.68245  21885792.03445
      5778.643        4502.845  
 120770272.034    93932452.608    22552997.674 6  22552996.576 6  22552997.434 7
      7515.508        5845.379  
 122070239.574    95119686.7744   23229196.388 6  23229194.92944  23229200.66644
      -119.252         -92.911  
 123910606.507    96374930.669    23155660.315 6  23155658.984 6  23155659.883 4
      4721.609        3672.375  
 109744055.052    85514870.1734   20883599.421 8  20883599.26946  20883603.23646
      5877.779        4580.085  
 106663352.731    82960405.708    19967603.200 8  19967603.362 8  19967607.594 7
      1230.231         956.849  
 114263049.295    89036163.4794   21743535.423 7  21743535.49246  21743538.40046
      1014.377         790.424  
 104223431.446    81062689.954    19517700.377 8  19517700.396 8  19517704.508 7
      5034.075        3915.390  
 123527175.438    96076719.484    23173386.409 6  23173384.010 6  23173391.744 5
      7286.642        5667.393  
 128133963.406    99844659.3764   24383082.889 6  24383082.89543  24383087.07643
      6850.162        5337.766  
 107136016.575    83482628.8684   20387305.715 8  20387305.08946  20387308.98646
      2766.343        2155.587  
 110719894.708    86115489.968    20748860.285 7  20748859.836 7  20748863.766 7
        49.332          38.371  
 110715853.117    86272113.8124   21068526.207 8  21068526.77846  21068529.84646
      2394.844        1866.111  
 11  5 30 10 57  5.0000000  0 14R 7G28R 8G10R17G26R16G 7R 9R10G15G 8
                                R 6G 5                              
 105532471.796    82080828.455    19714351.443 8  19714350.271 8  19714348.384 7
      4592.200        3571.700  
 114981702.135    89596153.9144   21880290.615 8  21880290.24945  21880293.59345
      5779.571        4503.545  
 120732690.876    93903222.828    22545978.995 6  22545978.579 6  22545979.335 7
      7517.121        5846.646  
 122070830.661    95120147.3594   23229308.658 7  23229307.46144  23229312.88244
      -117.101         -91.266  
 123887000.008    96356570.038    23151246.020 6  23151246.198 5  23151249.339 4
      4720.846        3671.785  
 109714663.305    85491967.5164   20878006.827 8  20878006.22746  20878010.16346
      5878.803        4580.876  
 106657199.284    82955619.692    19966451.129 8  19966451.306 8  19966455.553 7
      1231.135         957.548  
 114257973.069    89032207.9764   21742569.564 8  21742569.52046  21742572.20646
      1016.148         791.808  
 104198261.409    81043113.256    19512987.593 8  19512987.082 8  19512991.003 8
      5034.067        3915.384  
 123490737.104    96048378.565    23166549.628 6  23166548.237 6  23166556.321 5
      7288.847        5669.096  
 128099704.744    99817964.3324   24376563.815 6  24376563.34443  24376567.54143
      6853.102        5340.023  
 107122182.697    83471849.2184   20384673.202 8  20384672.51946  20384676.42446
      2767.131        2156.205  
 110719647.096    86115297.365    20748813.200 7  20748813.368 7  20748817.555 7
        49.732          38.691  
 110703879.115    86262783.4104   21066247.561 8  21066248.18846  21066251.27846
      2394.769        1866.064  
 11  5 30 10 57 10.0000000  0 14R 7G28R 8G10R17G26R16G 7R 9R10G15G 8
                                R 6G 5                              
 105509513.111    82062971.698    19710062.595 8  19710061.415 8  19710059.488 7
      4591.352        3571.059  
 114952802.367    89573634.6174   21874791.177 7  21874790.80045  21874794.34345
      5780.239        4504.099  
 120695101.735    93873986.837    22538958.259 6  22538959.020 6  22538959.756 6
      7518.647        5847.842  
 122071410.891    95120599.4824   23229418.908 7  23229417.93244  23229423.36844
      -115.045         -89.657  
 123863397.663    96338212.681    23146836.036 6  23146834.451 5  23146839.251 4
      4720.078        3671.176  
 109685265.646    85469060.2504   20872412.641 8  20872412.09046  20872415.90646
      5880.168        4581.949  
 106651041.250    82950830.103    19965298.103 8  19965298.538 8  19965302.905 7
      1231.953         958.193  
 114252887.950    89028245.5424   21741601.969 8  21741601.86446  21741604.57746
      1017.872         793.144  
 104173090.832    81023536.140    19508273.827 8  19508273.437 8  19508277.424 8
      5034.167        3915.463  
 123454288.172    96020029.402    23159711.966 6  23159710.589 6  23159718.827 5
      7290.856        5670.681  
 128065431.791    99791258.1524   24370042.340 6  24370041.59243  24370046.13243
      6855.830        5342.185  
 107108344.364    83461066.1014   20382039.731 8  20382039.09846  20382043.13146
      2768.092        2156.961  
 110719397.089    86115102.897    20748766.465 7  20748766.452 7  20748770.472 7
        50.362          39.180  
 110691905.297    86253453.1564   21063969.495 8  21063969.62646  21063972.68546
      2394.811        1866.081  
 11  5 30 10 57 15.0000000  0 14R 7G28R 8G10R17G26R16G 7R 9R10G15G 8
                                R 6G 5                              
 105486559.878    82045119.183    19705774.806 8  19705773.631 8  19705771.545 7
      4590.260        3570.203  
 114923898.326    89551111.9924   21869290.716 7  21869290.30045  21869294.13445
      5781.133        4504.783  
 120657504.693    93844744.702    22531938.108 6  22531937.964 6  22531938.754 6
      7520.027        5848.907  
 122071980.452    95121043.2884   23229527.473 6  23229526.29144  23229531.77044
      -112.546         -87.677  
 123839799.730    96319858.745    23142425.285 5  23142423.860 5  23142428.388 4
      4719.211        3670.489  
 109655862.191    85446148.4744   20866816.963 8  20866816.77846  20866820.70846
      5881.345        4582.861  
 106644878.754    82946037.048    19964144.818 8  19964144.947 8  19964149.392 7
      1232.910         958.925  
 114247794.103    89024276.3074   21740632.709 8  21740632.53246  21740635.48946
      1019.704         794.581  
 104147920.018    81003958.840    19503559.799 8  19503559.606 8  19503563.681 8
      5034.177        3915.471  
 123417828.702    95991672.053    23152872.227 6  23152870.956 6  23152879.215 5
      7292.939        5672.272  
 128031144.604    99764540.8454   24363518.243 6  24363516.94943  24363521.34343
      6858.876        5344.586  
 107094501.753    83450279.6444   20379405.624 8  20379405.01946  20379408.97346
      2768.984        2157.660  
 110719145.006    86114906.818    20748719.136 7  20748718.903 7  20748723.171 7
        50.640          39.395  
 110679931.895    86244123.2264   21061691.066 7  21061691.10746  21061694.21446
      2394.696        1866.004  
 11  5 30 10 57 20.0000000  0 14R 7G28R 8G10R17G26R16G 7R 9R10G15G 8
                                R 6G 5                              
 105463612.126    82027270.930    19701488.301 8  19701486.771 8  19701484.818 7
      4588.800        3569.061  
 114894990.015    89528586.0414   21863789.847 8  21863789.15045  21863793.27445
      5782.031        4505.478  
 120619899.852    93815496.502    22524916.150 6  22524915.543 6  22524916.312 7
      7521.674        5850.201  
 122072539.346    95121478.7784   23229633.810 7  23229632.58944  23229638.47344
      -110.720         -86.273  
 123816206.330    96301508.328    23138016.941 5  23138015.273 5  23138019.649 4
      4718.258        3669.769  
 109626453.138    85423232.3294   20861220.854 8  20861220.41846  20861224.29646
      5882.283        4583.595  
 106638711.813    82941240.532    19962990.172 8  19962990.539 8  19962994.935 7
      1233.783         959.614  
 114242691.580    89020300.3124   21739661.467 7  21739661.51046  21739664.65746
      1021.274         795.794  
 104122749.030    80984381.406    19498845.555 8  19498845.661 8  19498849.582 7
      5034.068        3915.385  
 123381358.930    95963306.693    23146030.494 6  23146029.038 6  23146037.528 5
      7294.906        5673.822  
 127996843.394    99737812.6484   24356991.092 6  24356989.77743  24356994.13843
      6861.597        5346.683  
 107080654.881    83439489.8704   20376770.838 8  20376770.19646  20376773.96946
      2769.740        2158.242  
 110718890.768    86114709.068    20748671.279 7  20748671.078 7  20748675.450 7
        50.978          39.657  
 110667958.888    86234793.6094   21059412.743 8  21059412.80446  21059415.76146
      2394.404        1865.773  
 11  5 30 10 57 25.0000000  0 14R 7G28R 8G10R17G26R16G 7R 9R10G15G 8
                                R 6G 5                              
 105440670.412    82009427.375    19697202.856 8  19697201.205 8  19697199.294 7
      4587.734        3568.237  
 114866078.083    89506057.2764   21858287.865 8  21858287.10945  21858291.67545
      5782.890        4506.142  
 120582287.697    93786242.618    22517892.448 6  22517891.577 6  22517892.501 7
      7523.276        5851.438  
 122073088.206    95121906.4424   23229737.727 6  23229736.62844  23229742.87844
      -108.668         -84.693  
 123792618.110    96283161.935    23133611.410 5  23133608.806 5  23133611.745 4
      4717.133        3668.888  
 109597038.985    85400312.2134   20855623.317 8  20855623.10846  20855626.99746
      5883.473        4584.523  
 106632541.073    82936441.065    19961835.374 8  19961835.409 8  19961839.662 7
      1234.575         960.226  
 114237580.999    89016318.0364   21738688.674 8  21738688.98746  21738692.41946
      1022.940         797.093  
 104097578.426    80964804.271    19494131.666 8  19494131.733 8  19494135.820 8
      5034.074        3915.387  
 123344879.467    95934933.789    23139186.758 6  23139185.818 6  23139193.731 5
      7297.012        5675.446  
 127962528.717    99711073.9484   24350461.676 6  24350459.70943  24350464.10543
      6864.377        5348.868  
 107066804.391    83428697.2764   20374135.448 8  20374134.68446  20374138.44446
      2770.458        2158.793  
 110718635.034    86114510.158    20748624.262 7  20748623.750 7  20748627.755 7
        51.399          39.973  
 110655986.891    86225464.7734   21057134.576 8  21057134.57946  21057137.67346
      2394.394        1865.766  
 11  5 30 10 57 30.0000000  0 14R 7G28R 8G10R17G26R16G 7R 9R10G15G 8
                                R 6G 5                              
 105417734.514    81991588.347    19692918.264 8  19692916.595 8  19692914.617 7
      4586.524        3567.300  
 114837162.337    89483525.5384   21852785.711 7  21852784.78045  21852789.36245
      5783.556        4506.660  
 120544668.309    93756983.098    22510867.223 6  22510866.336 6  22510867.273 7
      7524.486        5852.378  
 122073626.771    95122326.0844   23229840.028 6  23229838.69744  23229845.59044
      -106.743         -83.155  
 123769034.827    96264819.384    23129204.620 6  23129202.894 5  23129204.209 4
      4716.135        3668.129  
 109567619.545    85377387.9724   20850024.674 8  20850024.79746  20850028.53946
      5884.266        4585.151  
 106626366.250    82931638.418    19960679.097 8  19960679.481 8  19960683.971 7
      1235.345         960.829  
 114232462.133    89012329.3034   21737714.500 8  21737714.88646  21737718.38946
      1024.528         798.338  
 104072407.849    80945227.161    19489418.209 8  19489418.090 8  19489422.170 8
      5034.058        3915.385  
 123308390.099    95906553.181    23132341.093 6  23132340.597 6  23132348.640 5
      7298.919        5676.938  
 127928200.339    99684324.5794   24343928.770 6  24343927.02243  24343931.59143
      6866.979        5350.904  
 107052950.044    83417901.6784   20371499.012 8  20371498.26046  20371502.17446
      2771.132        2159.324  
 110718377.567    86114309.900    20748576.135 7  20748575.849 7  20748579.744 7
        51.616          40.142  
 110644015.622    86216136.5074   21054856.613 8  21054856.57646  21054859.63146
      2394.211        1865.616  
 11  5 30 10 57 35.0000000  0 14R 7G28R 8G10R17G26R16G 7R 9R10G15G 8
                                R 6G 5                              
 105394805.297    81973754.514    19688634.867 8  19688633.082 8  19688631.183 7
      4585.034        3566.138  
 114808243.502    89460991.3894   21847283.222 8  21847282.14245  21847286.17545
      5784.027        4507.034  
 120507042.140    93727718.319    22503841.227 6  22503839.832 6  22503840.896 7
      7525.918        5853.511  
 122074155.738    95122738.2464   23229941.182 6  23229939.57944  23229946.27444
      -104.950         -81.753  
 123745457.073    96246481.121    23124795.395 6  23124794.834 5  23124797.858 4
      4714.664        3666.964  
 109538195.548    85354460.1864   20844425.387 8  20844425.57246  20844429.45346
      5885.155        4585.846  
 106620188.116    82926833.198    19959522.509 8  19959522.886 8  19959527.336 7
      1235.863         961.234  
 114227335.719    89008334.6814   21736739.142 8  21736739.40246  21736742.88346
      1025.954         799.453  
 104047238.235    80925650.795    19484705.017 8  19484704.892 8  19484708.801 7
      5033.747        3915.139  
 123271891.568    95878165.437    23125493.929 6  23125493.875 6  23125501.633 5
      7300.525        5678.185  
 127893858.966    99657565.0664   24337393.359 6  24337392.27243  24337396.38843
      6869.584        5352.933  
 107039092.590    83407103.6624   20368861.824 8  20368861.38646  20368865.06146
      2771.717        2159.801  
 110718118.973    86114108.769    20748528.049 7  20748527.519 7  20748531.379 7
        51.724          40.237  
 110632045.850    86206809.4074   21052579.178 8  21052578.82446  21052581.86546
      2393.702        1865.220  
 11  5 30 10 57 40.0000000  0 14R 7G28R 8G10R17G26R16G 7R 9R10G15G 8
                                R 6G 5                              
 105371882.977    81955926.038    19684352.053 8  19684350.819 8  19684349.152 7
      4583.908        3565.269  
 114779321.911    89438455.0864   21841779.882 8  21841778.85545  21841782.24645
      5784.561        4507.459  
 120469409.628    93698448.590    22496811.785 6  22496812.460 6  22496813.296 6
      7526.997        5854.335  
 122074675.372    95123143.1434   23230039.830 6  23230038.57044  23230044.85044
      -103.079         -80.320  
 123721885.372    96228147.594    23120390.328 5  23120389.656 5  23120394.389 4
      4714.011        3666.443  
 109508767.328    85331529.1024   20838825.515 8  20838825.69546  20838829.50346
      5886.104        4586.576  
 106614006.917    82922025.595    19958365.680 8  19958365.881 8  19958370.155 7
      1236.434         961.683  
 114222201.983    89004334.3624   21735762.297 7  21735762.48646  21735765.93646
      1027.451         800.614  
 104022069.903    80906075.428    19479991.801 8  19479991.785 8  19479995.705 7
      5033.604        3915.028  
 123235384.153    95849770.796    23118645.939 6  23118645.390 6  23118653.199 5
      7302.172        5679.470  
 127859504.936    99630795.7124   24330855.505 6  24330854.97143  24330859.42143
      6871.909        5354.724  
 107025232.301    83396303.4354   20366224.331 8  20366223.78446  20366227.47346
      2772.278        2160.220  
 110717859.753    86113907.143    20748479.215 7  20748479.027 7  20748482.913 7
        51.924          40.390  
 110620077.856    86197483.6944   21050301.778 8  21050301.37746  21050304.38346
      2393.358        1864.953  
 11  5 30 10 57 45.0000000  0 14R 7G28R 8G10R17G26R16G 7R 9R10G15G 8
                                R 6G 5                              
 105348967.323    81938102.751    19680071.576 8  19680070.051 8  19680068.272 7
      4582.207        3563.939  
 114750397.629    89415916.6814   21836276.085 8  21836274.85545  21836277.78345
      5785.003        4507.798  
 120431771.050    93669174.159    22489783.805 6  22489783.484 6  22489784.371 6
      7528.125        5855.211  
 122075185.771    95123540.8364   23230137.047 6  23230135.88344  23230142.27844
      -101.373         -78.985  
 123698319.935    96209818.943    23115985.952 6  23115986.458 5  23115991.602 4
      4712.348        3665.144  
 109479334.911    85308594.7504   20833224.907 8  20833224.78646  20833228.70846
      5886.783        4587.112  
 106607822.696    82917215.639    19957207.854 8  19957208.031 8  19957212.234 7
      1236.982         962.104  
 114217061.016    89000328.4024   21734784.100 7  21734784.30746  21734787.50246
      1028.830         801.689  
 103996902.779    80886500.998    19475278.854 8  19475278.759 8  19475282.705 8
      5033.096        3914.631  
 123198867.874    95821369.245    23111794.504 6  23111794.769 6  23111802.915 5
      7303.995        5680.885  
 127825138.270    99604016.5014   24324314.781 6  24324315.17143  24324319.47543
      6874.433        5356.714  
 107011369.234    83385501.0444   20363586.165 8  20363585.62246  20363589.35246
      2772.665        2160.519  
 110717599.821    86113704.961    20748430.800 7  20748430.190 7  20748434.104 7
        51.978          40.439  
 110608111.720    86188159.4294   21048024.225 8  21048024.32546  21048027.32546
      2392.862        1864.560  
 11  5 30 10 57 50.0000000  0 14R 7G28R 8G10R17G26R16G 7R 9R10G15G 8
                                R 6G 5                              
 105326059.708    81920285.716    19675792.588 8  19675790.753 8  19675788.867 7
      4580.867        3562.903  
 114721471.091    89393376.5144   21830771.119 8  21830770.28045  21830772.96745
      5785.551        4508.217  
 120394126.656    93639895.191    22482754.487 6  22482753.599 6  22482754.644 6
      7529.617        5856.372  
 122075687.408    95123931.7114   23230232.848 6  23230231.88044  23230237.97944
       -99.270         -77.349  
 123674761.002    96191495.349    23111584.623 6  23111583.470 5  23111589.470 4
      4711.051        3664.134  
 109449898.846    85285657.5594   20827623.336 8  20827623.29246  20827627.12046
      5887.734        4587.843  
 106601636.048    82912403.801    19956049.753 8  19956049.799 8  19956053.854 7
      1237.674         962.634  
 114211913.285    88996317.1774   21733804.787 7  21733804.85246  21733807.94946
      1030.335         802.863  
 103971737.512    80866928.014    19470566.277 8  19470566.103 8  19470570.040 7
      5032.931        3914.504  
 123162343.296    95792961.257    23104942.179 6  23104942.729 6  23104950.759 5
      7306.049        5682.465  
 127790759.530    99577227.8734   24317772.979 6  24317773.01243  24317777.62543
      6877.160        5358.844  
 106997503.889    83374696.8724   20360947.668 8  20360947.08946  20360950.79746
      2773.314        2161.028  
 110717339.533    86113502.498    20748381.766 7  20748381.177 7  20748385.501 7
        52.006          40.453  
 110596147.893    86178836.9594   21045747.655 8  21045747.66046  21045750.67346
      2392.490        1864.284  
 11  5 30 10 57 55.0000000  0 14R 7G28R 8G10R17G26R16G 7R 9R10G15G 8
                                R 6G 5                              
 105303159.252    81902474.256    19671514.609 8  19671512.867 8  19671510.962 7
      4579.320        3561.706  
 114692542.303    89370834.5984   21825265.769 8  21825265.07245  21825268.02945
      5786.066        4508.622  
 120356476.496    93610611.748    22475722.957 6  22475722.758 6  22475723.889 7
      7530.661        5857.174  
 122076180.185    95124315.6894   23230326.160 7  23230325.76744  23230331.60644
       -97.417         -75.896  
 123651208.329    96173176.609    23107183.941 5  23107182.321 5  23107185.017 4
      4710.004        3663.356  
 109420459.040    85262717.4514   20822021.311 8  20822021.20646  20822025.03346
      5888.304        4588.287  
 106595446.808    82907589.944    19954891.603 8  19954891.329 8  19954894.973 7
      1238.228         963.062  
 114206758.758    88992300.6604   21732824.170 7  21732824.18246  21732826.93246
      1031.596         803.843  
 103946573.814    80847356.251    19465853.592 8  19465853.654 8  19465857.663 7
      5032.595        3914.243  
 123125810.466    95764546.849    23098088.675 6  23098089.090 6  23098097.240 5
      7307.616        5683.700  
 127756368.631    99550429.7844   24311227.832 6  24311228.43843  24311233.26843
      6879.340        5360.512  
 106983636.153    83363890.8424   20358308.642 8  20358308.09946  20358311.84746
      2773.874        2161.466  
 110717079.107    86113299.927    20748332.812 7  20748332.531 7  20748336.646 7
        52.153          40.568  
 110584186.315    86169516.2454   21043471.475 8  21043471.49146  21043474.47646
      2392.115        1863.983  
 11  5 30 10 58  0.0000000  0 14R 7G28R 8G10R17G26R16G 7R 9R10G15G 8
                                R 6G 5                              
 105280266.613    81884668.872    19667237.689 8  19667236.336 8  19667234.522 7
      4577.664        3560.405  
 114663611.662    89348291.2454   21819759.976 8  21819759.33345  21819762.56745
      5786.277        4508.787  
 120318820.898    93581324.062    22468690.713 6  22468690.986 6  22468691.995 6
      7531.550        5857.875  
 122076664.452    95124693.0334   23230418.517 6  23230417.68344  23230423.62444
       -96.100         -74.878  
 123627662.564    96154863.200    23102785.690 6  23102783.237 5  23102783.951 4
      4708.235        3661.979  
 109391015.944    85239774.7814   20816418.595 8  20816418.30246  20816422.09646
      5888.999        4588.829  
 106589255.407    82902774.410    19953732.484 8  19953732.487 8  19953736.130 7
      1238.616         963.373  
 114201597.772    88988279.1074   21731842.288 7  21731842.12146  21731844.79946
      1032.827         804.807  
 103921412.190    80827786.103    19461141.396 8  19461141.731 8  19461145.730 8
      5032.133        3913.871  
 123089269.591    95736126.176    23091233.880 6  23091234.042 6  23091241.882 5
      7309.060        5684.811  
 127721965.987    99523622.5384   24304681.169 6  24304682.25643  24304686.50543
      6881.519        5362.182  
 106969766.444    83353083.2754   20355669.391 8  20355668.82946  20355672.53846
      2774.132        2161.673  
 110716818.676    86113097.356    20748284.262 7  20748283.779 7  20748287.627 7
        52.216          40.611  
 110572227.410    86160197.6134   21041195.807 8  21041195.78346  21041198.77746
      2391.534        1863.537  
 11  5 30 10 58  5.0000000  0 14R 7G28R 8G10R17G26R16G 7R 9R10G15G 8
                                R 6G 5                              
 105257382.039    81866869.758    19662962.787 8  19662961.191 8  19662959.270 7
      4576.293        3559.335  
 114634679.410    89325746.6354   21814254.218 8  21814253.56945  21814257.11745
      5786.792        4509.187  
 120281160.382    93552032.567    22461656.204 6  22461657.861 6  22461659.019 6
      7532.812        5858.850  
 122077140.557    95125064.0084   23230508.845 7  23230508.11444  23230514.34444
       -94.326         -73.502  
 123604124.044    96136555.439    23098384.183 6  23098384.171 5  23098386.405 4
      4706.843        3660.870  
 109361569.857    85216829.7824   20810815.276 7  20810814.93946  20810818.80046
      5889.643        4589.326  
 106583062.038    82897957.345    19952573.008 8  19952573.292 8  19952577.027 7
      1238.919         963.593  
 114196430.624    88984252.7554   21730859.074 8  21730858.85146  21730861.52346
      1034.081         805.784  
 103896253.015    80808217.858    19456429.929 8  19456430.090 8  19456434.256 8
      5031.653        3913.506  
 123052721.008    95707699.522    23084378.595 6  23084377.885 6  23084385.549 5
      7310.437        5685.886  
 127687551.829    99496806.3234   24298131.416 6  24298133.14543  24298137.81643
      6883.856        5364.048  
 106955895.050    83342274.3974   20353029.842 8  20353029.19846  20353032.96446
      2774.439        2161.896  
 110716558.702    86112895.145    20748235.629 7  20748235.480 7  20748238.370 7
        52.095          40.517  
 110560271.445    86150881.2674   21038920.702 8  21038920.66046  21038923.59846
      2390.998        1863.112  
 11  5 30 10 58 10.0000000  0 14R 7G28R 8G10R17G26R16G 7R 9R10G15G 8
                                R 6G 5                              
 105234505.752    81849077.092    19658689.388 8  19658687.741 8  19658685.916 7
      4574.441        3557.893  
 114605745.534    89303200.7594   21808748.269 7  21808747.68845  21808751.18145
      5786.998        4509.340  
 120243494.831    93522737.146    22454624.439 6  22454624.216 6  22454625.451 6
      7533.625        5859.491  
 122077608.331    95125428.4934   23230598.089 6  23230597.11644  23230603.25944
       -92.600         -72.161  
 123580592.786    96118253.349    23093986.384 5  23093985.865 5  23093989.017 4
      4705.762        3660.026  
 109332120.600    85193882.3104   20805211.185 8  20805210.87346  20805214.79646
      5890.334        4589.866  
 106576866.662    82893138.718    19951413.575 8  19951413.727 8  19951417.560 7
      1239.330         963.917  
 114191257.254    88980221.5604   21729874.372 8  21729874.24346  21729877.15646
      1035.335         806.755  
 103871096.121    80788651.387    19451718.695 8  19451718.900 8  19451723.223 7
      5031.294        3913.226  
 123016164.707    95679266.840    23077520.928 6  23077519.980 6  23077527.699 5
      7311.856        5686.996  
 127653126.154    99469981.1144   24291581.332 6  24291582.36143  24291586.85143
      6886.473        5366.089  
 106942021.902    83331464.1484   20350389.900 8  20350389.27046  20350393.03546
      2774.832        2162.203  
 110716298.922    86112693.090    20748186.906 7  20748186.479 7  20748189.327 7
        51.880          40.344  
 110548318.360    86141567.1744   21036646.312 8  21036646.05946  21036649.06946
      2390.396        1862.645  
 11  5 30 10 58 15.0000000  0 14R 7G28R 8G10R17G26R16G 7R 9R10G15G 8
                                R 6G 5                              
 105211638.131    81831291.164    19654417.282 8  19654415.704 8  19654413.742 7
      4572.812        3556.621  
 114576810.327    89280653.8504   21803242.030 7  21803241.70645  21803245.14545
      5787.155        4509.464  
 120205824.241    93493437.808    22447590.192 6  22447589.495 6  22447590.762 7
      7534.299        5859.989  
 122078068.175    95125786.8064   23230685.370 6  23230684.84844  23230690.70344
       -91.200         -71.069  
 123557069.020    96099957.098    23089589.298 5  23089589.293 5  23089592.452 4
      4703.949        3658.593  
 109302668.606    85170932.7024   20799606.686 8  20799606.35446  20799610.21846
      5890.698        4590.148  
 106570669.691    82888318.851    19950253.443 8  19950253.892 8  19950257.814 7
      1239.471         964.034  
 114186077.900    88976185.6944   21728888.660 8  21728888.56446  21728891.66446
      1036.491         807.649  
 103845941.900    80769086.996    19447008.423 8  19447008.587 8  19447012.858 8
      5030.559        3912.656  
 122979601.008    95650828.422    23070661.540 6  23070660.618 6  23070668.667 5
      7313.246        5688.057  
 127618689.310    99443147.2164   24285029.285 6  24285029.41443  24285033.53943
      6888.364        5367.521  
 106928147.306    83320652.7734   20347749.706 8  20347749.09946  20347752.79346
      2775.046        2162.372  
 110716039.797    86112491.542    20748138.000 7  20748137.756 7  20748140.967 7
        51.815          40.307  
 110536368.419    86132255.5254   21034372.094 8  21034372.00646  21034375.01846
      2389.668        1862.084  
 11  5 30 10 58 20.0000000  0 14R 7G28R 8G10R17G26R16G 7R 9R10G15G 8
                                R 6G 5                              
 105188778.299    81813511.290    19650146.792 8  19650145.350 8  19650143.403 7
      4571.178        3555.373  
 114547873.777    89258105.8924   21797735.607 7  21797735.27645  21797738.74245
      5787.465        4509.706  
 120168149.076    93464134.913    22440554.986 6  22440553.830 6  22440555.057 6
      7535.509        5860.949  
 122078519.926    95126138.8084   23230771.493 6  23230770.77444  23230776.82844
       -89.487         -69.724  
 123533552.502    96081666.466    23085196.986 5  23085195.324 5  23085198.110 4
      4702.520        3657.513  
 109273213.740    85147980.8604   20794001.999 8  20794001.22346  20794005.16846
      5891.367        4590.669  
 106564470.842    82883497.520    19949092.729 8  19949092.916 8  19949097.192 7
      1239.897         964.367  
 114180892.541    88972145.1544   21727902.126 8  21727901.91746  21727905.01146
      1037.691         808.597  
 103820790.179    80749524.553    19442298.464 8  19442298.368 8  19442302.657 8
      5030.112        3912.306  
 122943029.967    95622384.294    23063801.188 6  23063800.134 6  23063808.245 5
      7314.970        5689.409  
 127584241.085    99416304.4614   24278474.077 6  24278473.71643  24278478.10043
      6890.789        5369.442  
 106914271.146    83309840.1794   20345108.991 8  20345108.49746  20345112.25446
      2775.441        2162.670  
 110715781.068    86112290.298    20748089.782 7  20748089.133 7  20748092.670 7
        51.660          40.179  
 110524421.540    86122946.2694   21032098.508 8  21032098.62346  21032101.68646
      2389.015        1861.567  
 11  5 30 10 58 25.0000000  0 14R 7G28R 8G10R17G26R16G 7R 9R10G15G 8
                                R 6G 5                              
 105165927.372    81795738.347    19645877.919 8  19645876.611 8  19645874.550 7
      4569.381        3553.953  
 114518936.115    89235557.0704   21792229.236 7  21792228.69645  21792232.27245
      5787.721        4509.902  
 120130469.255    93434828.392    22433518.306 7  22433517.404 6  22433518.576 6
      7536.686        5861.866  
 122078963.897    95126484.7404   23230856.192 7  23230855.31844  23230861.53744
       -88.156         -68.700  
 123510043.534    96063381.725    23080802.680 5  23080802.116 5  23080806.286 4
      4701.098        3656.375  
 109243756.320    85125027.0284   20788396.320 8  20788395.65346  20788399.61346
      5891.864        4591.058  
 106558270.463    82878674.993    19947931.427 8  19947931.764 8  19947936.384 7
      1240.186         964.586  
 114175701.421    88968100.1194   21726914.115 8  21726913.98046  21726917.23546
      1038.878         809.510  
 103795641.367    80729964.367    19437589.042 8  19437589.075 8  19437593.140 8
      5029.498        3911.820  
 122906451.776    95593934.603    23056938.923 6  23056938.509 6  23056946.445 5
      7316.417        5690.545  
 127549781.884    99389453.1414   24271917.211 6  24271916.48843  24271920.87643
      6893.127        5371.249  
 106900393.680    83299026.5664   20342468.382 8  20342467.72546  20342471.47646
      2775.694        2162.871  
 110715523.117    86112089.659    20748040.781 7  20748040.860 7  20748044.499 7
        51.576          40.114  
 110512477.994    86113639.6064   21029825.502 8  21029825.76046  21029828.91746
      2388.534        1861.178  
 11  5 30 10 58 30.0000000  0 14R 7G28R 8G10R17G26R16G 7R 9R10G15G 8
                                R 6G 5                              
 105143084.980    81777972.040    19641610.711 8  19641609.565 8  19641607.565 7
      4567.678        3552.636  
 114489997.237    89213007.2944   21786722.423 7  21786721.84945  21786725.24545
      5787.773        4509.969  
 120092784.924    93405518.372    22426481.769 7  22426480.382 6  22426481.253 6
      7537.299        5862.353  
 122079399.924    95126824.4784   23230939.579 7  23230938.48744  23230944.33544
       -86.599         -67.470  
 123486542.145    96045102.889    23076412.876 5  23076410.274 5  23076414.681 4
      4699.636        3655.234  
 109214296.233    85102071.1224   20782789.840 8  20782789.63946  20782793.53846
      5892.294        4591.408  
 106552068.412    82873851.169    19946770.590 8  19946770.677 8  19946775.262 7
      1240.436         964.797  
 114170504.436    88964050.5154   21725925.104 8  21725924.98946  21725928.35146
      1039.884         810.305  
 103770495.254    80710406.283    19432880.074 8  19432880.076 8  19432883.845 7
      5028.920        3911.394  
 122869866.245    95565479.197    23050074.678 6  23050074.785 6  23050083.057 5
      7317.786        5691.608  
 127515311.612    99362593.1944   24265357.168 6  24265356.92843  24265361.65343
      6895.118        5372.828  
 106886514.770    83288211.8274   20339827.627 8  20339826.79946  20339830.36946
      2775.945        2163.083  
 110715265.864    86111889.559    20747992.300 7  20747992.305 7  20747996.411 7
        51.539          40.102  
 110500537.686    86104335.4604   21027552.934 8  21027553.64746  21027556.74046
      2387.657        1860.521  
 11  5 30 10 58 35.0000000  0 14R 7G28R 8G10R17G26R16G 7R 9R10G15G 8
                                R 6G 5                              
 105120251.367    81760212.565    19637345.959 8  19637344.187 8  19637342.125 7
      4565.752        3551.146  
 114461057.396    89190456.7724   21781215.516 7  21781214.73045  21781218.27745
      5787.796        4509.977  
 120055096.187    93376204.924    22419442.487 6  22419442.082 6  22419443.184 6
      7537.952        5862.836  
 122079828.251    95127158.2274   23231021.329 7  23231020.15044  23231025.92644
       -84.873         -66.122  
 123463048.741    96026830.253    23072020.284 5  23072020.163 5  23072024.323 4
      4697.962        3653.970  
 109184833.757    85079113.3514   20777183.142 8  20777183.09646  20777186.95946
      5892.577        4591.616  
 106545864.984    82869026.280    19945609.778 8  19945609.672 8  19945613.967 7
      1240.689         964.989  
 114165301.825    88959996.5244   21724934.871 7  21724934.84546  21724938.26646
      1040.903         811.099  
 103745352.100    80690850.495    19428171.443 8  19428171.547 8  19428175.352 8
      5028.167        3910.800  
 122833273.598    95537018.260    23043209.007 6  23043210.072 6  23043217.750 5
      7319.065        5692.601  
 127480830.404    99335724.7254   24258795.054 6  24258795.40343  24258799.88743
      6897.328        5374.515  
 106872634.724    83277396.2084   20337186.224 8  20337185.45146  20337189.09146
      2776.094        2163.189  
 110715009.374    86111690.056    20747944.239 7  20747944.061 7  20747947.921 7
        51.078          39.746  
 110488600.868    86095034.0404   21025281.467 7  21025282.11046  21025285.10846
      2386.927        1859.949  
 11  5 30 10 58 40.0000000  0 14R 7G28R 8G10R17G26R16G 7R 9R10G15G 8
                                R 6G 5                              
 105097427.015    81742460.296    19633082.912 8  19633080.519 8  19633078.448 7
      4563.831        3549.647  
 114432117.050    89167905.8594   21775708.218 7  21775707.31245  21775711.26045
      5787.964        4510.103  
 120017403.497    93346888.398    22412403.676 7  22412403.285 6  22412404.344 6
      7538.692        5863.434  
 122080249.369    95127486.3634   23231101.424 7  23231100.51144  23231106.32344
       -83.440         -65.017  
 123439563.668    96008564.104    23067633.942 6  23067633.035 5  23067634.558 4
      4696.053        3652.486  
 109155369.306    85056154.0424   20771575.835 8  20771576.06646  20771580.02246
      5892.954        4591.910  
 106539660.614    82864200.656    19944448.580 8  19944448.523 8  19944452.438 7
      1241.007         965.223  
 114160094.047    88955938.5054   21723944.135 7  21723943.89046  21723947.21046
      1041.977         811.937  
 103720212.329    80671297.341    19423463.541 8  19423463.680 8  19423467.409 8
      5027.526        3910.302  
 122796674.389    95508552.225    23036344.969 6  23036344.342 6  23036351.633 5
      7320.524        5693.733  
 127446338.840    99308848.1914   24252231.362 6  24252231.86643  24252236.36743
      6899.159        5375.961  
 106858753.934    83266580.0084   20334544.637 8  20334544.04846  20334547.70946
      2776.195        2163.275  
 110714754.205    86111491.582    20747896.932 7  20747896.475 7  20747900.142 7
        50.744          39.473  
 110476667.960    86085735.6684   21023010.698 7  21023011.46346  21023014.43446
      2386.200        1859.371  
 11  5 30 10 58 45.0000000  0 14R 7G28R 8G10R17G26R16G 7R 9R10G15G 8
                                R 6G 5                              
 105074611.752    81724715.096    19628819.920 8  19628818.341 8  19628816.400 7
      4562.204        3548.385  
 114403176.019    89145354.4084   21770201.031 8  21770200.09545  21770203.88345
      5788.275        4510.342  
 119979706.787    93317568.742    22405363.630 7  22405363.772 6  22405364.588 6
      7539.837        5864.309  
 122080663.039    95127808.6914   23231179.893 7  23231179.02544  23231184.90644
       -81.982         -63.887  
 123416086.759    95990304.264    23063246.282 6  23063246.220 5  23063247.370 4
      4694.521        3651.328  
 109125902.719    85033193.0624   20765968.330 8  20765968.75046  20765972.78546
      5893.571        4592.392  
 106533455.078    82859374.127    19943287.321 8  19943287.153 8  19943290.713 7
      1241.366         965.503  
 114154880.835    88951876.2554   21722952.156 8  21722951.82846  21722955.14546
      1043.271         812.947  
 103695075.868    80651746.760    19418756.570 8  19418756.355 8  19418760.112 7
      5027.015        3909.900  
 122760068.380    95480080.888    23029477.511 6  23029476.927 6  23029484.322 5
      7321.898        5694.815  
 127411836.626    99281963.3604   24245665.233 6  24245666.42843  24245670.70143
      6901.823        5378.021  
 106844872.215    83255763.0844   20331902.727 8  20331902.28946  20331906.17146
      2776.535        2163.529  
 110714500.030    86111293.885    20747850.006 7  20747849.457 7  20747852.843 7
        50.804          39.513  
 110464738.780    86076440.1944   21020740.586 8  21020741.44846  21020744.40446
      2385.642        1858.936  
 11  5 30 10 58 50.0000000  0 14R 7G28R 8G10R17G26R16G 7R 9R10G15G 8
                                R 6G 5                              
 105051806.001    81706977.288    19624558.980 8  19624557.924 8  19624556.084 7
      4560.280        3546.875  
 114374234.763    89122802.7874   21764693.438 7  21764692.66645  21764696.59745
      5788.493        4510.517  
 119942006.359    93288246.191    22398322.328 6  22398323.284 6  22398324.525 7
      7540.357        5864.710  
 122081069.702    95128125.5584   23231257.707 7  23231256.79644  23231262.23844
       -80.692         -62.868  
 123392618.460    95972051.149    23058859.444 6  23058859.263 5  23058861.852 4
      4693.084        3650.205  
 109096434.436    85010230.7564   20760361.020 8  20760361.19046  20760365.17746
      5893.758        4592.541  
 106527248.800    82854547.023    19942125.190 8  19942125.406 8  19942128.892 7
      1241.350         965.480  
 114149662.670    88947810.1444   21721959.334 7  21721958.87246  21721962.07546
      1044.239         813.686  
 103669943.081    80632199.040    19414049.748 8  19414049.779 8  19414053.567 7
      5026.337        3909.371  
 122723456.010    95451604.612    23022609.411 6  23022608.447 6  23022616.121 5
      7323.134        5695.758  
 127377324.291    99255070.6324   24239097.744 6  24239098.79143  24239103.16843
      6903.330        5379.228  
 106830990.042    83244945.8014   20329260.977 8  20329260.56946  20329264.54946
      2776.486        2163.489  
 110714247.526    86111097.489    20747802.559 7  20747801.982 7  20747805.603 7
        50.420          39.208  
 110452813.758    86067147.9634   21018471.400 8  21018472.06446  21018475.13546
      2384.672        1858.186  
 11  5 30 10 58 55.0000000  0 14R 7G28R 8G10R17G26R16G 7R 9R10G15G 8
                                R 6G 5                              
 105029009.543    81689246.706    19620300.421 8  19620299.247 8  19620297.580 7
      4558.455        3545.461  
 114345293.145    89100250.8854   21759186.159 8  21759185.54545  21759189.03345
      5788.514        4510.517  
 119904302.322    93258920.848    22391281.750 6  22391282.176 6  22391283.463 6
      7541.321        5865.458  
 122081469.142    95128436.7994   23231333.868 7  23231332.79044  23231338.00344
       -79.084         -61.623  
 123369158.711    95953804.689    23054474.713 5  23054474.006 5  23054477.759 4
      4691.312        3648.793  
 109066964.327    84987267.0384   20754753.474 8  20754753.13246  20754757.19446
      5894.267        4592.938  
 106521041.547    82849719.154    19940962.885 8  19940963.352 8  19940966.945 7
      1241.603         965.693  
 114144439.379    88943740.0444   21720965.473 7  21720965.12046  21720968.09946
      1045.275         814.497  
 103644813.810    80612654.056    19409343.827 8  19409343.791 8  19409347.796 7
      5025.555        3908.754  
 122686837.200    95423123.329    23015739.039 6  23015738.705 6  23015747.001 5
      7324.509        5696.842  
 127342801.621    99228169.8534   24232528.380 6  24232529.23243  24232533.87643
      6905.716        5381.083  
 106817107.181    83234127.9834   20326619.084 8  20326618.81546  20326622.70446
      2776.733        2163.691  
 110713996.257    86110902.051    20747754.857 7  20747754.928 7  20747758.746 7
        50.178          39.020  
 110440892.760    86057858.8714   21016203.397 8  21016203.54946  21016206.64646
      2383.970        1857.639  
 11  5 30 10 59  0.0000000  0 14R 7G28R 8G10R17G26R16G 7R 9R10G15G 8
                                R 6G 5                              
 105006222.719    81671523.619    19616044.368 8  19616042.601 8  19616040.768 7
      4556.371        3543.852  
 114316351.468    89077698.9314   21753679.087 7  21753678.58145  21753681.45945
      5788.330        4510.380  
 119866594.777    93229592.766    22384240.231 6  22384240.680 6  22384241.770 6
      7541.853        5865.881  
 122081861.687    95128742.6644   23231409.134 7  23231407.46044  23231412.88044
       -77.884         -60.685  
 123345707.748    95935565.055    23050093.938 6  23050092.424 5  23050094.717 4
      4689.168        3647.152  
 109037492.683    84964302.1234   20749145.443 8  20749144.95146  20749148.82646
      5894.496        4593.116  
 106514833.667    82844890.801    19939800.883 8  19939801.176 8  19939804.763 7
      1241.545         965.648  
 114139211.248    88939666.1694   21719970.696 8  21719970.21946  21719973.21146
      1046.037         815.087  
 103619688.368    80593112.046    19404638.707 8  19404638.635 8  19404642.691 7
      5024.692        3908.098  
 122650212.280    95394637.293    23008868.365 6  23008867.995 6  23008876.610 5
      7325.498        5697.589  
 127308268.956    99201261.2924   24225956.997 6  24225957.80043  24225962.30543
      6907.351        5382.344  
 106803224.024    83223309.9314   20323977.265 8  20323976.93846  20323980.85246
      2776.509        2163.521  
 110713746.699    86110707.941    20747708.747 7  20747708.078 7  20747711.802 7
        49.697          38.660  
 110428976.095    86048573.1564   21013935.803 8  21013935.95346  21013939.03646
      2382.872        1856.783  
 11  5 30 10 59  5.0000000  0 14R 7G28R 8G10R17G26R16G 7R 9R10G15G 8
                                R 6G 5                              
 104983446.065    81653808.445    19611789.632 8  19611787.903 8  19611785.822 7
      4554.390        3542.303  
 114287410.034    89055147.1554   21748172.112 8  21748171.29145  21748174.01045
      5788.400        4510.445  
 119828884.264    93200262.382    22377197.750 6  22377198.401 6  22377199.569 6
      7542.416        5866.317  
 122082247.618    95129043.3844   23231481.852 6  23231480.70244  23231486.56444
       -76.790         -59.826  
 123322265.745    95917332.367    23045714.527 6  23045712.187 5  23045713.304 4
      4687.822        3646.112  
 109008019.801    84941336.2474   20743536.745 8  20743536.45746  20743540.33246
      5894.679        4593.257  
 106508625.443    82840062.180    19938638.652 8  19938638.729 8  19938642.684 7
      1241.769         965.827  
 114133978.584    88935588.7694   21718974.811 8  21718974.59946  21718977.46146
      1046.996         815.845  
 103594567.044    80573573.242    19399933.989 8  19399934.088 8  19399938.329 7
      5023.938        3907.517  
 122613581.542    95366146.730    23001996.667 6  23001995.911 6  23002005.204 5
      7326.738        5698.590  
 127273726.607    99174345.1854   24219383.657 6  24219384.60543  24219389.57343
      6909.368        5383.932  
 106789340.819    83212491.8504   20321336.067 8  20321335.18746  20321338.92646
      2776.704        2163.675  
 110713499.091    86110515.343    20747661.869 7  20747661.614 7  20747665.527 7
        49.314          38.362  
 110417063.948    86039290.9554   21011668.890 8  21011669.20346  21011672.28546
      2381.907        1856.041  
 11  5 30 10 59 10.0000000  0 14R 7G28R 8G10R17G26R16G 7R 9R10G15G 8
                                R 6G 5                              
 104960679.492    81636101.111    19607536.516 8  19607534.871 8  19607532.811 7
      4552.339        3540.709  
 114258468.894    89032595.6214   21742664.552 8  21742663.92745  21742666.38945
      5788.163        4510.252  
 119791170.729    93170929.636    22370155.445 6  22370155.600 6  22370156.912 6
      7543.236        5866.965  
 122082626.958    95129338.9574   23231553.872 7  23231552.55144  23231558.90144
       -75.272         -58.653  
 123298832.821    95899106.780    23041334.044 5  23041332.138 5  23041334.169 4
      4685.919        3644.627  
 108978545.744    84918369.4534   20737927.854 8  20737927.87846  20737931.56046
      5895.036        4593.533  
 106502416.917    82835233.326    19937476.025 8  19937476.315 8  19937480.490 7
      1241.884         965.907  
 114128741.414    88931507.8554   21717978.126 7  21717977.90046  21717980.85746
      1047.953         816.585  
 103569449.947    80554037.725    19395230.685 8  19395230.441 8  19395234.562 7
      5023.072        3906.831  
 122576944.992    95337651.646    22995124.549 6  22995123.360 6  22995132.557 5
      7327.888        5699.473  
 127239174.649    99147421.5834   24212809.201 6  24212809.70743  24212814.22143
      6911.363        5385.491  
 106775457.633    83201673.7844   20318693.981 8  20318693.30646  20318696.96346
      2776.740        2163.694  
 110713253.317    86110324.177    20747616.750 7  20747615.926 7  20747619.647 7
        49.008          38.111  
 110405156.415    86030012.3544   21009403.219 8  21009403.28346  21009406.27946
      2381.070        1855.372  
 11  5 30 10 59 15.0000000  0 14R 7G28R 8G10R17G26R16G 7R 9R10G15G 8
                                R 6G 5                              
 104937923.023    81618401.635    19603285.139 8  19603283.733 8  19603281.705 7
      4550.311        3539.136  
 114229528.161    89010044.3994   21737156.663 7  21737156.43545  21737159.16645
      5788.068        4510.184  
 119753454.177    93141594.552    22363112.471 6  22363112.346 6  22363113.647 6
      7543.607        5867.258  
 122082999.804    95129629.4534   23231624.907 6  23231623.64644  23231629.96644
       -73.931         -57.587  
 123275409.009    95880888.252    23036956.611 5  23036955.884 5  23036957.922 4
      4683.462        3642.703  
 108949070.622    84895401.8234   20732318.823 8  20732318.93146  20732322.65646
      5895.103        4593.592  
 106496208.189    82830404.307    19936313.761 8  19936313.962 8  19936318.283 7
      1241.630         965.732  
 114123499.804    88927423.4794   21716980.650 7  21716980.38346  21716983.40346
      1048.668         817.145  
 103544337.074    80534505.492    19390527.425 8  19390527.578 8  19390531.681 7
      5022.257        3906.202  
 122540302.829    95309152.193    22988249.665 6  22988249.211 6  22988258.590 5
      7328.943        5700.304  
 127204613.131    99120490.5384   24206232.725 6  24206232.67143  24206238.01443
      6913.224        5386.938  
 106761574.525    83190855.7764   20316051.914 8  20316051.34046  20316055.07146
      2776.598        2163.588  
 110713009.522    86110134.552    20747570.362 7  20747570.378 7  20747573.667 7
        48.493          37.723  
 110393253.563    86020737.3994   21007138.161 8  21007138.30246  21007141.28146
      2379.960        1854.510  
 11  5 30 10 59 20.0000000  0 14R 7G28R 8G10R17G26R16G 7R 9R10G15G 8
                                R 6G 5                              
 106519993.484    82848900.886    19898829.087 8  19898827.768 8  19898825.761 7
      4548.267        3537.539  
 115776013.662    90215098.0454   22031442.909 8  22031442.62045  22031445.68045
      5787.988        4510.104  
 121321117.446    94360888.217    22655862.164 7  22655862.510 6  22655863.551 6
      7543.798        5867.403  
 123658786.070    96357514.8424   23531487.042 6  23531485.70544  23531492.17144
       -72.649         -56.615  
 124856248.920    97110430.410    23332374.504 6  23332373.854 5  23332377.094 4
      4681.886        3641.479  
 110495020.418    86100038.0284   21026503.486 8  21026503.40546  21026506.99146
      5895.279        4593.721  
 108091438.049    84071138.641    20234944.190 8  20234944.181 8  20234948.658 7
      1241.625         965.709  
 115693674.860    90150936.4984   22015774.888 7  22015774.66046  22015777.81946
      1049.571         817.846  
 105120108.625    81760105.588    19685619.304 8  19685618.903 8  19685623.157 7
      5021.170        3905.354  
 124101724.758    96523591.499    23281168.644 6  23281168.132 6  23281177.210 5
      7329.956        5701.086  
 128745469.092   100321157.5314   24499448.231 6  24499447.88143  24499453.08143
      6914.667        5388.071  
 108323114.357    84407640.0564   20613203.233 8  20613202.48346  20613206.11946
      2776.383        2163.424  
 112312517.884    87354196.607    21047317.903 7  21047317.726 7  21047320.616 7
        48.023          37.358  
 111956777.843    87239068.0024   21304666.828 8  21304667.07946  21304669.99046
      2379.104        1853.841  
 11  5 30 10 59 25.0000000  0 14R 7G28R 8G10R17G26R16G 7R 9R10G15G 8
                                R 6G 5                              
 106497257.818    82831217.585    19894581.451 8  19894580.586 8  19894578.428 7
      4546.052        3535.823  
 115747074.251    90192547.8544   22025936.290 8  22025935.69245  22025938.98245
      5787.916        4510.068  
 121283395.540    94331548.957    22648818.386 7  22648818.186 6  22648819.256 6
      7544.487        5867.947  
 123659146.357    96357795.5664   23531556.036 6  23531554.45044  23531560.50644
       -71.206         -55.490  
 124832843.939    97092226.551    23328000.146 6  23327999.842 5  23328003.120 4
      4680.126        3640.095  
 110465543.710    86077069.1694   21020894.079 8  21020894.22146  21020897.81846
      5895.388        4593.812  
 108085229.378    84066309.669    20233781.785 8  20233781.718 8  20233786.393 7
      1241.709         965.784  
 115688424.890    90146845.6114   22014775.679 7  22014775.52046  22014778.78446
      1050.389         818.493  
 105095004.915    81740580.480    19680917.897 8  19680917.914 8  19680922.230 8
      5020.267        3904.654  
 124065071.633    96495083.521    23274293.316 6  23274292.399 6  23274300.967 5
      7331.090        5701.958  
 128710889.031   100294212.0374   24492868.381 6  24492867.55743  24492872.24343
      6916.604        5389.562  
 108309231.869    84396822.5324   20610561.553 8  20610560.77846  20610564.46446
      2776.400        2163.432  
 112312278.703    87354010.568    21047272.587 7  21047272.458 7  21047275.831 7
        47.669          37.086  
 111944884.877    87229800.7494   21302403.521 8  21302403.94746  21302406.89446
      2378.110        1853.075  
 11  5 30 10 59 30.0000000  0 14R 7G28R 8G10R17G26R16G 7R 9R10G15G 8
                                R 6G 5                              
 106474532.647    82813542.450    19890336.809 8  19890335.341 8  19890333.157 6
      4544.079        3534.289  
 115718135.508    90169998.1914   22020429.381 7  22020428.89645  22020432.12745
      5787.809        4509.979  
 121245671.184    94302207.817    22641773.611 6  22641773.394 6  22641774.357 7
      7545.059        5868.367  
 123659500.372    96358071.4134   23531623.234 6  23531621.86244  23531628.00844
       -70.232         -54.731  
 124809448.561    97074030.158    23323629.157 6  23323627.725 5  23323629.944 4
      4678.004        3638.475  
 110436066.290    86054099.7474   21015284.524 7  21015284.89246  21015288.46246
      5895.708        4594.065  
 108079020.776    84061480.752    20232619.131 8  20232619.386 8  20232624.167 7
      1241.665         965.742  
 115683170.768    90142751.4824   22013775.986 7  22013775.57946  22013778.92246
      1051.261         819.175  
 105069905.634    81721058.817    19676217.448 8  19676217.682 8  19676221.900 7
      5019.421        3903.994  
 124028413.237    96466571.441    23267415.709 6  23267415.023 6  23267423.758 5
      7332.187        5702.805  
 128676299.743   100267259.3474   24486286.467 6  24486285.21643  24486290.40543
      6919.035        5391.451  
 108295349.740    84386005.2874   20607920.138 8  20607919.13146  20607922.77746
      2776.413        2163.444  
 112312041.773    87353826.281    21047228.199 7  21047227.668 7  21047231.809 7
        47.322          36.812  
 111932996.884    87220537.3694   21300141.342 8  21300141.76246  21300144.71546
      2377.162        1852.336  
 11  5 30 10 59 35.0000000  0 14R 7G28R 8G10R17G26R16G 7R 9R10G15G 8
                                R 6G 5                              
 106451818.434    82795875.840    19886093.756 8  19886092.043 8  19886089.999 7
      4541.832        3532.536  
 115689197.885    90147449.3964   22014922.547 7  22014922.07745  22014925.48245
      5787.272        4509.555  
 121207944.705    94272865.003    22634728.998 6  22634728.359 6  22634729.237 6
      7545.317        5868.573  
 123659848.514    96358342.6754   23531689.554 6  23531688.25244  23531694.29844
       -69.086         -53.830  
 124786063.160    97055841.508    23319258.114 6  23319257.243 5  23319259.668 4
      4676.104        3636.963  
 110406588.499    86031130.0414   21009675.349 8  21009675.45046  21009678.98146
      5895.645        4594.016  
 108072812.563    84056652.137    20231457.398 8  20231457.401 8  20231461.967 7
      1241.637         965.717  
 115677912.869    90138654.4094   22012775.380 8  22012775.18146  22012778.47146
      1051.902         819.668  
 105044811.427    81701541.101    19671518.522 8  19671518.142 8  19671522.527 8
      5018.452        3903.252  
 123991749.745    96438055.413    23260537.757 6  23260537.136 6  23260545.688 5
      7333.067        5703.493  
 128641701.610   100240299.7824   24479701.813 6  24479701.42443  24479706.89143
      6920.455        5392.560  
 108281468.353    84375188.6184   20605278.526 8  20605277.73546  20605281.31146
      2776.116        2163.218  
 112311807.618    87353644.148    21047183.643 7  21047183.821 7  21047188.328 7
        46.573          36.230  
 111921114.210    87211278.1434   21297880.263 8  21297880.58346  21297883.53346
      2376.072        1851.488  
 11  5 30 10 59 40.0000000  0 14R 7G28R 8G10R17G26R16G 7R 9R10G15G 8
                                R 6G 5                              
 106429115.331    82778217.875    19881852.386 8  19881851.078 8  19881848.848 7
      4539.561        3530.772  
 115660261.564    90124901.6164   22009416.827 8  22009415.95445  22009419.26745
      5787.171        4509.478  
 121170216.337    94243520.731    22627682.465 7  22627682.797 6  22627683.851 6
      7545.898        5869.013  
 123660190.958    96358609.5064   23531754.243 6  23531753.37144  23531759.13844
       -67.757         -52.801  
 124762687.931    97037660.774    23314892.210 6  23314889.202 5  23314892.652 4
      4674.148        3635.449  
 110377110.589    86008160.2434   21004065.972 8  21004065.95246  21004069.56446
      5895.621        4593.974  
 108066604.941    84051823.979    20230295.721 8  20230295.796 8  20230299.719 7
      1241.455         965.587  
 115672651.407    90134554.5664   22011774.112 8  22011774.02546  22011777.31946
      1052.556         820.167  
 105019722.387    81682027.408    19666819.457 8  19666819.661 8  19666823.843 7
      5017.374        3902.396  
 123955081.508    96409535.683    23253659.023 6  23253657.886 6  23253666.804 5
      7334.229        5704.401  
 128607094.894   100213333.5144   24473116.880 6  24473116.06443  24473121.25143
      6922.117        5393.836  
 108267587.922    84364372.6984   20602637.117 8  20602636.45846  20602639.95246
      2776.115        2163.208  
 112311576.190    87353464.138    21047141.147 7  21047140.634 7  21047145.019 7
        46.109          35.852  
 111909237.083    87202023.2324   21295620.154 8  21295620.46746  21295623.35646
      2374.970        1850.614  
 11  5 30 10 59 45.0000000  0 14R 7G28R 8G10R17G26R16G 7R 9R10G15G 8
                                R 6G 5                              
 106406422.885    82760568.193    19877613.451 8  19877611.864 8  19877609.848 7
      4537.506        3529.182  
 115631326.315    90102354.6754   22003910.642 7  22003909.96045  22003912.93545
      5787.049        4509.400  
 121132485.820    94214174.774    22620636.135 6  22620636.786 6  22620637.938 6
      7546.446        5869.452  
 123660527.518    96358871.7514   23531818.183 6  23531817.05444  23531822.99844
       -66.567         -51.852  
 124739322.580    97019487.728    23310523.585 6  23310522.228 5  23310525.275 4
      4672.215        3633.936  
 110347632.274    85985190.1244   20998456.755 8  20998456.40746  20998460.03246
      5895.828        4594.166  
 108060397.723    84046996.140    20229133.790 8  20229133.944 8  20229137.909 7
      1241.481         965.602  
 115667386.133    90130451.7474   22010772.627 7  22010772.35146  22010775.33246
      1053.477         820.891  
 104994638.258    81662517.534    19662122.352 8  19662122.348 8  19662126.329 7
      5016.485        3901.722  
 123918408.273    96381012.063    23246778.345 6  23246778.350 6  23246786.516 5
      7335.330        5705.238  
 128572479.309   100186360.3404   24466528.390 6  24466529.18143  24466533.92443
      6923.980        5395.315  
 108253708.220    84353557.3444   20599995.419 8  20599995.08446  20599998.80446
      2775.911        2163.063  
 112311347.385    87353286.163    21047097.757 7  21047097.427 7  21047102.464 7
        45.541          35.437  
 111897365.238    87192772.4384   21293361.392 8  21293361.33846  21293364.17146
      2373.906        1849.799  
 11  5 30 10 59 50.0000000  0 14R 7G28R 8G10R17G26R16G 7R 9R10G15G 8
                                R 6G 5                              
 106383741.344    82742926.998    19873375.971 8  19873374.746 8  19873372.609 7
      4535.222        3527.399  
 115602392.393    90079808.7634   21998405.042 8  21998404.12245  21998406.94445
      5786.551        4508.989  
 121094753.317    94184827.286    22613590.371 6  22613590.462 6  22613591.391 6
      7546.678        5869.635  
 123660858.354    96359129.5394   23531881.283 6  23531880.09144  23531885.98144
       -65.435         -50.979  
 124715967.249    97001322.473    23306159.739 5  23306156.544 5  23306160.384 4
      4670.276        3632.410  
 110318153.794    85962219.8804   20992847.645 8  20992846.92346  20992850.59946
      5895.631        4593.993  
 108054191.090    84042168.762    20227972.161 8  20227972.348 8  20227975.878 7
      1241.256         965.407  
 115662117.256    90126346.1274   22009770.243 8  22009769.92046  22009772.74246
      1054.067         821.344  
 104969559.327    81643011.701    19657425.982 8  19657425.817 8  19657429.796 7
      5015.312        3900.793  
 123881730.299    96352484.764    23239898.750 6  23239897.813 6  23239905.406 5
      7336.160        5705.891  
 128537855.037   100159380.4094   24459939.307 6  24459940.66543  24459945.26643
      6925.912        5396.815  
 108239829.438    84342742.7024   20597354.366 8  20597354.01546  20597357.73846
      2775.746        2162.909  
 112311121.352    87353110.343    21047055.493 7  21047055.387 7  21047060.283 7
        44.924          34.937  
 111885498.834    87183525.8854   21291103.252 8  21291103.19646  21291106.13446
      2372.702        1848.854  
 11  5 30 10 59 55.0000000  0 14R 7G28R 8G10R17G26R16G 7R 9R10G15G 8
                                R 6G 5                              
 106361071.552    82725294.936    19869141.072 8  19869139.644 8  19869137.726 7
      4532.943        3525.622  
 115573460.009    90057264.0404   21992898.999 7  21992898.18845  21992901.01245
      5786.494        4508.958  
 121057019.227    94155478.561    22606543.394 7  22606543.854 6  22606545.188 6
      7547.095        5869.961  
 123661183.678    96359383.0224   23531943.408 7  23531942.16644  23531947.87244
       -64.326         -50.126  
 124692622.401    96983165.391    23301795.115 5  23301794.166 5  23301798.000 4
      4667.738        3630.465  
 110288675.372    85939249.6914   20987238.035 8  20987237.34646  20987240.91046
      5895.789        4594.117  
 108047985.279    84037342.017    20226810.447 8  20226810.500 8  20226814.064 7
      1241.112         965.308  
 115656844.999    90122237.8664   22008767.083 7  22008766.85846  22008769.38846
      1054.965         822.047  
 104944485.753    81623510.031    19652730.319 8  19652730.358 8  19652734.150 7
      5014.283        3899.996  
 123845047.705    96323953.873    23233016.970 6  23233015.915 6  23233024.050 5
      7337.144        5706.647  
 128503222.434   100132393.9704   24453348.591 6  24453349.76143  24453354.62143
      6927.217        5397.824  
 108225951.800    84331928.9554   20594713.813 8  20594713.12946  20594716.95546
      2775.481        2162.709  
 112310898.412    87352936.936    21047013.710 7  21047013.642 7  21047018.376 7
        44.334          34.481  
 111873638.237    87174283.8604   21288846.630 8  21288846.25346  21288849.10746
      2371.513        1847.930  
 11  5 30 11  0  0.0000000  0 14R 7G28R 8G10R17G26R16G 7R 9R10G15G 8
                                R 6G 5                              
 106338412.730    82707671.406    19864907.787 8  19864906.690 8  19864904.762 7
      4530.640        3523.829  
 115544528.724    90034720.1914   21987393.014 8  21987392.31545  21987395.52045
      5786.034        4508.598  
 121019282.969    94126128.141    22599497.232 7  22599496.942 6  22599497.920 6
      7547.438        5870.230  
 123661503.059    96359631.8694   23532003.661 6  23532002.74744  23532009.12244
       -63.390         -49.407  
 124669287.543    96965016.067    23297437.293 5  23297435.441 5  23297437.014 4
      4666.086        3629.187  
 110259196.617    85916279.2374   20981628.264 8  20981627.69046  20981631.29646
      5895.913        4594.219  
 108041779.705    84032515.459    20225648.250 8  20225648.645 8  20225652.290 7
      1240.995         965.215  
 115651568.912    90118126.6324   22007763.078 8  22007762.81846  22007765.38146
      1055.655         822.581  
 104919417.074    81604012.168    19648034.661 8  19648035.401 8  19648039.811 7
      5013.210        3899.164  
 123808360.146    96295419.108    23226134.291 6  23226133.457 6  23226141.670 5
      7337.876        5707.232  
 128468580.990   100105400.6354   24446756.077 6  24446757.91643  24446762.36843
      6929.244        5399.410  
 108212074.876    84321115.7654   20592073.208 8  20592072.55946  20592076.29346
      2775.310        2162.578  
 112310677.973    87352765.478    21046972.943 7  21046972.468 7  21046976.906 7
        43.696          33.976  
 111861782.993    87165046.0064   21286590.372 8  21286590.28046  21286593.18546
      2370.438        1847.091  
 11  5 30 11  0  5.0000000  0 14R 7G28R 8G10R17G26R16G 7R 9R10G15G 8
                                R 6G 5                              
 106315765.216    82690056.670    19860677.722 8  19860675.988 8  19860674.054 7
      4528.221        3521.952  
 115515599.074    90012177.6124   21981887.836 8  21981887.19045  21981890.43645
      5785.729        4508.365  
 120981545.214    94096776.567    22592449.754 7  22592449.503 6  22592450.604 6
      7547.721        5870.441  
 123661816.952    96359876.4524   23532063.505 6  23532062.36144  23532068.98444
       -62.150         -48.419  
 124645963.219    96946874.920    23293076.720 6  23293076.881 5  23293078.434 4
      4663.793        3627.398  
 110229718.100    85893308.9614   20976018.387 8  20976018.12946  20976021.75846
      5895.724        4594.066  
 108035574.997    84027689.575    20224486.658 8  20224486.960 8  20224490.533 7
      1240.846         965.099  
 115646289.495    90114012.7954   22006757.901 7  22006757.91546  22006760.55846
      1056.197         823.014  
 104894353.866    81584518.563    19643341.357 8  19643342.041 8  19643346.384 7
      5012.081        3898.290  
 123771668.207    96266880.946    23219250.253 6  23219249.851 6  23219258.362 5
      7338.812        5707.970  
 128433931.216   100078400.8264   24440163.525 6  24440164.35843  24440169.03043
      6930.773        5400.596  
 108198199.146    84310303.5084   20589432.687 8  20589431.98746  20589435.79646
      2775.148        2162.447  
 112310460.573    87352596.381    21046932.131 7  21046931.804 7  21046935.497 7
        43.122          33.540  
 111849933.545    87155812.6624   21284335.401 8  21284335.39346  21284338.29146
      2369.263        1846.175  
 11  5 30 11  0 10.0000000  0 14R 7G28R 8G10R17G26R16G 7R 9R10G15G 8
                                R 6G 5                              
 106293129.190    82672450.872    19856449.538 8  19856447.602 8  19856445.647 7
      4526.221        3520.392  
 115486671.034    89989636.2914   21976383.616 7  21976382.75045  21976385.83645
      5785.353        4508.058  
 120943806.004    94067423.855    22585402.303 6  22585402.011 6  22585403.171 6
      7547.668        5870.404  
 123662125.396    96360116.7914   23532122.051 6  23532121.22944  23532127.64644
       -61.341         -47.792  
 124622649.283    96928741.857    23288720.842 6  23288720.183 5  23288722.731 4
      4661.879        3625.881  
 110200239.783    85870338.8434   20970408.390 8  20970408.61846  20970412.25546
      5895.515        4593.904  
 108029371.138    84022864.349    20223325.565 8  20223325.527 8  20223329.204 7
      1240.636         964.940  
 115641006.741    90109896.3614   22005752.649 7  22005752.50146  22005755.22846
      1056.750         823.441  
 104869296.128    81565029.216    19638649.270 8  19638649.457 8  19638653.805 7
      5010.820        3897.303  
 123734971.830    96238339.336    23212366.352 6  23212365.718 6  23212374.627 5
      7339.730        5708.692  
 128399273.144   100051394.5464   24433567.738 6  24433568.96843  24433573.71143
      6932.327        5401.786  
 108184324.588    84299492.1614   20586792.646 8  20586791.83546  20586795.60646
      2774.710        2162.110  
 112310246.312    87352429.731    21046891.945 7  21046891.748 7  21046895.339 7
        42.539          33.087  
 111838089.917    87146583.8584   21282081.601 8  21282081.62946  21282084.52146
      2368.004        1845.194  
 11  5 30 11  0 15.0000000  0 14R 7G28R 8G10R17G26R16G 7R 9R10G15G 8
                                R 6G 5                              
 106270504.076    82654853.563    19852222.753 8  19852221.061 7  19852219.026 7
      4523.625        3518.368  
 115457744.985    89967096.5174   21970879.528 7  21970878.56845  21970881.44145
      5784.979        4507.780  
 120906065.468    94038070.115    22578353.292 6  22578354.107 6  22578355.278 6
      7548.087        5870.736  
 123662428.615    96360353.0464   23532180.336 7  23532179.15744  23532185.30444
       -60.272         -46.951  
 124599346.141    96910617.193    23284367.397 6  23284364.597 5  23284367.727 4
      4659.340        3623.972  
 110170761.910    85847369.0704   20964798.664 8  20964799.10346  20964802.80446
      5895.547        4593.927  
 108023168.378    84018039.973    20222164.096 8  20222164.210 8  20222168.261 7
      1240.458         964.801  
 115635720.912    90105777.5314   22004746.551 7  22004746.56746  22004749.39646
      1057.440         823.977  
 104844244.080    81545544.299    19633957.952 8  19633958.274 8  19633962.470 8
      5009.859        3896.554  
 123698271.254    96209794.450    23205481.008 6  23205481.055 6  23205489.646 5
      7340.676        5709.416  
 128364607.051   100024382.0114   24426971.319 6  24426972.27343  24426977.34343
      6934.017        5403.138  
 108170451.463    84288681.9344   20584152.767 8  20584151.91746  20584155.61246
      2774.470        2161.925  
 112310035.227    87352265.540    21046852.233 7  21046851.670 7  21046856.345 7
        41.760          32.484  
 111826252.408    87137359.8224   21279829.175 8  21279829.03146  21279831.88646
      2366.830        1844.274  
 11  5 30 11  0 20.0000000  0 14R 7G28R 8G10R17G26R16G 7R 9R10G15G 8
                                R 6G 5                              
 106247891.794    82637266.232    19847998.531 8  19847996.877 8  19847994.918 7
      4521.389        3516.633  
 115428820.787    89944558.1764   21965375.255 7  21965374.50245  21965377.21945
      5784.710        4507.571  
 120868323.589    94008715.329    22571306.323 7  22571306.300 6  22571307.110 6
      7548.838        5871.309  
 123662726.540    96360585.1874   23532236.859 7  23532235.84744  23532241.92144
       -59.104         -46.044  
 124576053.794    96892500.929    23280013.858 6  23280012.379 5  23280015.202 4
      4657.480        3622.510  
 110141284.400    85824399.5814   20959189.748 8  20959189.73546  20959193.40246
      5895.465        4593.859  
 108016966.659    84013216.407    20221003.222 8  20221003.188 8  20221007.438 7
      1240.227         964.623  
 115630431.931    90101656.2364   22003740.208 7  22003740.05246  22003743.04846
      1058.148         824.535  
 104819197.814    81526063.873    19629268.335 8  19629267.876 8  19629272.207 7
      5008.703        3895.653  
 123661566.511    96181246.324    23198595.019 6  23198595.070 6  23198603.882 5
      7341.426        5710.000  
 128329932.859    99997363.1634   24420373.500 6  24420373.94443  24420378.59543
      6935.876        5404.574  
 108156579.719    84277872.7794   20581513.041 8  20581512.22546  20581515.80046
      2774.179        2161.701  
 112309827.461    87352103.935    21046812.894 7  21046812.227 7  21046817.094 7
        41.300          32.115  
 111814420.897    87128140.4564   21277577.585 8  21277577.64146  21277580.46046
      2365.785        1843.459  
 11  5 30 11  0 25.0000000  0 14R 7G28R 8G10R17G26R16G 7R 9R10G15G 8
                                R 6G 5                              
 106225290.501    82619687.446    19843776.236 8  19843774.890 8  19843772.667 7
      4519.221        3514.951  
 115399898.504    89922021.3354   21959871.225 8  21959870.53145  21959873.49445
      5784.498        4507.404  
 120830580.538    93979359.625    22564257.786 7  22564258.140 6  22564258.909 6
      7548.529        5871.062  
 123663019.193    96360813.2194   23532292.730 7  23532291.84744  23532297.34044
       -58.115         -45.280  
 124552772.183    96874393.012    23275662.376 6  23275661.982 5  23275664.738 4
      4655.384        3620.837  
 110111807.355    85801430.4614   20953580.655 8  20953580.47946  20953584.11546
      5895.335        4593.757  
 108010765.952    84008393.631    20219842.201 8  20219842.418 8  20219846.573 7
      1240.107         964.523  
 115625139.811    90097532.4994   22002733.230 7  22002733.08946  22002736.01746
      1058.789         825.040  
 104794157.178    81506587.821    19624578.602 8  19624578.761 8  19624582.984 7
      5007.510        3894.733  
 123624857.525    96152694.919    23191710.158 6  23191708.912 6  23191717.456 5
      7342.014        5710.434  
 128295250.638    99970338.0584   24413774.538 6  24413774.37243  24413779.29243
      6937.455        5405.800  
 108142709.369    84267064.7134   20578873.488 8  20578872.86346  20578876.34446
      2773.878        2161.458  
 112309622.940    87351944.852    21046774.913 7  21046774.447 7  21046779.133 7
        40.544          31.542  
 111802595.458    87118925.8234   21275327.038 8  21275327.20246  21275330.21146
      2364.477        1842.447  
 11  5 30 11  0 30.0000000  0 14R 7G28R 8G10R17G26R16G 7R 9R10G15G 8
                                R 6G 5                              
 106202701.042    82602117.865    19839556.461 8  19839554.963 8  19839552.686 7
      4516.720        3513.006  
 115370978.339    89899486.1434   21954367.988 7  21954367.15545  21954370.16445
      5783.930        4506.961  
 120792836.437    93950003.105    22557210.852 7  22557209.683 7  22557210.385 6
      7548.926        5871.396  
 123663306.694    96361037.2384   23532347.285 7  23532346.23244  23532351.93244
       -57.066         -44.491  
 124529501.361    96856293.486    23271312.577 6  23271311.625 5  23271314.240 4
      4652.856        3618.893  
 110082330.922    85778461.8154   20947971.933 8  20947971.28746  20947974.86146
      5895.259        4593.709  
 108004566.467    84003571.809    20218681.547 8  20218681.932 8  20218686.235 7
      1239.756         964.256  
 115619844.739    90093406.4694   22001725.741 8  22001725.60946  22001728.44246
      1059.419         825.519  
 104769122.441    81487116.360    19619891.013 8  19619890.806 8  19619894.621 7
      5006.493        3893.941  
 123588144.564    96124140.404    23184823.316 6  23184821.748 6  23184830.201 5
      7342.937        5711.172  
 128260560.504    99943306.7964   24407173.191 6  24407172.64743  24407177.91143
      6938.839        5406.887  
 108128840.614    84256257.8894   20576233.921 8  20576233.63746  20576237.16546
      2773.627        2161.267  
 112309421.751    87351788.368    21046738.098 7  21046737.256 7  21046741.280 7
        40.009          31.134  
 111790776.238    87109716.0364   21273077.718 7  21273078.04246  21273081.09846
      2363.242        1841.482  
 11  5 30 11  0 35.0000000  0 14R 7G28R 8G10R17G26R16G 7R 9R10G15G 8
                                R 6G 5                              
 106180123.615    82584557.645    19835338.692 8  19835337.276 8  19835334.898 7
      4514.239        3511.073  
 115342060.290    89876952.5914   21948865.230 8  21948864.37945  21948867.04145
      5783.270        4506.458  
 120755091.258    93920645.747    22550162.107 7  22550161.337 6  22550161.682 6
      7549.029        5871.473  
 123663589.113    96361257.3044   23532400.633 6  23532399.69244  23532405.67844
       -55.945         -43.580  
 124506241.535    96838202.535    23266967.036 5  23266964.728 5  23266968.457 4
      4650.724        3617.207  
 110052855.105    85755493.6524   20942362.379 8  20942362.25546  20942365.82746
      5894.976        4593.487  
 107998368.129    83998750.879    20217521.609 8  20217521.738 8  20217525.889 7
      1239.480         964.036  
 115614546.693    90089278.1164   22000717.390 8  22000717.39946  22000720.53346
      1059.932         825.921  
 104744093.586    81467649.475    19615203.514 8  19615203.626 7  19615207.287 7
      5005.072        3892.833  
 123551427.586    96095582.759    23177934.314 6  23177933.722 6  23177942.161 5
      7343.693        5711.750  
 128225862.494    99916269.3924   24400571.177 6  24400570.17143  24400574.63643
      6940.677        5408.322  
 108114973.462    84245452.3114   20573595.160 8  20573594.71346  20573598.32746
      2773.288        2161.002  
 112309223.975    87351634.517    21046700.017 7  21046699.397 7  21046704.033 7
        39.242          30.531  
 111778963.210    87100511.0724   21270829.921 8  21270830.07146  21270833.19546
      2361.965        1840.490  
 11  5 30 11  0 40.0000000  0 14R 7G28R 8G10R17G26R16G 7R 9R10G15G 8
                                R 6G 5                              
 106157558.434    82567006.952    19831123.426 8  19831121.913 8  19831119.754 7
      4511.866        3509.228  
 115313144.394    89854420.7324   21943362.207 8  21943361.71945  21943364.43045
      5782.996        4506.239  
 120717345.186    93891287.701    22543114.776 7  22543112.491 6  22543112.910 6
      7549.417        5871.771  
 123663866.528    96361473.4514   23532452.723 6  23532451.69944  23532458.40044
       -54.962         -42.829  
 124482992.823    96820120.202    23262622.977 6  23262621.257 5  23262624.700 4
      4648.816        3615.770  
 110023380.062    85732526.0864   20936753.057 8  20936753.25246  20936756.88446
      5894.905        4593.437  
 107992171.095    83993930.963    20216361.678 8  20216361.742 8  20216365.749 7
      1239.357         963.937  
 115609245.754    90085147.5094   21999708.837 8  21999708.73246  21999711.81146
      1060.406         826.297  
 104719070.721    81448187.245    19610517.906 8  19610517.816 8  19610521.267 7
      5003.912        3891.929  
 123514706.784    96067022.148    23171046.027 6  23171045.086 6  23171053.413 5
      7344.622        5712.488  
 128191156.717    99889225.9594   24393966.514 6  24393965.58143  24393970.17143
      6941.864        5409.252  
 108101108.000    84234648.0524   20570956.535 8  20570956.23546  20570959.76646
      2772.871        2160.682  
 112309029.760    87351483.459    21046663.850 7  21046663.238 7  21046667.336 7
        38.433          29.887  
 111767156.460    87091311.0014   21268583.449 8  21268583.36246  21268586.47046
      2360.635        1839.465  
 11  5 30 11  0 45.0000000  0 15R 7G28R 8G19G10R17G26R16G 7R 9R10G15
                                G 8R 6G 5                           
 106135004.958    82549465.357    19826910.625 8  19826908.734 8  19826906.446 7
      4509.589        3507.461  
 115284230.921    89831890.7594   21937859.997 8  21937859.41345  21937862.48445
      5782.533        4505.862  
 120679598.534    93861929.202    22536065.637 7  22536063.654 6  22536063.928 6
      7549.594        5871.905  
 129957600.168   101265678.1124   24730108.379 7  24730107.51443  24730111.65443
      4421.660        3445.474  
 123664139.076    96361685.8024   23532504.601 6  23532503.48544  23532510.14344
       -53.790         -41.917  
 124459755.403    96802046.656    23258281.384 6  23258279.487 5  23258282.253 4
      4646.457        3613.931  
 109993906.039    85709559.3144   20931144.021 8  20931144.61146  20931148.20746
      5894.858        4593.394  
 107985975.497    83989112.164    20215201.387 8  20215201.750 8  20215205.986 7
      1238.989         963.651  
 115603942.137    90081014.8154   21998699.379 8  21998699.41946  21998702.56746
      1061.036         826.784  
 104694054.006    81428729.804    19605832.298 8  19605832.771 8  19605836.400 7
      5002.672        3890.966  
 123477982.358    96038458.724    23164155.825 6  23164155.357 6  23164164.122 5
      7345.296        5713.000  
 128156443.366    99862176.6014   24387360.534 6  24387359.73943  24387364.67643
      6943.518        5410.540  
 108087244.421    84223845.2594   20568318.532 8  20568318.11546  20568321.63846
      2772.555        2160.430  
 112308839.132    87351335.182    21046627.250 7  21046627.456 7  21046631.595 7
        37.827          29.424  
 111755356.178    87082115.9684   21266338.050 8  21266337.88346  21266341.04246
      2359.536        1838.611  
 11  5 30 11  0 50.0000000  0 15R 7G28R 8G19G10R17G26R16G 7R 9R10G15
                                G 8R 6G 5                           
 106112464.067    82531933.550    19822699.812 8  19822697.950 8  19822695.570 7
      4506.855        3505.327  
 115255319.953    89809362.7414   21932358.815 8  21932357.93345  21932361.06145
      5782.057        4505.490  
 120641851.213    93832570.182    22529015.866 7  22529014.615 7  22529015.023 6
      7549.419        5871.776  
 129935494.492   101248452.8984   24725902.361 7  24725901.08043  24725904.88543
      4420.485        3444.513  
 123664406.905    96361894.4914   23532555.539 6  23532554.47844  23532561.25844
       -53.117         -41.374  
 124436529.170    96783981.817    23253938.531 6  23253937.874 5  23253941.181 4
      4644.117        3612.055  
 109964433.038    85686593.3354   20925535.810 8  20925536.09346  20925539.71046
      5894.497        4593.108  
 107979781.459    83984294.572    20214042.149 8  20214042.049 8  20214046.504 7
      1238.670         963.414  
 115598635.943    90076880.1084   21997689.316 8  21997689.44646  21997692.84146
      1061.481         827.128  
 104669043.671    81409277.330    19601149.043 8  19601149.249 8  19601152.982 7
      5001.372        3889.952  
 123441254.262    96009892.445    23157266.146 6  23157264.925 6  23157273.723 5
      7345.622        5713.236  
 128121722.598    99835121.4534   24380753.693 6  24380752.76243  24380757.60843
      6945.011        5411.686  
 108073382.807    84213044.0014   20565681.184 8  20565680.45846  20565683.97546
      2772.128        2160.103  
 112308652.215    87351189.794    21046593.463 7  21046592.968 7  21046595.849 7
        37.054          28.823  
 111743562.486    87072926.0764   21264093.921 8  21264093.62346  21264096.68046
      2358.241        1837.609  
 11  5 30 11  0 55.0000000  0 15R 7G28R 8G19G10R17G26R16G 7R 9R10G15
                                G 8R 6G 5                           
 106089935.207    82514411.104    19818490.738 8  19818489.353 8  19818487.036 7
      4504.681        3503.640  
 115226411.190    89786836.4354   21926857.553 7  21926856.71745  21926859.88945
      5781.605        4505.145  
 120604102.967    93803210.440    22521967.061 7  22521965.266 7  22521965.692 6
      7549.868        5872.121  
 129913393.991   101231231.7204   24721696.452 7  24721695.58643  24721699.18543
      4419.377        3443.668  
 123664669.612    96362099.1754   23532605.169 6  23532604.11844  23532611.27344
       -52.125         -40.608  
 124413313.883    96765925.489    23249600.419 6  23249600.045 5  23249602.387 4
      4641.673        3610.174  
 109934960.738    85663627.9074   20919927.847 8  20919927.66846  20919931.25346
      5894.249        4592.920  
 107973588.634    83979477.923    20212882.430 8  20212882.741 8  20212887.143 7
      1238.387         963.188  
 115593326.807    90072743.1154   21996678.904 7  21996679.07146  21996682.53946
      1062.115         827.622  
 104644039.269    81389829.465    19596466.311 8  19596466.486 8  19596470.376 7
      5000.319        3889.136  
 123404522.276    95981323.137    23150375.445 6  23150374.145 6  23150383.143 5
      7346.579        5714.001  
 128086994.033    99808060.2544   24374144.519 6  24374143.95043  24374148.79643
      6946.475        5412.835  
 108059522.820    84202244.0104   20563043.929 8  20563043.02446  20563046.57746
      2771.753        2159.805  
 112308468.700    87351047.052    21046559.660 7  21046559.346 7  21046561.900 7
        36.322          28.248  
 111731775.048    87063741.0564   21261850.684 8  21261850.50646  21261853.65046
      2356.779        1836.455  
 11  5 30 11  1  0.0000000  0 15R 7G28R 8G19G10R17G26R16G 7R 9R10G15
                                G 8R 6G 5                           
 106067418.751    82496898.303    19814284.413 8  19814283.096 8  19814280.847 7
      4501.918        3501.483  
 115197505.128    89764312.2254   21921357.217 7  21921356.34045  21921359.45345
      5781.001        4504.669  
 120566354.466    93773850.500    22514917.488 7  22514916.067 7  22514916.498 6
      7549.674        5871.966  
 129891299.098   101214014.9214   24717491.692 6  24717491.06143  24717495.01643
      4418.308        3442.835  
 123664927.720    96362300.2834   23532654.740 6  23532653.55044  23532660.77244
       -51.167         -39.877  
 124390110.202    96747878.178    23245267.645 6  23245265.413 6  23245266.914 4
      4639.519        3608.513  
 109905489.676    85640663.4514   20914319.998 8  20914319.48546  20914323.14346
      5894.017        4592.731  
 107967397.507    83974662.599    20211723.790 8  20211723.654 8  20211727.986 7
      1238.055         962.928  
 115588015.239    90068604.2214   21995668.687 7  21995668.18946  21995671.70546
      1062.548         827.953  
 104619041.350    81370386.638    19591784.640 8  19591784.896 7  19591789.145 7
      4998.946        3888.063  
 123367786.850    95952751.146    23143483.577 6  23143482.462 6  23143491.306 5
      7347.609        5714.789  
 128052258.161    99780993.3434   24367534.050 6  24367534.02443  24367538.86243
      6948.073        5414.093  
 108045664.938    84191445.6584   20560407.039 8  20560406.06346  20560409.57846
      2771.354        2159.495  
 112308289.131    87350907.382    21046525.529 7  21046525.385 7  21046528.077 7
        35.361          27.503  
 111719994.295    87054561.2484   21259608.837 7  21259608.61546  21259611.76146
      2355.483        1835.434  
 11  5 30 11  1  5.0000000  0 15R 7G28R 8G19G10R17G26R16G 7R 9R10G15
                                G 8R 6G 5                           
 106044914.425    82479394.939    19810080.595 8  19810079.076 8  19810076.916 7
      4499.605        3499.696  
 115168601.385    89741789.8274   21915856.839 8  21915856.35545  21915859.27745
      5780.397        4504.204  
 120528604.993    93744489.804    22507867.662 7  22507866.589 7  22507867.026 6
      7550.067        5872.280  
 129869209.443   101196802.2024   24713287.829 6  24713287.35043  24713291.30843
      4417.377        3442.100  
 123665180.791    96362497.4614   23532702.920 6  23532701.81844  23532708.89344
       -50.176         -39.092  
 124366917.709    96729839.574    23240932.374 6  23240930.713 5  23240934.203 4
      4637.296        3606.762  
 109876019.469    85617699.6554   20908711.851 8  20908711.41246  20908715.16046
      5893.903        4592.654  
 107961207.494    83969848.143    20210565.226 8  20210565.109 8  20210569.184 7
      1237.817         962.738  
 115582700.785    90064463.0774   21994657.149 7  21994656.84646  21994660.39246
      1063.134         828.420  
 104594049.363    81350948.423    19587104.284 8  19587104.489 7  19587108.825 7
      4997.656        3887.061  
 123331047.755    95924176.309    23136592.364 6  23136590.487 6  23136599.021 5
      7348.127        5715.203  
 128017514.610    99753920.4544   24360922.178 6  24360922.92343  24360927.20343
      6949.598        5415.293  
 108031808.741    84180648.6204   20557770.208 8  20557769.31446  20557772.85346
      2771.100        2159.302  
 112308112.989    87350770.369    21046492.306 7  21046491.830 7  21046495.187 7
        34.618          26.926  
 111708219.851    87045386.3504   21257367.990 8  21257368.10746  21257371.21246
      2354.166        1834.413  
 11  5 30 11  1 10.0000000  0 15R 7G28R 8G19G10R17G26R16G 7R 9R10G15
                                G 8R 6G 5                           
 106022422.605    82461901.306    19805879.332 8  19805877.246 8  19805875.268 7
      4497.229        3497.845  
 115139700.255    89719269.4694   21910356.720 7  21910356.25745  21910359.44345
      5780.178        4504.033  
 120490855.189    93715128.856    22500818.163 7  22500817.021 7  22500817.327 6
      7550.073        5872.283  
 129847125.368   101179593.8314   24709085.715 6  24709084.72443  24709088.53243
      4416.297        3441.269  
 123665429.163    96362690.9894   23532750.060 6  23532749.17344  23532755.98944
       -49.160         -38.286  
 124343736.791    96711809.974    23236598.156 5  23236596.679 5  23236602.141 4
      4634.995        3604.985  
 109846550.462    85594736.7954   20903103.619 8  20903103.74246  20903107.32846
      5893.683        4592.478  
 107955019.182    83965035.010    20209406.276 8  20209406.726 8  20209410.715 7
      1237.626         962.581  
 115577383.820    90060319.9844   21993645.325 7  21993645.23846  21993648.50846
      1063.647         828.813  
 104569063.833    81331515.235    19582425.250 8  19582425.441 8  19582429.950 7
      4996.570        3886.215  
 123294305.197    95895598.777    23129699.828 6  23129698.439 6  23129706.500 5
      7348.623        5715.601  
 127982763.729    99726841.8514   24354309.032 6  24354310.05343  24354314.71543
      6950.833        5416.222  
 108017954.581    84169853.1684   20555133.474 8  20555132.83546  20555136.53346
      2770.589        2158.899  
 112307940.561    87350636.248    21046460.008 7  21046459.786 7  21046462.975 7
        34.110          26.526  
 111696452.042    87036216.6204   21255128.406 8  21255128.69546  21255131.80446
      2352.924        1833.463  
 11  5 30 11  1 15.0000000  0 15R 7G28R 8G19G10R17G26R16G 7R 9R10G15
                                G 8R 6G 5                           
 105999942.932    82444417.114    19801679.671 8  19801677.788 8  19801675.889 7
      4494.718        3495.884  
 115110801.804    89696751.1984   21904857.116 7  21904856.67645  21904859.90545
      5779.550        4503.553  
 120453104.980    93685767.589    22493768.936 7  22493767.530 7  22493767.984 6
      7550.077        5872.273  
 129825046.903   101162389.8334   24704885.422 6  24704883.59543  24704887.02943
      4415.244        3440.445  
 123665672.795    96362880.8154   23532796.220 6  23532795.50044  23532802.50544
       -48.358         -37.689  
 124320567.452    96693789.394    23232268.354 5  23232266.781 5  23232270.816 4
      4632.729        3603.237  
 109817082.669    85571774.8764   20897496.034 8  20897496.14846  20897499.86146
      5893.517        4592.351  
 107948832.462    83960223.113    20208248.442 8  20208248.741 8  20208252.717 7
      1237.252         962.304  
 115572064.331    90056174.9184   21992633.419 7  21992633.27346  21992636.21545
      1064.240         829.283  
 104544084.665    81312086.996    19577747.599 8  19577747.745 7  19577752.040 7
      4995.180        3885.138  
 123257559.108    95867018.493    23122804.858 6  23122804.674 6  23122813.210 5
      7349.598        5716.358  
 127948005.559    99699757.5704   24347695.613 6  24347695.55443  24347700.35243
      6952.310        5417.393  
 108004102.437    84159059.2894   20552497.442 8  20552496.75546  20552500.54646
      2770.169        2158.572  
 112307771.894    87350505.050    21046428.390 7  21046428.199 7  21046431.333 7
        33.336          25.927  
 111684690.894    87027052.0864   21252890.416 8  21252890.75846  21252893.76646
      2351.570        1832.385  
 11  5 30 11  1 20.0000000  0 15R 7G28R 8G19G10R17G26R16G 7R 9R10G15
                                G 8R 6G 5                           
 105977476.105    82426942.912    19797482.115 8  19797480.895 8  19797478.879 7
      4492.010        3493.786  
 115081906.156    89674235.1124   21899358.335 7  21899357.98445  21899360.97945
      5778.938        4503.068  
 120415354.719    93656406.283    22486718.334 7  22486717.823 6  22486718.267 6
      7550.006        5872.226  
 129802974.188   101145190.3234   24700684.809 6  24700683.58043  24700686.77843
      4414.096        3439.561  
 123665911.785    96363067.0224   23532842.845 6  23532841.15544  23532848.01244
       -47.158         -36.775  
 124297409.702    96675777.821    23227941.790 5  23227939.874 5  23227941.710 4
      4630.194        3601.263  
 109787616.172    85548813.9664   20891889.135 8  20891888.89846  20891892.56146
      5893.173        4592.082  
 107942647.421    83955412.521    20207090.476 8  20207090.691 8  20207094.947 7
      1236.889         962.026  
 115566742.449    90052027.9924   21991620.957 7  21991620.74146  21991623.41046
      1064.652         829.601  
 104519112.021    81292663.830    19573071.231 8  19573071.403 8  19573075.340 7
      4993.890        3884.136  
 123220809.798    95838435.710    23115910.677 6  23115910.330 6  23115918.813 5
      7350.242        5716.867  
 127913240.188    99672667.6764   24341080.280 6  24341079.75643  24341084.67143
      6953.768        5418.498  
 107990252.451    84148267.0874   20549861.679 8  20549861.06546  20549864.89046
      2769.805        2158.283  
 112307607.122    87350376.887    21046397.740 7  21046397.504 7  21046400.462 7
        32.601          25.350  
 111672936.512    87017892.8174   21250653.990 8  21250653.96946  21250656.90546
      2350.162        1831.298  
 11  5 30 11  1 25.0000000  0 15R 7G28R 8G19G10R17G26R16G 7R 9R10G15
                                G 8R 6G 5                           
 105955022.372    82409478.894    19793287.774 8  19793286.271 8  19793284.362 7
      4489.513        3491.848  
 115053013.483    89651721.3424   21893860.326 7  21893859.88845  21893862.62145
      5778.342        4502.605  
 120377604.374    93627044.910    22479669.082 7  22479668.124 6  22479668.788 6
      7549.999        5872.233  
 129780907.426   101127995.4544   24696485.514 7  24696484.51043  24696488.50543
      4412.920        3438.616  
 123666146.385    96363249.8134   23532887.396 6  23532886.14444  23532892.56044
       -46.466         -36.198  
 124274263.848    96657775.482    23223616.793 6  23223615.223 5  23223618.096 4
      4627.917        3599.525  
 109758151.221    85525854.2664   20886282.484 8  20886281.87946  20886285.50546
      5892.852        4591.841  
 107936464.225    83950603.361    20205932.737 8  20205932.938 8  20205937.304 7
      1236.542         961.764  
 115561418.319    90047879.3184   21990607.540 8  21990607.58046  21990610.29546
      1065.115         829.966  
 104494146.119    81273245.910    19568396.192 8  19568396.058 8  19568400.008 7
      4992.560        3883.108  
 123184057.406    95809850.529    23109015.730 6  23109014.988 6  23109024.286 5
      7350.798        5717.292  
 127878467.824    99645572.3374   24334463.538 6  24334462.82143  24334467.52743
      6955.243        5419.679  
 107976404.832    84137476.7304   20547226.462 8  20547225.90246  20547229.69546
      2769.259        2157.877  
 112307446.387    87350251.871    21046367.577 7  21046367.338 7  21046370.397 7
        31.839          24.769  
 111661189.056    87008738.9564   21248418.519 8  21248418.50946  21248421.51646
      2348.920        1830.333  
 11  5 30 11  1 30.0000000  0 15R 7G28R 8G19G10R17G26R16G 7R 9R10G15
                                G 8R 6G 5                           
 105932581.426    82392024.825    19789095.909 8  19789094.349 8  19789092.317 7
      4486.863        3489.777  
 115024124.188    89629210.2024   21888363.013 8  21888362.55245  21888365.34045
      5777.650        4502.072  
 120339854.352    93597683.787    22472619.043 7  22472618.317 7  22472619.182 6
      7550.022        5872.236  
 129758846.969   101110805.4884   24692287.987 7  24692286.83443  24692290.81143
      4411.475        3437.487  
 123666376.892    96363429.4184   23532931.861 7  23532930.26644  23532936.09944
       -45.566         -35.498  
 124251130.135    96639782.605    23219292.291 6  23219291.921 5  23219296.753 4
      4625.416        3597.534  
 109728688.148    85502896.0344   20880675.837 8  20880675.28546  20880678.89546
      5892.311        4591.414  
 107930283.278    83945795.958    20204775.478 8  20204775.855 8  20204780.119 7
      1235.981         961.314  
 115556092.307    90043729.1774   21989594.055 8  21989594.21646  21989596.74446
      1065.373         830.159  
 104469187.271    81253833.474    19563722.105 8  19563722.243 8  19563726.205 8
      4991.051        3881.929  
 123147302.289    95781263.223    23102120.008 6  23102119.859 6  23102129.149 5
      7351.353        5717.713  
 127843688.894    99618471.8794   24327845.858 6  24327844.62143  24327849.46843
      6956.303        5420.454  
 107962559.918    84126688.4834   20544591.907 7  20544591.38846  20544595.00346
      2768.661        2157.399  
 112307290.101    87350130.306    21046338.246 7  21046338.141 7  21046341.300 7
        30.888          24.024  
 111649448.907    86999590.7854   21246184.134 7  21246184.44346  21246187.44446
      2347.216        1828.997  
 11  5 30 11  1 35.0000000  0 15R 7G28R 8G19G10R17G26R16G 7R 9R10G15
                                G 8R 6G 5                           
 105910153.708    82374581.043    19784905.953 8  19784904.505 8  19784902.507 7
      4484.214        3487.727  
 114995238.378    89606701.7744   21882866.533 8  21882865.93645  21882868.69145
      5776.968        4501.538  
 120302104.769    93568323.005    22465568.515 7  22465568.853 6  22465569.716 6
      7549.930        5872.167  
 129736792.959   101093620.5524   24688090.847 6  24688089.72243  24688093.96743
      4410.124        3436.448  
 123666603.434    96363605.9374   23532975.114 7  23532973.76344  23532979.26044
       -44.816         -34.895  
 124228008.783    96621799.342    23214971.323 6  23214971.537 5  23214976.150 4
      4623.012        3595.660  
 109699227.134    85479939.4024   20875069.280 8  20875068.91946  20875072.61046
      5891.982        4591.151  
 107924104.764    83940990.442    20203619.492 8  20203619.495 8  20203623.194 7
      1235.599         961.011  
 115550764.569    90039577.6904   21988580.183 7  21988580.47446  21988582.91446
      1065.656         830.384  
 104444235.604    81234426.622    19559049.379 8  19559049.683 8  19559053.593 7
      4989.547        3880.756  
 123110544.529    95752673.873    23095225.051 6  23095224.662 6  23095233.156 5
      7351.897        5718.146  
 127808903.435    99591366.3404   24321226.426 6  24321225.16243  24321230.37343
      6957.606        5421.514  
 107948717.870    84115902.4694   20541957.906 8  20541957.40646  20541960.98346
      2768.042        2156.911  
 112307138.208    87350012.153    21046309.173 7  21046308.902 7  21046313.083 7
        29.834          23.211  
 111637716.164    86990448.3794   21243951.130 8  21243951.80546  21243954.75646
      2345.732        1827.854  
 11  5 30 11  1 40.0000000  0 15R 7G28R 8G19G10R17G26R16G 7R 9R10G15
                                G 8R 6G 5                           
 105887739.577    82357147.833    19780718.812 8  19780717.437 8  19780715.184 7
      4481.491        3485.603  
 114966356.193    89584196.1764   21877370.520 7  21877369.93545  21877372.70045
      5775.993        4500.771  
 120264355.931    93538962.802    22458518.471 7  22458519.569 6  22458520.450 6
      7549.538        5871.867  
 129714745.535   101076440.7434   24683894.502 6  24683893.75143  24683898.26243
      4408.797        3435.428  
 123666826.090    96363779.4394   23533016.714 7  23533015.72844  23533021.82044
       -44.020         -34.301  
 124204900.001    96603825.855    23210654.842 6  23210652.977 5  23210656.790 4
      4620.417        3593.624  
 109669768.291    85456984.4644   20869463.540 8  20869463.14946  20869466.86946
      5891.492        4590.762  
 107917928.683    83936186.822    20202463.363 8  20202463.335 8  20202467.015 7
      1234.911         960.484  
 115545435.207    90035424.9394   21987565.795 8  21987566.02946  21987568.83446
      1065.942         830.606  
 104419291.293    81215025.495    19554378.209 8  19554378.419 8  19554382.410 7
      4988.090        3879.619  
 123073784.388    95724082.664    23088328.114 6  23088328.301 6  23088337.265 5
      7352.256        5718.423  
 127774111.630    99564255.8564   24314605.896 6  24314605.00443  24314609.05943
      6958.987        5422.572  
 107934878.744    84105118.7304   20539324.671 8  20539324.00346  20539327.46846
      2767.568        2156.552  
 112306991.011    87349897.643    21046282.192 7  21046281.653 7  21046285.593 7
        28.989          22.550  
 111625990.967    86981311.8544   21241720.176 7  21241720.53046  21241723.46346
      2344.234        1826.670  
 11  5 30 11  1 45.0000000  0 15R 7G28R 8G19G10R17G26R16G 7R 9R10G15
                                G 8R 6G 5                           
 105865338.744    82339724.960    19776533.874 8  19776532.803 8  19776530.748 7
      4478.628        3483.373  
 114937477.825    89561693.5514   21871875.161 7  21871874.73645  21871877.59245
      5775.177        4500.143  
 120226607.892    93509603.219    22451470.213 6  22451470.295 6  22451471.127 6
      7549.370        5871.720  
 129692704.879   101059266.2084   24679700.504 6  24679699.39143  24679704.23943
      4407.436        3434.365  
 123667045.075    96363950.0644   23533058.620 6  23533057.19444  23533063.65544
       -43.475         -33.885  
 124181803.802    96585862.137    23206337.598 5  23206336.753 5  23206339.538 4
      4618.147        3591.894  
 109640311.778    85434031.3384   20863857.569 8  20863857.75446  20863861.51046
      5891.185        4590.536  
 107911755.274    83931385.281    20201307.544 8  20201307.729 8  20201311.313 7
      1234.482         960.150  
 115540104.350    90031271.0194   21986551.370 7  21986551.67846  21986554.54846
      1066.217         830.812  
 104394354.477    81195630.199    19549708.610 8  19549708.567 8  19549712.494 7
      4986.529        3878.413  
 123037021.915    95695489.641    23081431.004 6  23081431.564 6  23081440.643 5
      7352.961        5718.959  
 127739313.602    99537140.5184   24307983.726 6  24307982.89943  24307987.40643
      6960.331        5423.633  
 107921042.720    84094337.4144   20536691.821 8  20536691.12146  20536694.66846
      2766.809        2155.955  
 112306848.559    87349786.836    21046255.123 7  21046255.192 7  21046258.697 7
        28.022          21.797  
 111614273.460    86972181.3264   21239490.685 8  21239490.81346  21239493.84346
      2342.694        1825.479  
 11  5 30 11  1 50.0000000  0 15R 7G28R 8G19G10R17G26R16G 7R 9R10G15
                                G 8R 6G 5                           
 105842952.081    82322313.111    19772351.955 8  19772350.770 8  19772348.844 7
      4476.066        3481.388  
 114908603.532    89539194.1054   21866381.027 7  21866380.33945  21866383.37446
      5774.424        4499.556  
 120188860.980    93480244.519    22444422.420 7  22444421.318 6  22444422.094 6
      7549.287        5871.668  
 129670671.219   101042097.1274   24675506.944 6  24675506.57443  24675510.73243
      4405.993        3433.240  
 123667260.599    96364117.9944   23533099.489 6  23533098.21444  23533104.62744
       -42.529         -33.128  
 124158720.543    96567908.494    23202025.142 6  23202023.748 5  23202026.007 4
      4615.361        3589.749  
 109610857.911    85411080.2734   20858252.993 7  20858252.90446  20858256.48746
      5890.634        4590.108  
 107905584.711    83926585.956    20200152.026 8  20200152.438 8  20200156.240 7
      1233.962         959.748  
 115534772.262    90027116.1394   21985536.781 7  21985536.94346  21985539.78946
      1066.641         831.158  
 104369425.424    81176240.934    19545040.190 8  19545040.242 7  19545044.440 7
      4985.174        3877.367  
 123000257.418    95666895.054    23074535.653 6  23074534.802 6  23074543.706 5
      7353.020        5719.034  
 127704509.663    99510020.5814   24301360.192 6  24301359.83843  24301364.22443
      6961.484        5424.526  
 107907210.000    84083558.6694   20534059.531 8  20534058.78046  20534062.52046
      2766.236        2155.515  
 112306711.267    87349680.038    21046229.973 7  21046229.900 7  21046233.032 7
        27.071          21.053  
 111602563.892    86963056.9834   21237262.656 8  21237262.56346  21237265.50446
      2341.198        1824.317  
 11  5 30 11  1 55.0000000  0 15R 7G28R 8G19G10R17G26R16G 7R 9R10G15
                                G 8R 6G 5                           
 105820579.205    82304911.986    19768172.300 8  19768171.177 8  19768169.347 7
      4473.208        3479.164  
 114879733.157    89516697.7144   21860887.224 7  21860886.50445  21860889.46846
      5773.754        4499.033  
 120151115.092    93450886.610    22437372.928 6  22437372.649 6  22437373.283 6
      7549.113        5871.535  
 129648644.440   101024933.4044   24671316.138 7  24671315.26843  24671318.81443
      4404.644        3432.178  
 123667472.534    96364283.1094   23533139.593 6  23533138.36744  23533144.84344
       -42.216         -32.895  
 124135650.067    96549964.780    23197714.324 6  23197712.734 5  23197715.488 4
      4612.891        3587.793  
 109581406.445    85388131.0774   20852648.874 8  20852648.48546  20852652.19446
      5890.022        4589.622  
 107899416.845    83921788.724    20198997.601 8  20198997.856 8  20199001.798 7
      1233.299         959.222  
 115529438.780    90022960.1764   21984521.917 7  21984521.83846  21984524.89646
      1066.885         831.340  
 104344503.977    81156857.584    19540373.091 8  19540373.103 8  19540377.309 7
      4983.463        3876.022  
 122963490.766    95638298.776    23067637.388 6  23067637.457 6  23067646.447 5
      7353.702        5719.550  
 127669699.606    99482895.8644   24294735.192 6  24294735.89043  24294740.17143
      6962.587        5425.403  
 107893380.483    84072782.4204   20531427.617 8  20531426.95946  20531430.91746
      2765.698        2155.090  
 112306578.746    87349576.967    21046204.328 7  21046204.518 7  21046207.841 7
        25.997          20.222  
 111590862.136    86953938.7284   21235035.729 8  21235035.79346  21235038.78546
      2339.619        1823.089  
 11  5 30 11  2  0.0000000  0 15R 7G28R 8G19G10R17G26R16G 7R 9R10G15
                                G 8R 6G 5                           
 105798220.201    82287521.647    19763995.633 8  19763994.303 8  19763992.596 7
      4470.364        3476.958  
 114850866.788    89494204.4444   21855393.693 7  21855393.31545  21855396.53345
      5772.811        4498.296  
 120113370.261    93421529.525    22430325.255 6  22430323.924 6  22430324.728 6
      7548.778        5871.273  
 129626624.576   101007775.0624   24667127.079 7  24667125.70143  24667128.53543
      4403.198        3431.071  
 123667680.931    96364445.4854   23533178.719 6  23533177.75044  23533184.66244
       -41.382         -32.255  
 124112592.547    96532031.149    23193402.950 6  23193403.117 5  23193407.020 4
      4610.315        3585.789  
 109551957.554    85365183.8904   20847045.460 8  20847044.54946  20847048.20946
      5889.516        4589.224  
 107893251.697    83916993.601    20197843.461 8  20197843.497 8  20197847.733 7
      1232.665         958.730  
 115524103.999    90018803.1924   21983506.825 7  21983506.78246  21983509.84646
      1067.059         831.478  
 104319590.253    81137480.248    19535707.388 8  19535707.620 8  19535711.755 7
      4982.010        3874.890  
 122926722.029    95609700.889    23060740.363 6  23060740.036 6  23060748.502 5
      7353.987        5719.752  
 127634883.584    99455766.5104   24288109.559 6  24288110.59543  24288114.96843
      6963.807        5426.355  
 107879554.267    84062008.7424   20528796.590 8  20528796.00146  20528799.87846
      2764.795        2154.383  
 112306451.070    87349477.657    21046180.399 7  21046180.268 7  21046184.305 7
        25.138          19.554  
 111579168.228    86944826.5844   21232810.870 8  21232810.53746  21232813.53646
      2337.955        1821.782  
 11  5 30 11  2  5.0000000  0 15R 7G28R 8G19G10R17G26R16G 7R 9R10G15
                                G 8R 6G 5                           
 105775875.341    82270142.309    19759821.427 8  19759820.041 8  19759818.445 7
      4467.554        3474.770  
 114822004.682    89471714.4984   21849901.783 8  21849900.94545  21849904.33745
      5772.117        4497.743  
 120075626.766    93392173.485    22423275.772 6  22423275.541 6  22423276.448 6
      7548.881        5871.342  
 129604611.881   100990622.3114   24662938.066 7  24662936.93943  24662939.44643
      4401.766        3429.933  
 123667886.038    96364605.2844   23533217.988 6  23533216.90844  23533223.65944
       -40.721         -31.732  
 124089548.153    96514107.760    23189095.160 5  23189095.421 5  23189100.403 4
      4607.601        3583.708  
 109522511.465    85342238.8904   20841442.182 8  20841441.19946  20841444.70446
      5888.980        4588.821  
 107887089.610    83912200.864    20196690.417 8  20196690.238 8  20196694.183 7
      1232.167         958.350  
 115518768.137    90014645.3744   21982491.465 7  21982491.44946  21982494.59946
      1067.498         831.820  
 104294684.442    81118109.066    19531043.327 8  19531043.331 8  19531047.612 7
      4980.454        3873.684  
 122889951.597    95581101.684    23053842.899 6  23053841.815 6  23053850.918 5
      7354.165        5719.893  
 127600061.833    99428632.6824   24281482.895 6  24281484.01843  24281488.55343
      6965.056        5427.291  
 107865731.561    84051237.8004   20526166.482 8  20526165.75546  20526169.41646
      2764.210        2153.926  
 112306328.561    87349382.369    21046158.208 7  21046157.391 7  21046161.366 7
        24.151          18.790  
 111567482.446    86935720.7764   21230586.959 8  21230586.92446  21230589.84446
      2336.336        1820.538  
 11  5 30 11  2 10.0000000  0 15R 7G28R 8G19G10R17G26R16G 7R 9R10G15
                                G 8R 6G 5                           
 105753544.193    82252773.640    19755649.999 8  19755648.532 8  19755646.735 7
      4464.871        3472.684  
 114793146.736    89449227.7924   21844409.905 7  21844409.29745  21844413.07845
      5771.271        4497.097  
 120037884.685    93362818.534    22416229.208 7  22416227.702 6  22416228.348 6
      7548.375        5870.959  
 129582606.292   100973475.0984   24658749.903 6  24658749.31043  24658752.02643
      4400.333        3428.811  
 123668087.757    96364762.4494   23533256.694 6  23533255.38444  23533262.04544
       -40.252         -31.363  
 124066516.797    96496194.493    23184791.731 6  23184792.025 5  23184796.338 4
      4604.795        3581.514  
 109493068.127    85319296.0334   20835838.703 8  20835838.32446  20835841.90946
      5888.389        4588.347  
 107880930.425    83907410.382    20195537.138 8  20195537.209 8  20195541.163 7
      1231.519         957.850  
 115513431.107    90010486.6404   21981475.952 7  21981475.76646  21981478.81746
      1067.542         831.852  
 104269786.465    81098743.976    19526381.062 8  19526380.707 8  19526385.109 7
      4978.937        3872.505  
 122853179.100    95552500.870    23046943.207 6  23046943.182 6  23046952.160 5
      7354.580        5720.240  
 127565234.232    99401494.3054   24274855.557 6  24274856.35743  24274861.29943
      6965.992        5428.024  
 107851912.249    84040469.5054   20523536.736 8  20523536.10846  20523539.66446
      2763.488        2153.367  
 112306211.194    87349291.080    21046135.532 7  21046134.858 7  21046139.306 7
        23.033          17.923  
 111555804.686    86926621.2174   21228365.002 8  21228364.68546  21228367.65046
      2334.706        1819.242  
 11  5 30 11  2 15.0000000  0 15R 7G28R 8G19G10R17G26R16G 7R 9R10G15
                                G 8R 6G 5                           
 105731227.032    82235415.847    19751481.121 8  19751479.453 8  19751477.530 7
      4461.979        3470.425  
 114764292.974    89426744.3494   21838919.184 8  21838918.64945  21838922.26845
      5770.293        4496.326  
 120000143.641    93333464.395    22409181.438 7  22409179.530 6  22409180.423 6
      7548.112        5870.749  
 129560607.802   100956333.4174   24654563.595 6  24654562.51643  24654566.16143
      4398.993        3427.793  
 123668285.958    96364916.8814   23533294.680 6  23533293.01944  23533299.49944
       -39.087         -30.449  
 124043498.610    96478291.461    23180493.599 6  23180491.441 5  23180494.737 4
      4602.209        3579.471  
 109463627.468    85296355.2654   20830235.911 8  20830235.92346  20830239.55846
      5887.838        4587.931  
 107874774.149    83902622.168    20194384.749 8  20194384.637 8  20194388.676 7
      1230.965         957.436  
 115508092.844    90006326.9494   21980459.808 7  21980459.87746  21980463.13046
      1067.769         832.031  
 104244896.362    81079385.006    19521719.821 8  19521719.520 8  19521724.078 7
      4977.193        3871.156  
 122816404.676    95523898.554    23040044.778 6  23040044.331 6  23040053.334 5
      7355.000        5720.547  
 127530400.785    99374351.3604   24268227.084 6  24268227.88143  24268232.80643
      6967.147        5428.949  
 107838096.331    84029703.8534   20520907.575 8  20520907.03046  20520910.52346
      2762.816        2152.846  
 112306098.818    87349203.657    21046114.141 7  21046113.810 7  21046118.589 7
        22.122          17.216  
 111544134.908    86917527.8784   21226144.096 8  21226144.05546  21226146.93246
      2333.240        1818.120  
 11  5 30 11  2 20.0000000  0 15R 7G28R 8G19G10R17G26R16G 7R 9R10G15
                                G 8R 6G 5                           
 105708924.629    82218069.532    19747314.159 8  19747313.307 8  19747311.307 7
      4459.118        3468.205  
 114735443.824    89404264.4984   21833429.483 8  21833428.89545  21833432.21245
      5769.273        4495.533  
 119962404.483    93304111.737    22402133.990 7  22402132.406 6  22402133.112 7
      7547.654        5870.398  
 129538616.830   100939197.5884   24650378.906 7  24650377.73043  24650381.52443
      4397.640        3426.742  
 123668481.201    96365069.0024   23533331.736 6  23533330.39544  23533337.09944
       -38.709         -30.150  
 124020493.962    96460398.949    23176193.213 5  23176191.996 5  23176195.930 4
      4600.020        3577.814  
 109434189.934    85273416.9304   20824633.975 8  20824634.10046  20824637.79346
      5887.268        4587.491  
 107868621.206    83897836.540    20193232.397 8  20193232.583 8  20193236.734 7
      1230.230         956.852  
 115502753.812    90002166.6544   21979444.013 7  21979444.01446  21979447.11946
      1068.002         832.223  
 104220014.482    81060032.431    19517060.029 8  19517059.990 8  19517064.485 7
      4975.631        3869.938  
 122779628.900    95495295.187    23033145.714 6  23033145.387 6  23033154.474 5
      7355.231        5720.730  
 127495561.954    99347204.2224   24261598.146 6  24261598.43843  24261602.83443
      6968.389        5429.903  
 107824284.215    84018941.1644   20518278.929 8  20518278.63346  20518282.13846
      2762.127        2152.312  
 112305991.849    87349120.443    21046093.578 7  21046093.401 7  21046098.505 7
        20.986          16.333  
 111532473.571    86908441.1214   21223925.348 8  21223925.04946  21223927.94746
      2331.504        1816.764  
 11  5 30 11  2 25.0000000  0 15R 7G28R 8G19G10R17G26R16G 7R 9R10G15
                                G 8R 6G 5                           
 105686635.895    82200733.847    19743151.135 8  19743149.522 8  19743147.472 7
      4456.353        3466.055  
 114706598.776    89381787.8344   21827940.749 8  21827939.94945  21827943.08145
      5768.776        4495.166  
 119924666.658    93274760.100    22395086.674 7  22395085.053 6  22395085.678 6
      7547.566        5870.341  
 129516632.941   100922067.2804   24646195.766 7  24646194.92443  24646198.53643
      4395.957        3425.410  
 123668672.838    96365218.3134   23533368.140 6  23533367.03644  23533373.44144
       -38.084         -29.651  
 123997502.206    96442516.482    23171896.054 5  23171895.434 5  23171899.889 4
      4596.980        3575.448  
 109404755.157    85250480.7404   20819032.944 8  20819032.86446  20819036.55946
      5886.693        4587.035  
 107862471.008    83893053.049    20192080.970 8  20192081.007 8  20192085.296 7
      1229.735         956.475  
 115497413.499    89998005.3674   21978427.934 8  21978427.81846  21978430.93146
      1068.243         832.406  
 104195140.316    81040685.861    19512402.105 8  19512401.970 8  19512406.495 7
      4974.001        3868.669  
 122742850.986    95466690.164    23026245.455 6  23026246.031 6  23026254.922 5
      7355.686        5721.091  
 127460717.270    99320052.5264   24254967.431 6  24254967.72143  24254972.04843
      6969.611        5430.868  
 107810475.438    84008181.0744   20515651.282 8  20515650.86046  20515654.45446
      2761.336        2151.696  
 112305889.860    87349041.098    21046074.773 7  21046074.764 7  21046079.196 7
        19.938          15.511  
 111520820.154    86899360.5334   21221707.962 8  21221707.37246  21221710.33646
      2329.902        1815.511  
 11  5 30 11  2 30.0000000  0 15R 7G28R 8G19G10R17G26R16G 7R 9R10G15
                                G 8R 6G 5                           
 105664361.432    82183409.268    19738989.876 8  19738988.440 8  19738986.413 7
      4453.480        3463.811  
 114677758.266    89359314.7124   21822452.508 8  21822451.72545  21822454.78845
      5767.656        4494.277  
 119886930.581    93245409.826    22388039.579 7  22388037.893 6  22388038.653 7
      7547.184        5870.019  
 129494656.509   100904942.7984   24642014.096 6  24642012.84943  24642016.49943
      4394.389        3424.215  
 123668861.356    96365365.1964   23533404.224 6  23533402.88544  23533409.31244
       -37.296         -29.042  
 123974523.704    96424644.317    23167603.697 6  23167602.097 5  23167606.039 4
      4594.680        3573.655  
 109375323.381    85227546.8894   20813432.214 8  20813432.21846  20813435.77946
      5886.097        4586.571  
 107856323.869    83888271.936    20190930.197 8  20190930.292 8  20190934.607 7
      1229.080         955.954  
 115492072.281    89993843.3724   21977411.418 7  21977411.38146  21977414.43746
      1068.357         832.500  
 104170274.326    81021345.649    19507744.754 8  19507745.249 7  19507749.831 7
      4972.333        3867.369  
 122706071.585    95438083.978    23019346.623 6  23019346.530 6  23019355.297 5
      7356.012        5721.342  
 127425867.083    99292896.5524   24248335.340 6  24248336.08943  24248340.38043
      6970.456        5431.531  
 107796670.358    83997423.8654   20513024.165 8  20513023.71046  20513027.44946
      2760.612        2151.130  
 112305793.247    87348965.943    21046057.549 7  21046057.093 7  21046060.685 7
        18.871          14.675  
 111509175.028    86890286.4074   21219491.591 8  21219491.44446  21219494.34946
      2328.219        1814.204  
 11  5 30 11  2 35.0000000  0 15R 7G28R 8G19G10R17G26R16G 7R 9R10G15
                                G 8R 6G 5                           
 105642101.564    82166096.038    19734831.107 8  19734830.121 8  19734828.174 7
      4450.506        3461.506  
 114648922.540    89336845.3174   21816964.813 8  21816964.37745  21816967.12945
      5766.626        4493.467  
 119849196.277    93216060.936    22380992.739 7  22380991.491 6  22380992.225 7
      7546.572        5869.546  
 129472687.792   100887824.3174   24637833.682 6  24637832.50143  24637836.31643
      4392.906        3423.059  
 123669046.943    96365509.7984   23533439.258 6  23533437.99544  23533444.81244
       -36.785         -28.663  
 123951558.814    96406782.726    23163313.398 6  23163311.102 5  23163314.262 4
      4591.736        3571.323  
 109345894.971    85204615.6594   20807832.002 8  20807832.14746  20807835.78046
      5885.330        4585.962  
 107850180.229    83883493.545    20189780.155 8  20189780.247 8  20189784.549 7
      1228.490         955.492  
 115486730.397    89989680.8614   21976395.159 7  21976394.85846  21976397.88846
      1068.365         832.488  
 104145416.727    81002011.962    19503090.295 8  19503090.201 7  19503094.699 8
      4970.615        3866.033  
 122669290.911    95409476.800    23012446.913 6  23012446.477 6  23012455.156 5
      7356.451        5721.687  
 127391011.687    99265736.5104   24241702.934 6  24241703.22543  24241707.91743
      6971.653        5432.467  
 107782869.234    83986669.7394   20510398.053 8  20510397.44746  20510401.13946
      2759.891        2150.561  
 112305702.106    87348895.047    21046040.831 7  21046040.309 7  21046043.472 7
        17.722          13.784  
 111497538.457    86881218.9424   21217276.947 8  21217277.03746  21217280.00946
      2326.455        1812.826  
 11  5 30 11  2 40.0000000  0 15R 7G28R 8G19G10R17G26R16G 7R 9R10G15
                                G 8R 6G 5                           
 105619856.418    82148794.254    19730675.512 8  19730674.481 8  19730672.659 7
      4447.572        3459.221  
 114620091.427    89314379.5204   21811478.669 8  21811477.92645  21811480.93345
      5765.791        4492.823  
 119811463.853    93186713.503    22373946.247 7  22373945.037 6  22373946.049 7
      7546.218        5869.284  
 129450726.659   100870711.7534   24633653.545 6  24633653.22043  24633657.16643
      4391.418        3421.863  
 123669229.523    96365652.0654   23533474.325 6  23533472.78844  23533479.50544
       -36.376         -28.348  
 123928607.567    96388931.767    23159021.063 6  23159020.307 5  23159024.868 4
      4588.946        3569.178  
 109316469.755    85181686.9224   20802232.976 8  20802232.77546  20802236.34546
      5884.694        4585.476  
 107844039.836    83878717.680    20188630.909 8  20188630.977 8  20188635.113 7
      1227.628         954.822  
 115481387.719    89985517.7294   21975378.544 8  21975378.25846  21975381.13346
      1068.502         832.603  
 104120567.456    80982684.751    19498436.571 8  19498436.708 7  19498441.184 8
      4969.012        3864.788  
 122632508.807    95380868.505    23005546.283 6  23005546.459 6  23005555.026 5
      7356.466        5721.689  
 127356150.892    99238572.2584   24235069.658 6  24235069.14743  24235073.79243
      6972.513        5433.144  
 107769071.953    83975918.6094   20507772.523 8  20507772.00846  20507775.65646
      2759.044        2149.906  
 112305616.456    87348828.419    21046023.836 7  21046023.845 7  21046027.625 7
        16.543          12.870  
 111485910.256    86872158.0024   21215064.215 8  21215064.27046  21215067.22746
      2324.673        1811.427  
 11  5 30 11  2 45.0000000  0 15R 7G28R 8G19G10R17G26R16G 7R 9R10G15
                                G 8R 6G 5                           
 105597626.085    82131503.994    19726523.145 8  19726521.772 8  19726519.893 7
      4444.594        3456.914  
 114591265.336    89291917.6314   21805993.228 8  21805992.56445  21805995.50345
      5764.642        4491.917  
 119773733.363    93157367.573    22366900.565 7  22366899.240 6  22366900.078 6
      7546.029        5869.135  
 129428773.400   100853605.3184   24629476.623 6  24629475.44743  24629479.64543
      4389.820        3420.651  
 123669409.303    96365792.1474   23533507.959 6  23533506.92244  23533513.78044
       -35.874         -27.948  
 123905670.287    96371091.682    23154734.886 5  23154733.588 5  23154738.356 4
      4586.082        3566.955  
 109287048.049    85158760.9214   20796633.990 8  20796633.97746  20796637.55346
      5883.946        4584.893  
 107837903.035    83873944.608    20187482.201 8  20187482.247 8  20187486.323 7
      1226.937         954.284  
 115476044.564    89981354.2314   21974361.527 8  21974361.43646  21974364.23446
      1068.591         832.658  
 104095726.845    80963364.274    19493784.967 8  19493784.881 7  19493789.261 7
      4967.199        3863.374  
 122595725.653    95352259.406    22998646.201 6  22998645.941 6  22998654.417 5
      7356.604        5721.801  
 127321285.039    99211404.0744   24228435.400 6  24228434.35943  24228438.89143
      6973.746        5434.079  
 107755278.776    83965170.6784   20505147.890 8  20505147.21546  20505150.94346
      2758.326        2149.347  
 112305536.420    87348766.161    21046009.714 7  21046009.254 7  21046012.653 7
        15.373          11.951  
 111474290.789    86863103.8664   21212852.927 8  21212853.17146  21212856.15246
      2323.003        1810.135  
 11  5 30 11  2 50.0000000  0 15R 7G28R 8G19G10R17G26R16G 7R 9R10G15
                                G 8R 6G 5                           
 105575410.128    82114224.919    19722373.515 8  19722371.657 8  19722369.669 7
      4441.649        3454.601  
 114562444.123    89269459.5444   21800508.831 8  21800508.21145  21800510.96045
      5763.897        4491.348  
 119736005.119    93128023.389    22359854.042 6  22359853.514 6  22359854.581 7
      7545.491        5868.704  
 129406827.908   100836504.9394   24625300.412 6  24625299.36143  24625303.16343
      4388.300        3419.447  
 123669586.210    96365929.9844   23533541.550 6  23533540.51444  23533547.39944
       -35.096         -27.357  
 123882746.769    96353262.283    23150452.786 6  23150450.917 5  23150454.322 4
      4583.080        3564.598  
 109257629.853    85135837.6564   20791036.073 8  20791035.94046  20791039.40346
      5883.338        4584.412  
 107831769.691    83869174.227    20186334.042 8  20186334.198 8  20186338.041 7
      1226.437         953.899  
 115470700.815    89977190.2674   21973344.756 8  21973344.61946  21973347.19846
      1068.847         832.857  
 104070894.616    80944050.324    19489134.407 8  19489134.539 7  19489139.058 7
      4965.632        3862.154  
 122558941.258    95323649.331    22991746.357 6  22991745.161 6  22991753.855 5
      7357.158        5722.232  
 127286414.068    99184231.8934   24221799.575 6  24221798.77843  24221803.53543
      6974.776        5434.892  
 107741489.667    83954425.9134   20502523.814 8  20502523.22046  20502527.07446
      2757.389        2148.609  
 112305462.052    87348708.314    21045995.574 7  21045995.670 7  21045999.014 7
        14.310          11.121  
 111462679.916    86854056.4284   21210643.380 8  21210643.72146  21210646.70246
      2321.325        1808.829  
 11  5 30 11  2 55.0000000  0 15R 7G28R 8G19G10R17G26R16G 7R 9R10G15
                                G 8R 6G 5                           
 105553208.847    82096957.259    19718225.902 8  19718224.292 8  19718222.127 7
      4438.734        3452.355  
 114533627.502    89247005.0364   21795025.434 8  21795024.64945  21795027.48445
      5762.944        4490.609  
 119698278.686    93098680.619    22352809.123 6  22352808.529 6  22352809.513 7
      7545.024        5868.341  
 129384889.908   100819410.3994   24621125.894 6  24621124.37043  24621128.62143
      4386.898        3418.370  
 123669759.990    96366065.3824   23533575.352 6  23533573.95344  23533580.44344
       -34.495         -26.887  
 123859836.731    96335443.364    23146171.461 6  23146170.377 5  23146172.714 4
      4580.584        3562.683  
 109228214.734    85112916.7824   20785438.495 8  20785438.39446  20785441.93546
      5882.677        4583.908  
 107825639.511    83864406.309    20185186.643 8  20185186.878 8  20185190.381 7
      1225.681         953.302  
 115465356.184    89973025.6154   21972327.667 7  21972327.45146  21972330.21346
      1068.995         832.990  
 104046070.770    80924742.890    19484485.715 8  19484485.860 8  19484490.395 7
      4963.840        3860.756  
 122522155.338    95295038.082    22984843.567 6  22984844.241 6  22984853.260 5
      7357.414        5722.429  
 127251537.680    99157055.5134   24215162.861 6  24215162.10743  24215166.51643
      6975.933        5435.787  
 107727704.221    83943684.0034   20499900.474 8  20499899.99546  20499903.76046
      2756.688        2148.067  
 112305392.844    87348654.473    21045982.885 7  21045982.319 7  21045986.254 7
        13.407          10.425  
 111451077.362    86845015.4734   21208435.806 8  21208435.76846  21208438.80946
      2319.681        1807.538  
 11  5 30 11  3  0.0000000  0 15R 7G28R 8G19G10R17G26R16G 7R 9R10G15
                                G 8R 6G 5                           
 105531022.196    82079700.971    19714080.879 8  19714079.664 8  19714077.753 7
      4435.940        3450.184  
 114504815.746    89224554.3194   21789542.421 8  21789541.78045  21789544.68945
      5761.926        4489.828  
 119660554.455    93069339.564    22345764.818 7  22345763.905 6  22345764.770 7
      7544.769        5868.163  
 129362959.739   100802321.9574   24616952.470 6  24616951.53743  24616955.35243
      4385.366        3417.183  
 123669930.825    96366198.4764   23533607.084 6  23533606.07644  23533613.27844
       -33.565         -26.142  
 123836940.640    96317635.285    23141893.438 6  23141892.043 5  23141894.353 4
      4577.951        3560.628  
 109198803.003    85089998.5514   20779841.773 8  20779841.56146  20779845.01846
      5881.940        4583.337  
 107819512.790    83859641.077    20184039.669 8  20184039.714 8  20184043.358 7
      1225.128         952.880  
 115460010.879    89968860.4384   21971310.534 8  21971310.22645  21971313.06045
      1069.169         833.120  
 104021255.289    80905441.964    19479838.480 8  19479838.695 8  19479843.249 7
      4962.373        3859.629  
 122485368.315    95266425.967    22977943.564 6  22977942.798 6  22977952.051 5
      7357.539        5722.524  
 127216656.199    99129875.1454   24208524.029 6  24208524.56143  24208528.89543
      6976.905        5436.570  
 107713922.793    83932945.2244   20497278.304 8  20497277.43546  20497281.26146
      2756.018        2147.547  
 112305329.170    87348604.944    21045970.624 7  21045970.328 7  21045974.003 7
        12.297           9.571  
 111439483.406    86835981.2154   21206229.688 8  21206229.58146  21206232.57646
      2317.963        1806.204  
 11  5 30 11  3  5.0000000  0 15R 7G28R 8G19G10R17G26R16G 7R 9R10G15
                                G 8R 6G 5                           
 105508850.037    82062455.956    19709939.414 8  19709937.710 8  19709935.762 7
      4432.863        3447.780  
 114476008.837    89202107.3774   21784060.808 8  21784060.15945  21784062.90045
      5760.849        4488.982  
 119622832.139    93039999.998    22338721.354 7  22338719.606 6  22338720.419 7
      7544.240        5867.743  
 129341037.320   100785239.5574   24612781.188 6  24612779.76843  24612783.15243
      4383.581        3415.786  
 123670098.769    96366329.3264   23533639.068 6  23533637.77444  23533645.51744
       -33.479         -26.091  
 123814058.299    96299837.907    23137615.814 6  23137615.949 5  23137618.465 4
      4574.906        3558.240  
 109169394.719    85067083.0094   20774245.446 8  20774245.35446  20774248.78246
      5881.213        4582.757  
 107813389.413    83854878.450    20182893.573 8  20182893.536 8  20182897.362 7
      1224.307         952.228  
 115454664.921    89964694.7504   21970293.247 8  21970293.04846  21970295.63545
      1069.176         833.125  
 103996448.251    80886147.602    19475192.977 8  19475193.092 8  19475197.771 7
      4960.511        3858.178  
 122448579.920    95237812.789    22971042.043 6  22971041.605 6  22971050.472 5
      7357.862        5722.768  
 127181769.521    99102690.7224   24201885.081 6  24201885.71843  24201890.02843
      6978.115        5437.499  
 107700145.305    83922209.5184   20494656.539 8  20494655.75646  20494659.47046
      2755.095        2146.832  
 112305270.925    87348559.635    21045959.555 7  21045959.193 7  21045962.525 7
        11.019           8.568  
 111427897.985    86826953.6114   21204024.905 8  21204024.91346  21204027.95446
      2316.163        1804.793  
 11  5 30 11  3 10.0000000  0 15R 7G28R 8G19G10R17G26R16G 7R 9R10G15
                                G 8R 6G 5                           
 105486693.295    82045222.933    19705799.677 8  19705798.671 7  19705796.683 7
      4429.881        3445.464  
 114447207.160    89179664.5174   21778580.171 8  21778579.51945  21778582.10645
      5759.878        4488.213  
 119585112.398    93010662.436    22331677.100 6  22331675.636 6  22331676.457 7
      7543.828        5867.412  
 129319123.080   100768163.5194   24608611.524 6  24608610.21443  24608612.73743
      4382.077        3414.628  
 123670264.104    96366458.1364   23533670.525 6  23533669.38044  23533677.16944
       -32.710         -25.470  
 123791190.072    96282051.502    23133341.586 6  23133341.800 5  23133345.665 4
      4572.387        3556.332  
 109139990.256    85044170.4424   20768649.986 8  20768649.90046  20768653.34546
      5880.567        4582.253  
 107807269.705    83850118.673    20181747.540 8  20181747.642 8  20181751.661 7
      1223.541         951.655  
 115449318.665    89960528.8324   21969275.829 7  21969275.75745  21969278.36046
      1069.267         833.187  
 103971650.023    80866860.093    19470549.332 8  19470549.457 8  19470553.794 7
      4958.750        3856.808  
 122411790.676    95209198.950    22964140.415 6  22964140.014 6  22964148.758 5
      7358.018        5722.897  
 127146878.101    99075502.6184   24195246.174 6  24195246.14843  24195250.35143
      6978.692        5437.942  
 107686372.145    83911477.1854   20492035.356 8  20492034.77146  20492038.55546
      2754.248        2146.166  
 112305218.604    87348518.925    21045949.560 7  21045948.858 7  21045953.110 7
         9.898           7.710  
 111416321.468    86817932.9424   21201822.254 8  21201821.95246  21201824.99146
      2314.455        1803.496  
 11  5 30 11  3 15.0000000  0 15R 7G28R 8G19G10R17G26R16G 7R 9R10G15
                                G 8R 6G 5                           
 105464551.246    82028001.339    19701664.041 8  19701662.482 8  19701660.339 7
      4426.901        3443.149  
 114418410.511    89157225.5674   21773100.385 8  21773099.78845  21773102.12445
      5758.825        4487.410  
 119547394.878    92981326.602    22324631.625 6  22324631.976 6  22324633.105 7
      7543.399        5867.097  
 129297216.719   100751093.6114   24604443.713 6  24604442.10543  24604443.74143
      4380.434        3413.317  
 123670426.578    96366584.7184   23533701.381 6  23533700.46744  23533707.99944
       -32.106         -25.021  
 123768335.584    96264275.799    23129071.170 5  23129069.900 5  23129074.468 4
      4569.661        3554.177  
 109110589.301    85021260.6074   20763055.036 8  20763055.00746  20763058.54446
      5879.932        4581.759  
 107801153.556    83845361.664    20180602.320 8  20180602.510 8  20180606.866 7
      1222.915         951.156  
 115443971.841    89956362.4674   21968258.305 7  21968258.33246  21968260.99546
      1069.499         833.373  
 103946860.429    80847579.302    19465907.336 8  19465907.169 7  19465911.381 7
      4957.127        3855.537  
 122375000.452    95180584.346    22957239.301 6  22957238.461 6  22957247.385 5
      7358.157        5723.015  
 127111981.595    99048310.5434   24188605.403 6  24188605.45943  24188610.06443
      6979.854        5438.822  
 107672603.045    83900748.0154   20489415.140 8  20489414.44646  20489418.38746
      2753.380        2145.494  
 112305171.888    87348482.575    21045940.338 7  21045940.177 7  21045944.579 7
         8.803           6.842  
 111404753.590    86808919.0104   21199620.923 8  21199620.64046  21199623.71446
      2312.679        1802.092  
 11  5 30 11  3 20.0000000  0 15R 7G28R 8G19G10R17G26R16G 7R 9R10G15
                                G 8R 6G 5                           
 105442424.051    82010791.298    19697530.755 8  19697528.831 8  19697526.765 7
      4423.982        3440.872  
 114389619.058    89134790.6684   21767621.743 8  21767621.03745  21767623.35645
      5757.864        4486.646  
 119509679.718    92951992.590    22317588.856 6  22317589.012 6  22317590.062 7
      7542.866        5866.672  
 129275318.439   100734030.0164   24600275.496 6  24600274.36743  24600276.85543
      4378.921        3412.177  
 123670586.335    96366709.1874   23533732.225 6  23533731.47844  23533738.60544
       -31.379         -24.445  
 123745495.102    96246510.991    23124801.743 5  23124800.921 5  23124805.376 4
      4566.557        3551.799  
 109081192.114    84998353.7074   20757460.731 8  20757460.89546  20757464.48446
      5879.107        4581.126  
 107795041.000    83840607.446    20179458.034 8  20179458.061 8  20179462.500 7
      1222.238         950.627  
 115438624.645    89952195.8154   21967240.921 8  21967240.81346  21967243.42946
      1069.541         833.407  
 103922079.536    80828305.278    19461267.013 8  19461266.657 8  19461270.638 7
      4955.421        3854.212  
 122338209.329    95151969.044    22950337.857 6  22950336.100 6  22950345.430 5
      7358.505        5723.271  
 127077080.258    99021114.7054   24181964.108 6  24181963.86743  24181968.54743
      6980.737        5439.534  
 107658838.199    83890022.1574   20486795.392 8  20486795.11846  20486798.89346
      2752.667        2144.935  
 112305130.823    87348450.625    21045933.901 7  21045933.453 7  21045937.010 7
         7.664           5.964  
 111393194.567    86799911.9724   21197421.033 8  21197421.00146  21197424.09346
      2310.966        1800.750  
 11  5 30 11  3 25.0000000  0 15R 7G28R 8G19G10R17G26R16G 7R 9R10G15
                                G 8R 6G 5                           
 105420311.642    81993592.761    19693399.411 8  19693398.006 8  19693396.109 7
      4421.078        3438.613  
 114360832.524    89112359.6094   21762143.480 8  21762142.91545  21762145.42745
      5756.903        4485.902  
 119471966.893    92922660.403    22310547.149 6  22310546.509 6  22310547.433 7
      7542.270        5866.211  
 129253428.014   100716972.5504   24596108.977 6  24596108.31243  24596111.71443
      4377.175        3410.771  
 123670743.221    96366831.4264   23533761.805 6  23533761.34044  23533768.23444
       -31.238         -24.320  
 123722668.555    96228757.026    23120536.472 5  23120535.372 5  23120539.435 4
      4563.930        3549.718  
 109051798.416    84975449.5284   20751867.464 8  20751867.40946  20751870.97946
      5878.466        4580.625  
 107788931.793    83835855.837    20178313.965 8  20178314.204 8  20178318.713 7
      1221.599         950.143  
 115433276.854    89948028.7044   21966222.923 7  21966223.27346  21966225.80246
      1069.768         833.590  
 103897307.252    80809037.952    19456627.438 8  19456627.572 8  19456631.491 8
      4953.716        3852.896  
 122301417.051    95123352.839    22943434.898 6  22943434.101 6  22943443.303 5
      7358.546        5723.307  
 127042173.860    98993914.9304   24175321.846 6  24175321.62143  24175326.00243
      6981.913        5440.452  
 107645077.424    83879299.4704   20484176.912 8  20484176.52446  20484180.33746
      2751.801        2144.265  
 112305095.402    87348423.066    21045927.188 7  21045926.907 7  21045930.260 7
         6.546           5.099  
 111381644.151    86790911.6424   21195223.035 8  21195223.17646  21195226.12046
      2309.298        1799.456  
 11  5 30 11  3 30.0000000  0 15R 7G28R 8G19G10R17G26R16G 7R 9R10G15
                                G 8R 6G 5                           
 105398214.531    81976406.117    19689271.489 8  19689270.104 8  19689268.000 7
      4417.908        3436.162  
 114332051.338    89089932.7144   21756666.168 7  21756665.68745  21756668.41545
      5755.787        4485.021  
 119434256.631    92893330.206    22303504.358 7  22303504.234 6  22303505.257 7
      7541.956        5865.964  
 129231545.850   100699921.5174   24591944.349 6  24591944.04743  24591948.53043
      4375.779        3409.669  
 123670897.518    96366951.6454   23533791.191 6  23533790.62244  23533797.32144
       -30.520         -23.782  
 123699856.218    96211014.106    23116274.754 6  23116273.382 5  23116276.719 4
      4560.844        3547.300  
 109022408.618    84952548.3884   20746274.959 8  20746274.72846  20746278.34746
      5877.684        4580.009  
 107782826.373    83831107.171    20177171.116 8  20177171.313 8  20177175.653 7
      1220.822         949.531  
 115427928.762    89943861.3534   21965205.569 7  21965205.56146  21965208.26746
      1069.668         833.513  
 103872543.769    80789777.465    19451990.685 8  19451990.404 8  19451994.158 7
      4951.840        3851.437  
 122264623.976    95094736.015    22936533.627 6  22936532.062 6  22936540.612 5
      7358.738        5723.455  
 127007262.808    98966711.5204   24168678.477 6  24168678.26143  24168682.79543
      6982.801        5441.152  
 107631320.995    83868580.1704   20481559.307 8  20481558.79246  20481562.54646
      2750.803        2143.479  
 112305065.751    87348399.996    21045922.363 7  21045921.533 7  21045924.638 7
         5.408           4.212  
 111370102.683    86781918.2844   21193026.797 8  21193026.95946  21193029.88146
      2307.453        1798.018  
 11  5 30 11  3 35.0000000  0 15R 7G28R 8G19G10R17G26R16G 7R 9R10G15
                                G 8R 6G 5                           
 105376132.430    81959231.150    19685146.534 8  19685144.905 8  19685142.952 7
      4415.012        3433.897  
 114303275.405    89067509.9154   21751189.984 8  21751189.63645  21751192.51145
      5754.666        4484.161  
 119396548.947    92864002.013    22296463.183 7  22296462.817 6  22296463.708 7
      7541.319        5865.467  
 129209671.809   100682876.8254   24587782.546 6  24587781.35043  24587786.65443
      4374.133        3408.414  
 123671049.062    96367069.7194   23533820.187 6  23533819.45444  23533825.92644
       -30.078         -23.436  
 123677058.031    96193282.171    23112017.225 6  23112014.549 5  23112017.100 4
      4558.262        3545.287  
 108993022.537    84929650.1474   20740683.169 8  20740682.72846  20740686.26546
      5876.832        4579.350  
 107776724.605    83826361.349    20176029.161 8  20176029.133 8  20176033.233 7
      1220.123         948.981  
 115422580.264    89939693.6904   21964187.598 7  21964187.84246  21964190.57146
      1069.814         833.607  
 103847788.966    80770523.726    19447354.605 8  19447354.494 8  19447358.271 8
      4950.137        3850.104  
 122227829.973    95066118.474    22929630.713 6  22929629.584 6  22929638.140 5
      7359.177        5723.820  
 126972346.938    98939504.3654   24162034.533 6  24162033.99643  24162038.24343
      6983.784        5441.892  
 107617568.783    83857864.1594   20478942.676 8  20478941.97546  20478945.71646
      2750.198        2143.010  
 112305041.703    87348381.296    21045917.480 7  21045917.099 7  21045920.202 7
         4.203           3.258  
 111358570.011    86772931.7814   21190832.611 8  21190832.33446  21190835.30546
      2305.686        1796.639  
 11  5 30 11  3 40.0000000  0 15R 7G28R 8G19G10R17G26R16G 7R 9R10G15
                                G 8R 6G 5                           
 105354065.306    81942067.828    19681023.875 8  19681022.441 8  19681020.684 7
      4411.972        3431.544  
 114274504.566    89045091.0834   21745715.521 8  21745715.01845  21745717.53145
      5753.804        4483.482  
 119358843.589    92834675.631    22289422.378 7  22289421.625 6  22289422.363 7
      7540.842        5865.097  
 129187805.799   100665838.3864   24583622.367 6  24583620.88343  24583625.84043
      4372.301        3406.982  
 123671197.786    96367185.5894   23533848.729 6  23533848.12744  23533854.37344
       -29.590         -23.064  
 123654273.927    96175561.195    23107757.426 6  23107756.961 6  23107759.387 4
      4555.084        3542.841  
 108963640.117    84906754.7544   20735092.305 8  20735091.55946  20735095.03846
      5876.023        4578.723  
 107770626.320    83821618.234    20174887.758 8  20174887.511 8  20174891.384 7
      1219.362         948.391  
 115417231.265    89935525.6324   21963170.052 7  21963169.96246  21963172.74746
      1069.795         833.613  
 103823042.987    80751276.854    19442720.607 8  19442720.380 8  19442724.031 7
      4948.219        3848.617  
 122191034.992    95037500.170    22922728.306 6  22922726.998 6  22922735.357 5
      7358.981        5723.662  
 126937426.164    98912293.3834   24155388.707 6  24155389.07643  24155393.32343
      6984.422        5442.391  
 107603820.715    83847151.3794   20476326.477 8  20476325.89746  20476329.61546
      2749.018        2142.093  
 112305023.281    87348366.958    21045913.768 7  21045913.510 7  21045917.126 7
         3.046           2.378  
 111347046.043    86763952.0664   21188640.186 8  21188639.41246  21188642.37546
      2303.996        1795.320  
 11  5 30 11  3 45.0000000  0 15R 7G28R 8G19G10R17G26R16G 7R 9R10G15
                                G 8R 6G 5                           
 105332013.601    81924916.499    19676904.393 8  19676902.905 8  19676901.308 7
      4408.805        3429.069  
 114245739.313    89022676.6054   21740241.479 8  21740241.26345  21740243.66145
      5752.625        4482.571  
 119321141.117    92805351.499    22282380.985 6  22282380.586 6  22282381.849 7
      7540.102        5864.528  
 129165948.296   100648806.5504   24579463.108 6  24579462.04343  24579466.51543
      4370.638        3405.672  
 123671344.120    96367299.6054   23533876.344 6  23533875.99344  23533882.13844
       -29.076         -22.648  
 123631504.186    96157851.401    23103501.365 6  23103500.168 5  23103502.948 4
      4552.498        3540.826  
 108934261.859    84883862.6074   20729501.452 8  20729501.04046  20729504.51046
      5875.217        4578.093  
 107764531.959    83816878.172    20173747.212 8  20173747.044 8  20173750.627 7
      1218.512         947.726  
 115411882.192    89931357.5184   21962151.893 8  21962151.93346  21962154.98646
      1069.846         833.646  
 103798306.010    80732036.984    19438087.568 8  19438087.669 8  19438091.818 7
      4946.464        3847.245  
 122154239.504    95008881.466    22915825.323 6  22915824.251 6  22915832.830 5
      7358.866        5723.562  
 126902500.910    98885078.8994   24148741.635 6  24148742.74343  24148747.15543
      6985.634        5443.362  
 107590077.227    83836442.1674   20473711.345 8  20473710.59746  20473714.33146
      2748.156        2141.416  
 112305010.893    87348357.308    21045911.456 7  21045910.891 7  21045914.889 7
         1.881           1.465  
 111335531.227    86754979.4844   21186448.362 8  21186448.17946  21186451.09346
      2302.044        1793.808  
 11  5 30 11  3 50.0000000  0 15R 7G28R 8G19G10R17G26R16G 7R 9R10G15
                                G 8R 6G 5                           
 105309977.144    81907777.031    19672787.748 8  19672786.431 7  19672784.555 7
      4405.589        3426.572  
 114216979.547    89000266.3974   21734768.951 7  21734768.42945  21734771.02545
      5751.198        4481.446  
 119283441.470    92776029.553    22275340.946 7  22275340.791 6  22275341.590 7
      7539.507        5864.061  
 129144099.116   100631781.2174   24575305.685 6  24575304.42643  24575308.88043
      4368.913        3404.328  
 123671487.933    96367411.6534   23533904.111 6  23533903.28344  23533909.42644
       -28.619         -22.286  
 123608748.914    96140152.846    23099248.575 6  23099247.791 5  23099250.341 4
      4549.502        3538.533  
 108904887.575    84860973.5574   20723911.712 8  20723911.31446  20723914.80746
      5874.365        4577.431  
 107758441.364    83812141.041    20172607.038 8  20172607.039 8  20172610.511 7
      1217.647         947.053  
 115406532.921    89927189.2494   21961134.062 7  21961134.09446  21961137.27146
      1069.757         833.585  
 103773578.080    80712804.154    19433456.860 8  19433456.880 7  19433461.149 8
      4944.592        3845.793  
 122117443.338    94980262.246    22908922.069 6  22908920.921 6  22908929.936 5
      7359.182        5723.791  
 126867571.096    98857860.8694   24142094.328 6  24142095.65243  24142099.92743
      6986.485        5444.000  
 107576338.169    83825736.4074   20471096.666 8  20471096.09946  20471099.90646
      2747.302        2140.758  
 112305004.347    87348352.205    21045909.192 7  21045909.449 7  21045913.520 7
         0.763           0.600  
 111324025.385    86746013.8854   21184258.492 8  21184258.70846  21184261.69946
      2300.242        1792.399  
 11  5 30 11  3 55.0000000  0 15R 7G28R 8G19G10R17G26R16G 7R 9R10G15
                                G 8R 6G 5                           
 105287956.039    81890649.510    19668674.293 8  19668672.799 8  19668670.821 7
      4402.724        3424.335  
 114188225.368    88977860.5444   21729296.842 8  21729296.74445  21729299.24045
      5750.274        4480.726  
 119245744.754    92746709.897    22268301.920 7  22268300.914 6  22268301.884 7
      7539.076        5863.721  
 129122258.454   100614762.5144   24571149.024 7  24571148.05943  24571152.17243
      4367.246        3403.057  
 123671629.327    96367521.8244   23533930.996 6  23533930.15544  23533936.25544
       -28.044         -21.845  
 123586008.136    96122465.578    23094998.024 6  23094997.303 5  23095001.188 4
      4546.603        3536.260  
 108875517.476    84838087.7684   20718322.523 8  20718322.35946  20718325.84246
      5873.555        4576.792  
 107752354.692    83807406.964    20171467.390 8  20171467.703 8  20171471.146 7
      1216.994         946.552  
 115401183.610    89923020.9474   21960116.157 7  21960116.09546  21960119.42046
      1069.929         833.717  
 103748859.324    80693578.464    19428827.752 8  19428827.770 8  19428832.102 8
      4942.907        3844.480  
 122080646.881    94951642.787    22902018.651 6  22902018.003 6  22902027.043 5
      7359.287        5723.886  
 126832636.896    98830639.4194   24135447.303 6  24135447.89843  24135452.05943
      6987.225        5444.568  
 107562603.712    83815034.2314   20468483.098 8  20468482.45246  20468486.26646
      2746.460        2140.100  
 112305003.853    87348351.798    21045909.463 7  21045909.122 7  21045913.577 7
        -0.425          -0.328  
 111312528.718    86737055.4324   21182070.714 8  21182070.93246  21182073.93346
      2298.497        1791.036  
 11  5 30 11  4  0.0000000  0 15R 7G28R 8G19G10R17G26R16G 7R 9R10G15
                                G 8R 6G 5                           
 105265950.462    81873534.061    19664563.107 8  19664561.882 8  19664559.911 7
      4399.566        3421.887  
 114159476.789    88955459.0514   21723826.520 8  21723825.95645  21723828.66545
      5749.256        4479.941  
 119208050.934    92717392.483    22261262.274 6  22261261.925 6  22261263.025 7
      7538.604        5863.369  
 129100426.259   100597750.4114   24566994.694 7  24566993.90643  24566997.23343
      4365.640        3401.810  
 123671768.331    96367630.1244   23533957.809 6  23533956.73544  23533962.79744
       -27.923         -21.756  
 123563281.819    96104789.578    23090751.130 5  23090749.923 5  23090754.219 4
      4543.866        3534.122  
 108846151.489    84815205.1804   20712734.211 8  20712734.11146  20712737.67346
      5872.849        4576.260  
 107746271.928    83802675.928    20170328.722 8  20170328.930 8  20170332.740 7
      1216.207         945.929  
 115395834.170    89918852.5494   21959098.058 7  21959098.04146  21959101.30246
      1069.842         833.653  
 103724149.541    80674359.745    19424200.612 8  19424200.506 8  19424204.828 7
      4941.055        3843.044  
 122043849.808    94923022.865    22895115.140 6  22895114.933 6  22895124.040 5
      7359.635        5724.147  
 126797698.206    98803414.4714   24128799.267 6  24128799.32343  24128803.44843
      6988.219        5445.376  
 107548873.789    83804335.5854   20465870.407 8  20465869.83446  20465873.50546
      2745.517        2139.361  
 112305009.328    87348356.052    21045910.949 7  21045910.447 7  21045914.665 7
        -1.636          -1.265  
 111301041.152    86728104.0754   21179884.756 8  21179884.89246  21179887.94346
      2296.639        1789.599  
 11  5 30 11  4  5.0000000  0 15R 7G28R 8G19G10R17G26R16G 7R 9R10G15
                                G 8R 6G 5                           
 105243959.975    81856430.345    19660454.819 8  19660453.692 7  19660451.998 7
      4396.522        3419.520  
 114130733.515    88933061.7024   21718356.919 7  21718356.10745  21718359.03845
      5748.087        4479.022  
 119170359.838    92688077.198    22254223.336 6  22254223.168 6  22254224.318 7
      7537.875        5862.782  
 129078602.188   100580744.6434   24562841.094 6  24562840.53943  24562844.10743
      4363.836        3400.375  
 123671904.555    96367736.2634   23533983.754 6  23533982.65944  23533988.64744
       -26.848         -20.916  
 123540569.730    96087124.623    23086508.578 6  23086507.131 5  23086510.111 4
      4540.726        3531.652  
 108816789.400    84792325.6294   20707146.852 8  20707146.71946  20707150.27746
      5871.945        4575.540  
 107740192.854    83797947.751    20169190.182 8  20169190.431 8  20169194.796 7
      1215.435         945.337  
 115390484.311    89914683.8194   21958079.705 7  21958079.89746  21958083.44446
      1070.016         833.780  
 103699448.649    80655147.941    19419575.155 8  19419574.792 7  19419579.302 7
      4939.310        3841.685  
 122007052.065    94894402.407    22888211.944 6  22888211.757 6  22888220.937 5
      7359.226        5723.846  
 126762754.778    98776185.8264   24122149.535 6  24122149.67443  24122154.29343
      6989.186        5446.124  
 107535148.084    83793640.2264   20463258.261 8  20463257.81446  20463261.51446
      2744.703        2138.727  
 112305020.383    87348364.640    21045912.611 7  21045912.360 7  21045916.515 7
        -2.758          -2.142  
 111289562.403    86719159.5924   21177700.493 7  21177700.53746  21177703.57246
      2294.889        1788.222  
 11  5 30 11  4 10.0000000  0 15R 7G28R 8G19G10R17G26R16G 7R 9R10G15
                                G 8R 6G 5                           
 105221984.898    81839338.614    19656349.587 8  19656348.598 8  19656346.953 7
      4393.458        3417.127  
 114101995.851    88910668.7214   21712887.940 8  21712887.41745  21712890.35045
      5746.792        4478.024  
 119132671.681    92658764.187    22247184.869 7  22247185.412 6  22247186.481 7
      7537.285        5862.341  
 129056786.591   100563745.4784   24558689.760 6  24558688.82243  24558692.18443
      4362.024        3398.972  
 123672038.368    96367840.5154   23534009.074 7  23534008.49344  23534014.08044
       -26.863         -20.927  
 123517872.205    96069470.988    23082268.445 6  23082267.058 5  23082268.749 4
      4538.124        3529.666  
 108787431.459    84769449.3134   20701560.069 8  20701560.13646  20701563.66946
      5871.234        4574.988  
 107734117.506    83793222.475    20168052.756 8  20168052.984 8  20168057.506 7
      1214.468         944.592  
 115385134.344    89910515.0014   21957061.761 7  21957061.91645  21957065.20846
      1069.919         833.707  
 103674756.829    80635943.193    19414951.137 8  19414950.931 7  19414955.211 7
      4937.415        3840.209  
 121970253.615    94865781.417    22881309.435 6  22881308.959 6  22881317.610 5
      7359.650        5724.148  
 126727806.901    98748953.7224   24115499.071 6  24115499.62943  24115503.72443
      6989.786        5446.579  
 107521426.912    83782948.4074   20460647.567 8  20460646.75346  20460650.44646
      2743.635        2137.898  
 112305037.445    87348377.904    21045915.785 7  21045915.374 7  21045919.629 7
        -4.108          -3.203  
 111278092.757    86710222.2014   21175518.331 8  21175517.93746  21175520.97746
      2292.885        1786.654  
 11  5 30 11  4 15.0000000  0 15R 7G28R 8G19G10R17G26R16G 7R 9R10G15
                                G 8R 6G 5                           
 105200025.212    81822258.858    19652247.861 8  19652246.339 8  19652244.693 7
      4390.393        3414.751  
 114073263.811    88888280.1224   21707420.940 8  21707420.00845  21707422.73545
      5745.735        4477.190  
 119094986.341    92629453.375    22240148.249 6  22240147.748 6  22240149.006 7
      7536.675        5861.857  
 129034979.534   100546752.9564   24554540.230 6  24554538.56143  24554541.75343
      4360.521        3397.834  
 123672169.665    96367942.8064   23534033.128 6  23534033.06544  23534039.05444
       -25.880         -20.151  
 123495189.145    96051828.592    23078030.648 6  23078028.041 5  23078030.400 4
      4535.378        3527.513  
 108758077.715    84746576.2684   20695974.195 8  20695974.34546  20695977.85846
      5870.358        4574.311  
 107728046.057    83788500.233    20166916.841 8  20166916.907 8  20166921.094 7
      1213.951         944.188  
 115379784.254    89906346.0924   21956043.732 7  21956043.77246  21956046.97346
      1070.131         833.876  
 103650074.141    80616745.549    19410329.167 8  19410328.810 7  19410332.984 8
      4935.781        3838.951  
 121933454.723    94837160.063    22874406.289 6  22874405.591 6  22874414.367 5
      7359.895        5724.363  
 126692854.630    98721718.2084   24108847.777 6  24108848.13143  24108852.39743
      6990.674        5447.283  
 107507710.250    83772260.0964   20458037.214 8  20458036.49446  20458040.25646
      2742.968        2137.385  
 112305060.350    87348395.701    21045920.105 7  21045919.670 7  21045924.177 7
        -5.130          -3.979  
 111266632.216    86701291.9094   21173337.246 8  21173337.07246  21173340.15546
      2291.189        1785.345  
 11  5 30 11  4 20.0000000  0 15R 7G28R 8G19G10R17G26R16G 7R 9R10G15
                                G 8R 6G 5                           
 105178080.488    81805190.737    19648148.602 8  19648146.978 8  19648145.270 7
      4387.462        3412.474  
 114044537.058    88865895.6354   21701955.048 8  21701954.03045  21701956.40245
      5744.731        4476.408  
 119057303.765    92600144.719    22233111.617 7  22233110.905 6  22233111.904 7
      7536.269        5861.540  
 129013180.562   100529766.7354   24550391.806 6  24550390.55743  24550393.75543
      4358.884        3396.538  
 123672298.160    96368042.9204   23534058.142 6  23534057.55744  23534063.81544
       -25.457         -19.828  
 123472520.105    96034197.128    23073791.543 6  23073789.950 5  23073792.934 4
      4532.407        3525.213  
 108728727.731    84723706.1514   20690389.270 8  20690389.13646  20690392.68646
      5869.511        4573.648  
 107721978.042    83783780.665    20165781.415 8  20165781.430 8  20165785.176 7
      1213.213         943.593  
 115374433.669    89902176.8034   21955026.043 7  21955025.72946  21955028.58746
      1070.099         833.853  
 103625400.136    80597554.661    19405707.969 8  19405708.068 8  19405712.425 8
      4933.804        3837.401  
 121896655.070    94808538.121    22867502.748 6  22867502.324 6  22867510.673 5
      7360.084        5724.506  
 126657897.562    98694478.9394   24102195.475 6  24102196.17343  24102200.46943
      6991.892        5448.245  
 107493997.768    83761575.0434   20455427.525 8  20455427.16446  20455430.86646
      2741.915        2136.556  
 112305088.811    87348417.830    21045925.910 7  21045925.063 7  21045929.381 7
        -6.340          -4.934  
 111255180.419    86692368.4254   21171157.862 7  21171157.91346  21171160.97146
      2289.443        1783.966  
 11  5 30 11  4 25.0000000  0 15R 7G28R 8G19G10R17G26R16G 7R 9R10G15
                                G 8R 6G 5                           
 105156150.964    81788134.443    19644051.544 8  19644050.472 7  19644048.712 7
      4384.322        3410.028  
 114015815.591    88843515.2694   21696489.740 8  21696488.57745  21696491.09645
      5744.067        4475.901  
 119019623.914    92570838.173    22226076.012 7  22226074.503 6  22226075.559 7
      7535.678        5861.089  
 128991389.811   100512786.9294   24546245.145 6  24546243.68243  24546247.66043
      4357.419        3395.410  
 123672423.852    96368140.8424   23534082.212 6  23534081.60744  23534087.55144
       -24.998         -19.489  
 123449865.286    96016576.737    23069557.405 5  23069555.863 5  23069559.411 4
      4529.725        3523.121  
 108699381.674    84700839.0944   20684804.837 8  20684804.80746  20684808.39546
      5868.745        4573.041  
 107715913.572    83779063.855    20164645.772 8  20164646.195 8  20164649.936 7
      1212.573         943.115  
 115369082.642    89898007.1664   21954007.680 7  21954007.47346  21954010.25846
      1070.317         834.017  
 103600735.072    80578370.722    19401088.781 8  19401089.009 7  19401093.377 8
      4932.082        3836.063  
 121859854.630    94779915.576    22860601.062 6  22860598.857 6  22860606.994 5
      7360.296        5724.668  
 126622935.773    98667235.9934   24095543.440 6  24095543.34843  24095547.51243
      6992.975        5449.071  
 107480289.489    83750893.2634   20452818.981 8  20452818.56546  20452822.29846
      2741.059        2135.888  
 112305122.955    87348444.375    21045932.008 7  21045931.729 7  21045935.760 7
        -7.345          -5.709  
 111243737.413    86683451.7904   21168980.549 8  21168980.38546  21168983.41946
      2287.758        1782.662  
 11  5 30 11  4 30.0000000  0 15R 7G28R 8G19G10R17G26R16G 7R 9R10G15
                                G 8R 6G 5                           
 105134237.072    81771090.307    19639958.017 8  19639956.739 8  19639955.008 7
      4381.090        3407.513  
 113987100.007    88821139.4894   21691025.526 8  21691024.30845  21691026.88646
      5742.553        4474.711  
 118981947.453    92541534.270    22219039.495 7  22219038.564 6  22219039.697 7
      7534.866        5860.444  
 128969607.779   100495813.9264   24542099.563 6  24542098.68243  24542102.77643
      4355.507        3393.926  
 123672547.247    96368236.9824   23534106.085 6  23534105.36444  23534110.99944
       -24.482         -19.081  
 123427225.192    95998967.773    23065327.581 6  23065325.557 5  23065329.398 4
      4526.663        3520.740  
 108670040.029    84677975.4754   20679221.393 8  20679221.39046  20679224.78746
      5867.819        4572.331  
 107709853.165    83774350.203    20163510.908 8  20163511.266 8  20163515.356 7
      1211.628         942.385  
 115363731.737    89893837.6274   21952989.624 8  21952989.36346  21952992.01046
      1070.053         833.811  
 103576079.178    80559193.918    19396471.565 8  19396471.596 7  19396476.095 7
      4930.198        3834.593  
 121823053.953    94751292.839    22853696.379 6  22853695.106 6  22853703.518 5
      7360.163        5724.544  
 126587969.778    98639989.7684   24088889.362 6  24088889.63643  24088893.49643
      6993.668        5449.600  
 107466585.969    83740215.1904   20450211.576 8  20450210.93846  20450214.56546
      2740.100        2135.142  
 112305163.148    87348475.620    21045939.537 7  21045939.200 7  21045943.153 7
        -8.748          -6.799  
 111232303.767    86674542.4494   21166804.784 8  21166804.64846  21166807.72346
      2285.734        1781.097  
 11  5 30 11  4 35.0000000  0 15R 7G28R 8G19G10R17G26R16G 7R 9R10G15
                                G 8R 6G 5                           
 105112338.581    81754058.142    19635866.557 8  19635865.575 8  19635864.163 7
      4378.055        3405.154  
 113958390.017    88798768.0694   21685561.582 8  21685560.80445  21685563.49245
      5741.458        4473.866  
 118944273.862    92512232.606    22212004.042 6  22212003.283 6  22212004.423 7
      7534.367        5860.058  
 128947834.259   100478847.5534   24537956.875 6  24537955.55743  24537959.18043
      4353.815        3392.572  
 123672668.083    96368331.1214   23534128.906 6  23534128.04744  23534133.90844
       -23.914         -18.619  
 123404599.562    95981370.064    23061098.868 6  23061097.084 5  23061101.595 4
      4523.658        3518.399  
 108640702.513    84655115.0774   20673639.196 8  20673638.60046  20673641.95646
      5867.089        4571.754  
 107703796.485    83769639.450    20162377.182 8  20162376.857 8  20162381.370 7
      1211.042         941.912  
 115358380.610    89889667.9134   21951970.868 8  21951971.12846  21951973.62846
      1070.332         834.032  
 103551432.391    80540024.199    19391855.313 8  19391855.862 7  19391860.408 7
      4928.443        3833.229  
 121786252.767    94722669.699    22846792.199 6  22846791.037 6  22846799.541 5
      7360.335        5724.716  
 126552999.358    98612740.1034   24082234.498 6  24082234.65843  24082238.95543
      6994.546        5450.316  
 107452886.882    83729540.5774   20447604.781 8  20447604.14446  20447607.64346
      2739.457        2134.636  
 112305209.135    87348511.376    21045948.427 7  21045948.048 7  21045951.639 7
        -9.722          -7.566  
 111220879.122    86665640.1224   21164630.650 8  21164630.60046  21164633.66746
      2284.048        1779.776  
 11  5 30 11  4 40.0000000  0 15R 7G28R 8G19G10R17G26R16G 7R 9R10G15
                                G 8R 6G 5                           
 105090455.689    81737038.109    19631778.736 8  19631777.603 8  19631776.056 7
      4374.925        3402.714  
 113929685.849    88776401.1964   21680099.272 8  21680098.46945  21680101.28045
      5740.322        4472.980  
 118906603.615    92482933.535    22204969.334 6  22204968.581 6  22204969.795 7
      7533.598        5859.463  
 128926069.464   100461887.9784   24533815.449 6  24533813.87843  24533817.74643
      4352.065        3391.208  
 123672786.578    96368423.4444   23534151.431 7  23534150.59844  23534156.15144
       -23.341         -18.178  
 123381988.906    95963784.008    23056873.863 5  23056872.078 5  23056876.051 4
      4520.735        3516.139  
 108611369.432    84632258.1364   20668057.538 8  20668056.62946  20668060.18746
      5866.082        4570.965  
 107697743.858    83764931.844    20161243.197 8  20161243.477 8  20161248.304 7
      1210.119         941.206  
 115353029.521    89885498.2344   21950952.606 7  21950952.72746  21950955.30346
      1070.136         833.866  
 103526794.889    80520861.695    19387241.389 8  19387242.029 7  19387246.624 7
      4926.562        3831.765  
 121749451.285    94694046.337    22839887.606 6  22839887.082 6  22839895.599 5
      7360.131        5724.537  
 126518024.712    98585487.1354   24075579.445 6  24075579.10243  24075583.73243
      6995.310        5450.914  
 107439192.530    83718869.6534   20444998.795 8  20444998.19246  20445001.63446
      2738.345        2133.773  
 112305261.184    87348551.849    21045958.209 7  21045957.798 7  21045961.561 7
       -11.098          -8.631  
 111209463.754    86656745.0284   21162458.651 8  21162458.34746  21162461.46046
      2282.082        1778.243  
 11  5 30 11  4 45.0000000  0 15R 7G28R 8G19G10R17G26R16G 7R 9R10G15
                                G 8R 6G 5                           
 105068588.847    81720030.559    19627694.662 8  19627692.833 7  19627691.293 7
      4371.828        3400.303  
 113900987.704    88754039.0104   21674637.676 7  21674636.96345  21674640.36645
      5739.166        4472.070  
 118868936.756    92453637.097    22197934.561 6  22197934.492 6  22197935.828 7
      7533.246        5859.182  
 128904313.528   100444935.2864   24529675.391 6  24529674.25143  24529677.58443
      4350.349        3389.884  
 123672902.922    96368514.0824   23534173.622 6  23534172.68244  23534178.32344
       -22.878         -17.824  
 123359392.973    95946209.401    23052650.818 5  23052650.112 5  23052652.647 4
      4517.556        3513.654  
 108582040.886    84609404.7284   20662475.939 8  20662475.64446  20662479.10546
      5865.236        4570.312  
 107691695.316    83760227.411    20160111.068 8  20160111.121 7  20160115.862 7
      1209.389         940.637  
 115347678.600    89881328.6784   21949934.403 7  21949934.41346  21949937.10746
      1070.233         833.950  
 103502166.844    80501706.551    19382629.650 8  19382630.047 8  19382634.499 7
      4924.758        3830.366  
 121712649.760    94665422.945    22832984.985 6  22832982.958 6  22832991.580 5
      7360.655        5724.942  
 126483046.056    98558231.0514   24068923.202 6  24068922.98943  24068927.12043
      6996.201        5451.588  
 107425502.995    83708202.4824   20442393.751 8  20442393.16946  20442396.59846
      2737.509        2133.120  
 112305319.277    87348597.018    21045969.267 7  21045968.881 7  21045972.851 7
       -12.140          -9.449  
 111198057.760    86647857.2374   21160287.948 8  21160287.87146  21160290.96846
      2280.249        1776.811  
 11  5 30 11  4 50.0000000  0 15R 7G28R 8G19G10R17G26R16G 7R 9R10G15
                                G 8R 6G 5                           
 105046737.949    81703035.422    19623613.086 8  19623611.179 8  19623609.360 7
      4368.572        3397.771  
 113872295.809    88731681.6964   21669177.684 8  21669176.77945  21669180.18845
      5737.687        4470.935  
 118831273.528    92424343.487    22190901.730 6  22190901.124 6  22190902.393 7
      7532.381        5858.517  
 128882566.582   100427989.6204   24525536.636 6  24525535.47543  24525539.77043
      4348.553        3388.475  
 123673017.170    96368603.0904   23534195.645 6  23534194.77044  23534200.12544
       -22.668         -17.638  
 123336811.909    95928646.327    23048432.099 6  23048431.055 5  23048432.534 4
      4514.534        3511.306  
 108552717.078    84586555.0094   20656895.414 8  20656895.49346  20656898.92846
      5864.261        4569.557  
 107685651.056    83755526.319    20158979.706 8  20158979.830 8  20158984.594 7
      1208.300         939.793  
 115342327.972    89877159.3554   21948916.302 7  21948916.31346  21948918.85546
      1070.052         833.816  
 103477548.366    80482558.847    19378019.915 7  19378019.977 7  19378024.366 7
      4922.713        3828.775  
 121675848.243    94636799.557    22826079.440 6  22826079.255 6  22826087.546 5
      7360.103        5724.525  
 126448063.557    98530971.9704   24062265.880 6  24062266.02643  24062270.32543
      6996.626        5451.906  
 107411818.468    83697539.2114   20439789.484 8  20439789.01146  20439792.60346
      2736.303        2132.187  
 112305383.772    87348647.170    21045980.951 7  21045981.003 7  21045985.109 7
       -13.626         -10.594  
 111186661.347    86638976.9094   21158119.155 8  21158119.19046  21158122.37546
      2278.318        1775.313  
 11  5 30 11  4 55.0000000  0 15R 7G28R 8G19G10R17G26R16G 7R 9R10G15
                                G 8R 6G 5                           
 105024903.233    81686052.867    19619533.836 8  19619532.351 8  19619530.492 7
      4365.379        3395.294  
 113843610.243    88709329.3144   21663718.951 8  21663718.15145  21663721.29845
      5736.549        4470.047  
 118793614.172    92395052.883    22183869.233 6  22183868.455 6  22183869.840 7
      7531.438        5857.779  
 128860828.910   100411051.1824   24521400.063 6  24521398.98043  24521403.30943
      4346.629        3386.992  
 123673129.520    96368690.6184   23534216.809 6  23534216.13744  23534221.57944
       -22.240         -17.333  
 123314246.121    95911095.146    23044214.341 5  23044212.719 5  23044215.519 4
      4511.783        3509.211  
 108523398.184    84563709.1134   20651316.107 8  20651316.27346  20651319.74546
      5863.343        4568.828  
 107679611.241    83750828.677    20157849.207 8  20157849.424 8  20157854.028 7
      1207.604         939.244  
 115336977.849    89872990.4194   21947898.412 8  21947898.35846  21947900.68146
      1070.048         833.801  
 103452939.723    80463418.791    19373411.555 8  19373411.689 8  19373416.092 8
      4920.774        3827.269  
 121639046.944    94608176.338    22819176.893 6  22819175.414 6  22819183.718 5
      7360.218        5724.607  
 126413077.346    98503710.0014   24055608.601 6  24055608.31043  24055613.01343
      6997.649        5452.724  
 107398139.114    83686879.9744   20437186.284 8  20437185.85446  20437189.60246
      2735.446        2131.520  
 112305454.776    87348702.377    21045994.629 7  21045994.257 7  21045998.880 7
       -14.689         -11.429  
 111175274.684    86630104.1794   21155952.226 7  21155952.25946  21155955.53246
      2276.418        1773.834  
 11  5 30 11  5  0.0000000  0 15R 7G28R 8G19G10R17G26R16G 7R 9R10G15
                                G 8R 6G 5                           
 105003084.703    81669082.900    19615457.558 8  19615456.410 7  19615454.452 7
      4362.291        3392.891  
 113814931.025    88686981.8774   21658261.539 8  21658260.91645  21658263.67745
      5735.213        4469.000  
 118755958.605    92365765.227    22176837.772 7  22176836.613 6  22176837.940 7
      7530.487        5857.044  
 128839100.426   100394119.8964   24517265.832 6  24517264.23243  24517268.57343
      4344.667        3385.449  
 123673239.986    96368776.6824   23534238.086 6  23534237.04144  23534242.76344
       -21.782         -16.977  
 123291695.653    95893555.904    23039998.376 5  23039996.899 5  23040001.552 4
      4508.246        3506.419  
 108494084.186    84540867.0344   20645737.987 8  20645737.99946  20645741.48746
      5862.453        4568.146  
 107673575.822    83746134.459    20156719.840 8  20156719.777 8  20156724.182 7
      1206.611         938.483  
 115331628.187    89868821.8494   21946880.129 7  21946880.37145  21946882.77045
      1070.011         833.769  
 103428340.846    80444286.336    19368805.148 8  19368805.289 8  19368809.491 7
      4918.911        3825.820  
 121602245.916    94579553.330    22812272.398 6  22812271.710 6  22812279.648 5
      7360.296        5724.668  
 126378087.401    98476445.1234   24048949.626 6  24048949.88843  24048954.31943
      6998.418        5453.294  
 107384464.943    83676224.7714   20434584.406 8  20434583.72946  20434587.57346
      2734.372        2130.680  
 112305532.295    87348762.663    21046009.252 7  21046009.030 7  21046013.201 7
       -16.165         -12.578  
 111163897.768    86621239.0444   21153787.130 8  21153787.36046  21153790.60046
      2274.429        1772.292  
 11  5 30 11  5  5.0000000  0 15R 7G28R 8G19G10R17G26R16G 7R 9R10G15
                                G 8R 6G 5                           
 104981282.116    81652125.328    19611384.787 8  19611383.486 8  19611381.596 7
      4358.888        3390.246  
 113786257.981    88664639.2394   21652805.883 8  21652805.09345  21652807.41945
      5733.933        4468.001  
 118718306.698    92336480.428    22169806.519 6  22169805.356 6  22169806.720 7
      7529.858        5856.554  
 128817380.956   100377195.6354   24513132.155 6  24513130.97943  24513135.50243
      4342.955        3384.107  
 123673348.333    96368861.0934   23534258.846 6  23534257.86844  23534263.36744
       -21.503         -16.752  
 123269160.351    95876028.492    23035787.892 5  23035786.189 5  23035790.992 4
      4505.541        3504.298  
 108464774.932    84518028.6594   20640160.745 8  20640160.65946  20640164.12346
      5861.323        4567.267  
 107667544.595    83741443.502    20155590.562 8  20155590.653 8  20155594.922 7
      1205.792         937.843  
 115326278.827    89864653.5144   21945862.538 8  21945862.37346  21945864.73646
      1069.842         833.647  
 103403751.611    80425161.375    19364200.150 8  19364200.439 7  19364204.788 8
      4916.869        3824.234  
 121565445.039    94550930.439    22805368.727 6  22805367.925 6  22805375.920 5
      7360.119        5724.537  
 126343093.570    98449177.2064   24042290.520 6  24042290.74143  24042295.31143
      6999.183        5453.907  
 107370795.741    83665573.4424   20431982.961 8  20431982.61146  20431986.39746
      2733.307        2129.856  
 112305615.949    87348827.720    21046024.969 7  21046024.312 7  21046028.500 7
       -17.294         -13.448  
 111152530.336    86612381.2994   21151624.144 8  21151624.27146  21151627.44246
      2272.514        1770.788  
 11  5 30 11  5 10.0000000  0 15R 7G28R 8G19G10R17G26R16G 7R 9R10G15
                                G 8R 6G 5                           
 104959495.760    81635180.388    19607315.464 8  19607313.636 8  19607311.567 7
      4355.705        3387.773  
 113757591.413    88642301.6494   21647350.830 8  21647350.15745  21647352.28045
      5732.553        4466.928  
 118680658.794    92307198.736    22162776.225 6  22162774.824 6  22162776.144 7
      7529.188        5856.039  
 128795670.851   100360278.6714   24509001.231 6  24508999.74043  24509003.95843
      4340.978        3382.586  
 123673454.864    96368944.0964   23534279.746 6  23534278.28744  23534283.42244
       -21.293         -16.595  
 123246640.511    95858513.050    23031579.490 6  23031579.238 5  23031582.826 4
      4502.449        3501.885  
 108435470.655    84495194.1634   20634584.728 8  20634584.24446  20634587.74146
      5860.278        4566.446  
 107661517.938    83736756.099    20154462.344 8  20154462.491 8  20154466.706 7
      1204.774         937.049  
 115320930.056    89860485.6374   21944844.513 7  21944844.52346  21944846.91446
      1069.578         833.438  
 103379172.245    80406044.090    19359596.877 8  19359597.314 8  19359601.803 7
      4914.828        3822.644  
 121528644.403    94522307.733    22798465.692 6  22798464.265 6  22798472.561 5
      7360.136        5724.543  
 126308096.131    98421906.4894   24035630.643 6  24035630.89043  24035635.40143
      6999.833        5454.403  
 107357131.780    83654926.1974   20429383.088 8  20429382.62546  20429386.25946
      2732.115        2128.921  
 112305706.173    87348897.893    21046042.015 7  21046041.623 7  21046045.171 7
       -18.790         -14.613  
 111141172.706    86603531.1964   21149463.258 8  21149462.99646  21149466.18246
      2270.492        1769.216  
 11  5 30 11  5 15.0000000  0 15R 7G28R 8G19G10R17G26R16G 7R 9R10G15
                                G 8R 6G 5                           
 104937725.798    81618248.194    19603247.880 8  19603246.684 8  19603244.759 7
      4352.349        3385.167  
 113728931.414    88619969.1794   21641897.276 8  21641896.47945  21641898.69746
      5731.404        4466.032  
 118643015.009    92277920.246    22155745.333 6  22155745.137 6  22155746.542 7
      7528.418        5855.426  
 128773970.186   100343369.0584   24504872.197 6  24504870.61943  24504874.21043
      4339.249        3381.236  
 123673559.666    96369025.7444   23534299.124 6  23534298.27044  23534303.19844
       -20.662         -16.099  
 123224136.166    95841009.680    23027375.247 6  23027373.918 5  23027377.549 4
      4499.210        3499.350  
 108406171.532    84472363.6804   20629009.111 8  20629008.83646  20629012.27046
      5859.425        4565.787  
 107655495.831    83732072.236    20153335.349 8  20153335.268 8  20153339.227 7
      1204.015         936.456  
 115315581.961    89856318.2884   21943826.899 7  21943826.74345  21943829.36345
      1069.721         833.547  
 103354602.854    80386934.570    19354996.522 8  19354996.293 8  19355000.564 8
      4913.016        3821.227  
 121491844.259    94493685.412    22791561.684 6  22791560.890 6  22791569.026 5
      7360.183        5724.597  
 126273095.280    98394633.1084   24028969.203 6  24028970.53843  24028975.15443
      7000.472        5454.914  
 107343473.178    83644283.1264   20426783.789 8  20426783.44146  20426787.09046
      2731.302        2128.288  
 112305802.978    87348973.180    21046060.205 7  21046059.911 7  21046063.305 7
       -19.853         -15.443  
 111129824.963    86594688.7984   21147303.669 8  21147303.54446  21147306.70446
      2268.687        1767.810  
 11  5 30 11  5 20.0000000  0 15R 7G28R 8G19G10R17G26R16G 7R 9R10G15
                                G 8R 6G 5                           
 104915971.970    81601328.551    19599184.221 8  19599182.904 7  19599180.902 7
      4349.103        3382.640  
 113700277.744    88597641.6424   21636444.082 8  21636443.56445  21636445.95145
      5730.137        4465.035  
 118605374.906    92248644.615    22148715.980 6  22148716.152 6  22148717.369 7
      7527.525        5854.750  
 128752278.662   100326466.5704   24500744.432 6  24500742.77243  24500746.44243
      4337.163        3379.583  
 123673662.485    96369105.8474   23534318.667 6  23534317.73344  23534323.00944
       -20.641         -16.092  
 123201647.039    95823518.143    23023172.603 5  23023171.614 5  23023174.025 4
      4496.283        3497.112  
 108376877.363    84449537.0554   20623434.398 8  20623434.29546  20623437.83746
      5858.175        4564.812  
 107649478.069    83727391.750    20152208.621 8  20152208.816 8  20152212.437 7
      1203.041         935.703  
 115310234.251    89852151.2364   21942809.069 7  21942809.09546  21942811.94446
      1069.309         833.228  
 103330043.116    80367832.553    19350396.509 8  19350396.671 7  19350401.110 7
      4910.922        3819.607  
 121455044.456    94465063.344    22784658.144 6  22784656.961 6  22784665.628 5
      7359.812        5724.298  
 126238090.662    98367356.7874   24022308.638 6  24022309.45843  24022313.74543
      7001.175        5455.452  
 107329819.604    83633643.9744   20424185.978 8  20424185.26946  20424188.82646
      2730.032        2127.304  
 112305906.183    87349053.444    21046079.755 7  21046079.681 7  21046083.009 7
       -21.401         -16.646  
 111118486.850    86585853.9004   21145146.011 7  21145145.98946  21145149.17146
      2266.540        1766.133  
 11  5 30 11  5 25.0000000  0 15R 7G28R 8G19G10R17G26R16G 7R 9R10G15
                                G 8R 6G 5                           
 104894234.571    81584421.687    19595123.730 8  19595122.078 7  19595120.245 7
      4345.782        3380.052  
 113671630.631    88575319.2174   21630992.365 8  21630991.80445  21630994.78745
      5728.798        4463.991  
 118567739.090    92219372.332    22141690.388 7  22141688.106 6  22141689.002 7
      7526.717        5854.114  
 128730596.540   100309571.4034   24496617.612 6  24496616.64743  24496620.20743
      4335.477        3378.303  
 123673763.471    96369184.5194   23534337.594 6  23534336.53044  23534342.18244
       -20.230         -15.759  
 123179173.348    95806038.599    23018973.855 6  23018971.855 5  23018974.714 4
      4493.165        3494.657  
 108347588.281    84426714.3954   20617860.883 8  20617860.79046  20617864.33246
      5857.230        4564.076  
 107643464.858    83722714.808    20151083.378 8  20151083.271 8  20151086.848 7
      1202.183         935.030  
 115304887.141    89847984.6544   21941791.483 8  21941791.53346  21941794.79346
      1069.240         833.174  
 103305493.418    80348738.346    19345799.557 8  19345799.350 7  19345803.663 7
      4908.892        3818.031  
 121418245.151    94436441.682    22777755.456 6  22777753.615 6  22777762.217 5
      7359.715        5724.207  
 126203082.531    98340077.7314   24015647.201 6  24015647.70943  24015651.73743
      7002.076        5456.159  
 107316171.304    83623008.9384   20421588.643 8  20421588.01846  20421591.52146
      2729.063        2126.546  
 112306015.845    87349138.726    21046100.762 7  21046100.177 7  21046103.899 7
       -22.621         -17.589  
 111107158.552    86577026.6504   21142990.329 8  21142990.28146  21142993.49146
      2264.641        1764.652  
 11  5 30 11  5 30.0000000  0 15R 7G28R 8G19G10R17G26R16G 7R 9R10G15
                                G 8R 6G 5                           
 104872513.829    81567527.777    19591065.665 8  19591064.441 7  19591062.617 7
      4342.488        3377.489  
 113642990.242    88553002.0374   21625542.055 8  21625541.40545  21625544.57245
      5727.396        4462.908  
 118530107.308    92190103.175    22134662.298 7  22134660.589 6  22134661.736 7
      7525.733        5853.344  
 128708924.014   100292683.7164   24492493.875 6  24492492.45943  24492495.88743
      4333.635        3376.867  
 123673862.839    96369261.9264   23534357.038 6  23534355.66244  23534361.08144
       -19.741         -15.382  
 123156715.287    95788571.199    23014776.614 6  23014774.503 5  23014777.294 4
      4489.979        3492.191  
 108318304.479    84403895.8484   20612288.458 8  20612288.29946  20612291.78846
      5856.307        4563.354  
 107637456.324    83718041.501    20149958.035 8  20149958.229 7  20149961.961 7
      1201.277         934.319  
 115299540.806    89843818.6684   21940774.332 8  21940774.16046  21940777.42346
      1069.250         833.179  
 103280953.786    80329651.969    19341203.762 8  19341203.821 8  19341208.086 8
      4906.939        3816.501  
 121381446.385    94407820.424    22770852.114 6  22770850.022 6  22770858.662 5
      7359.736        5724.232  
 126168071.052    98312796.0764   24008984.945 6  24008985.37543  24008989.68443
      7002.650        5456.582  
 107302528.502    83612378.1824   20418992.381 8  20418991.74946  20418995.31446
      2728.002        2125.717  
 112306132.280    87349229.276    21046122.018 7  21046121.918 7  21046125.806 7
       -23.922         -18.610  
 111095840.292    86568207.2234   21140836.688 8  21140836.50946  21140839.69546
      2262.750        1763.172  
 11  5 30 11  5 35.0000000  0 15R 7G28R 8G19G10R17G26R16G 7R 9R10G15
                                G 8R 6G 5                           
 104850809.247    81550646.432    19587010.443 8  19587009.743 7  19587008.131 7
      4339.365        3375.060  
 113614356.223    88530689.8184   21620092.650 8  21620092.59845  21620095.62945
      5726.186        4461.949  
 118492479.638    92160837.227    22127636.376 7  22127633.986 6  22127634.973 7
      7525.161        5852.893  
 128687260.663   100275803.1834   24488371.496 6  24488370.35043  24488373.58743
      4331.730        3375.366  
 123673960.186    96369337.7734   23534375.617 6  23534374.52744  23534379.69644
       -19.249         -14.997  
 123134272.347    95771115.591    23010580.408 5  23010579.310 5  23010583.181 4
      4486.989        3489.840  
 108289025.584    84381081.1304   20606717.048 8  20606716.65846  20606720.10546
      5855.231        4562.519  
 107631452.023    83713371.485    20148833.896 8  20148834.127 8  20148838.129 7
      1200.342         933.596  
 115294194.791    89839652.9304   21939757.094 7  21939756.91846  21939760.12446
      1069.256         833.185  
 103256423.804    80310573.096    19336609.819 8  19336610.247 7  19336614.371 7
      4904.898        3814.913  
 121344647.749    94379199.280    22763948.173 6  22763946.652 6  22763955.224 5
      7359.544        5724.093  
 126133055.867    98285511.5154   24002321.748 7  24002322.13943  24002326.60043
      7003.235        5457.036  
 107288890.751    83601751.3584   20416397.686 8  20416396.74446  20416400.18646
      2726.980        2124.915  
 112306254.985    87349324.703    21046145.358 7  21046145.112 7  21046148.525 7
       -25.140         -19.565  
 111084531.650    86559395.2904   21138684.549 8  21138684.53846  21138687.72046
      2260.696        1761.574  
 11  5 30 11  5 40.0000000  0 15R 7G28R 8G19G10R17G26R16G 7R 9R10G15
                                G 8R 6G 5                           
 104829121.092    81533777.869    19582959.459 8  19582958.171 8  19582956.607 7
      4336.003        3372.452  
 113585728.889    88508382.8094   21614645.112 8  21614644.91445  21614648.06945
      5724.775        4460.863  
 118454856.263    92131574.606    22120609.004 7  22120608.067 6  22120608.990 7
      7524.038        5852.021  
 128665606.875   100258930.0994   24484251.522 6  24484249.94743  24484252.95143
      4329.825        3373.905  
 123674055.810    96369412.2774   23534394.324 6  23534392.86344  23534397.70144
       -18.872         -14.724  
 123111844.860    95753671.992    23006389.246 5  23006388.089 5  23006391.547 4
      4483.717        3487.364  
 108259751.949    84358270.5074   20601146.335 8  20601146.12446  20601149.53946
      5854.275        4561.773  
 107625452.328    83708705.054    20147711.069 8  20147711.175 8  20147715.207 7
      1199.345         932.825  
 115288849.509    89835487.7734   21938740.081 7  21938739.63646  21938743.15746
      1069.006         832.991  
 103231904.002    80291502.142    19332018.761 8  19332018.589 7  19332022.581 7
      4902.985        3813.431  
 121307849.747    94350578.622    22757044.687 6  22757043.396 6  22757051.983 5
      7359.480        5724.041  
 126098037.345    98258224.3724   23995658.106 6  23995658.46243  23995662.60343
      7003.934        5457.616  
 107275258.414    83591128.7564   20413803.638 8  20413802.66146  20413806.15546
      2725.929        2124.098  
 112306384.328    87349425.292    21046169.701 7  21046169.263 7  21046172.897 7
       -26.627         -20.700  
 111073232.938    86550591.0984   21136534.178 8  21136534.45746  21136537.67946
      2258.820        1760.118  
 11  5 30 11  5 45.0000000  0 15R 7G28R 8G19G10R17G26R16G 7R 9R10G15
                                G 8R 6G 5                           
 104807449.552    81516922.225    19578911.033 8  19578909.797 7  19578908.146 7
      4332.675        3369.863  
 113557108.372    88486081.1124   21609198.864 8  21609198.69445  21609201.80545
      5723.590        4459.952  
 118417237.268    92102315.405    22113584.507 7  22113582.818 6  22113583.903 7
      7523.577        5851.678  
 128643962.743   100242064.5384   24480132.201 6  24480131.32643  24480134.50443
      4327.653        3372.211  
 123674149.833    96369485.5364   23534412.279 7  23534410.75744  23534415.50644
       -18.458         -14.385  
 123089432.982    95736240.546    23002201.098 5  23002200.194 5  23002203.935 4
      4480.846        3485.111  
 108230483.702    84335464.0834   20595576.599 8  20595576.52846  20595580.00646
      5853.110        4560.875  
 107619457.364    83704042.302    20146588.560 8  20146588.610 8  20146592.933 7
      1198.627         932.280  
 115283505.061    89831323.2564   21937722.949 7  21937722.55246  21937726.01246
      1068.885         832.909  
 103207394.294    80272439.032    19327428.815 8  19327428.920 8  19327432.808 7
      4900.985        3811.881  
 121271052.586    94321958.621    22750141.827 6  22750140.443 6  22750149.099 5
      7359.567        5724.118  
 126063015.572    98230934.6804   23988994.407 6  23988994.03344  23988998.04144
      7004.712        5458.235  
 107261631.586    83580510.4434   20411210.561 8  20411209.76246  20411213.15846
      2724.851        2123.268  
 112306520.377    87349531.096    21046195.187 7  21046194.857 7  21046197.841 7
       -27.728         -21.556  
 111061944.263    86541794.7224   21134385.735 8  21134386.24846  21134389.52946
      2256.878        1758.622  
 11  5 30 11  5 50.0000000  0 15R 7G28R 8G19G10R17G26R16G 7R 9R10G15
                                G 8R 6G 5                           
 104785794.674    81500079.542    19574865.422 8  19574864.316 7  19574862.823 7
      4329.216        3367.172  
 113528494.641    88463784.6984   21603754.285 7  21603753.79745  21603756.79945
      5721.976        4458.675  
 118379622.458    92073059.453    22106559.510 7  22106558.701 6  22106559.699 7
      7522.338        5850.707  
 128622328.229   100225206.4684   24476014.444 6  24476014.27743  24476018.03543
      4325.928        3370.875  
 123674242.173    96369557.4744   23534429.458 6  23534428.43644  23534433.33844
       -18.397         -14.326  
 123067036.935    95718821.390    22998018.244 5  22998015.799 5  22998019.406 4
      4477.638        3482.595  
 108201220.799    84312661.8174   20590007.909 8  20590007.99346  20590011.54646
      5851.942        4559.959  
 107613467.048    83699383.165    20145466.857 8  20145466.972 8  20145471.532 7
      1197.474         931.372  
 115278161.344    89827159.3154   21936705.984 8  21936705.63846  21936709.05246
      1068.599         832.676  
 103182894.764    80253383.840    19322841.405 8  19322841.056 8  19322844.771 7
      4898.903        3810.262  
 121234256.034    94293339.083    22743238.488 7  22743237.372 6  22743246.109 5
      7359.071        5723.723  
 126027990.487    98203642.4184   23982329.222 6  23982328.84144  23982333.13144
      7005.267        5458.643  
 107248010.214    83569896.3874   20408618.525 8  20408617.86146  20408621.16046
      2723.593        2122.288  
 112306663.192    87349642.169    21046221.461 7  21046221.160 7  21046224.310 7
       -29.365         -22.837  
 111050665.605    86533006.1554   21132239.262 8  21132239.98846  21132243.25246
      2254.598        1756.835  
 11  5 30 11  5 55.0000000  0 15R 7G28R 8G19G10R17G26R16G 7R 9R10G15
                                G 8R 6G 5                           
 104764156.881    81483250.146    19570823.142 8  19570822.064 7  19570820.941 7
      4325.849        3364.555  
 113499888.209    88441493.9694   21598310.704 8  21598310.16245  21598313.08145
      5720.764        4457.749  
 118342012.670    92043807.402    22099534.927 7  22099535.203 6  22099536.226 7
      7521.569        5850.110  
 128600703.819   100208356.2974   24471899.339 6  24471898.69243  24471903.01943
      4323.959        3369.299  
 123674333.311    96369628.4704   23534447.133 7  23534445.83344  23534450.59143
       -18.072         -14.081  
 123044656.992    95701414.777    22993834.904 5  22993834.000 5  22993838.118 4
      4474.745        3480.371  
 108171963.733    84289864.1074   20584441.065 8  20584440.58946  20584444.06946
      5850.814        4559.076  
 107607481.881    83694728.028    20144346.123 8  20144346.597 8  20144351.206 7
      1196.478         930.598  
 115272818.881    89822996.3494   21935689.020 7  21935689.00046  21935692.35946
      1068.415         832.535  
 103158405.829    80234336.891    19318254.934 8  19318254.891 7  19318258.882 8
      4896.689        3808.540  
 121197460.516    94264720.364    22736335.445 6  22736334.578 6  22736342.963 5
      7358.964        5723.632  
 125992962.638    98176347.9984   23975663.641 7  23975663.45944  23975667.39244
      7006.003        5459.229  
 107234394.774    83559286.9524   20406027.340 8  20406026.84046  20406030.28746
      2722.382        2121.335  
 112306813.123    87349758.772    21046249.107 7  21046249.115 7  21046252.588 7
       -30.710         -23.874  
 111039397.409    86524225.7364   21130094.856 7  21130095.78546  21130098.99046
      2252.521        1755.213  
 11  5 30 11  6  0.0000000  0 15R 7G28R 8G19G10R17G26R16G 7R 9R10G15
                                G 8R 6G 5                           
 104742535.766    81466433.721    19566784.552 8  19566783.253 7  19566781.900 7
      4322.561        3361.990  
 113471288.722    88419208.6574   21592868.372 8  21592867.83345  21592870.93945
      5719.296        4456.595  
 118304407.402    92014558.870    22092512.872 6  22092512.843 6  22092513.528 7
      7520.484        5849.264  
 128579089.224   100191513.7714   24467786.586 6  24467785.53443  24467790.31243
      4321.903        3367.736  
 123674422.912    96369698.2754   23534464.195 6  23534463.07444  23534467.66244
       -17.602         -13.740  
 123022292.945    95684020.514    22989655.545 5  22989654.560 5  22989658.938 4
      4471.101        3477.495  
 108142712.122    84267070.6474   20578874.616 8  20578874.16546  20578877.70846
      5849.875        4558.333  
 107601501.498    83690076.615    20143226.932 8  20143227.221 8  20143231.647 7
      1195.640         929.949  
 115267477.339    89818834.1014   21934672.793 7  21934672.55246  21934675.69146
      1068.245         832.399  
 103133927.179    80215297.946    19313670.800 8  19313670.779 7  19313674.866 8
      4894.833        3807.092  
 121160665.919    94236102.363    22729432.413 6  22729431.892 6  22729440.315 5
      7358.963        5723.630  
 125957931.697    98149051.1684   23968997.689 6  23968997.41244  23969001.29544
      7006.454        5459.580  
 107220784.938    83548681.8854   20403437.528 8  20403436.89546  20403440.36346
      2721.534        2120.670  
 112306969.748    87349880.581    21046278.380 7  21046278.336 7  21046282.190 7
       -31.965         -24.861  
 111028139.390    86515453.2474   21127952.915 8  21127953.48546  21127956.65046
      2250.658        1753.760  
 11  5 30 11  6  5.0000000  0 15R 7G28R 8G19G10R17G26R16G 7R 9R10G15
                                G 8R 6G 5                           
 104720931.220    81449630.187    19562748.822 8  19562747.333 7  19562745.792 7
      4319.269        3359.432  
 113442696.167    88396928.7454   21587427.343 7  21587426.73545  21587429.69145
      5717.790        4455.420  
 118266806.695    91985313.881    22085489.176 6  22085490.947 6  22085492.137 7
      7519.845        5848.758  
 128557484.372   100174678.8234   24463676.119 6  24463674.31543  24463679.33343
      4320.098        3366.304  
 123674510.954    96369766.8694   23534481.123 7  23534479.79644  23534484.45444
       -17.523         -13.654  
 122999944.714    95666638.571    22985478.576 5  22985478.241 5  22985481.840 4
      4468.151        3475.202  
 108113466.038    84244281.4964   20573309.218 8  20573308.78546  20573312.32746
      5848.626        4557.367  
 107595525.826    83685428.867    20142108.175 8  20142108.765 8  20142112.705 7
      1194.687         929.196  
 115262136.612    89814672.4914   21933656.762 8  21933656.40546  21933659.34046
      1068.062         832.249  
 103109458.801    80196266.989    19309088.908 8  19309088.734 8  19309092.725 7
      4892.716        3805.431  
 121123872.201    94207485.033    22722530.132 6  22722529.754 6  22722537.606 5
      7358.678        5723.422  
 125922897.549    98121751.8384   23962331.407 6  23962330.51044  23962334.55844
      7007.111        5460.076  
 107207180.656    83538081.1464   20400848.507 8  20400847.95746  20400851.51746
      2720.391        2119.789  
 112307133.066    87350007.599    21046308.971 7  21046309.019 7  21046312.706 7
       -33.222         -25.844  
 111016891.444    86506688.6094   21125812.462 8  21125813.12046  21125816.23446
      2248.610        1752.153  
 11  5 30 11  6 10.0000000  0 15R 7G28R 8G19G10R17G26R16G 7R 9R10G15
                                G 8R 6G 5                           
 104699343.771    81432839.948    19558716.357 8  19558714.752 7  19558713.042 7
      4315.728        3356.675  
 113414110.747    88374654.3924   21581987.688 7  21581987.08845  21581990.04045
      5716.424        4454.359  
 118229210.778    91956072.619    22078469.647 6  22078470.048 6  22078471.368 7
      7518.622        5847.821  
 128535889.533   100157851.6854   24459566.833 7  24459565.51143  24459569.83843
      4318.021        3364.684  
 123674597.618    96369834.3854   23534497.722 6  23534496.27343  23534500.93644
       -17.240         -13.417  
 122977612.646    95649269.182    22981306.925 6  22981305.760 5  22981307.714 4
      4465.108        3472.872  
 108084225.700    84221496.8174   20567744.396 8  20567744.52046  20567748.08546
      5847.526        4556.511  
 107589555.142    83680784.999    20140990.619 8  20140991.004 8  20140994.956 7
      1193.790         928.501  
 115256796.949    89810511.7134   21932640.319 8  21932640.39446  21932643.17546
      1067.863         832.095  
 103085000.909    80177244.188    19304508.796 8  19304508.728 8  19304512.493 7
      4890.545        3803.751  
 121087079.481    94178868.484    22715628.202 6  22715627.595 6  22715635.516 5
      7358.526        5723.286  
 125887860.496    98094450.2554   23955663.410 6  23955662.95244  23955667.26944
      7007.843        5460.659  
 107193582.171    83527484.9184   20398260.600 8  20398260.18346  20398263.60346
      2719.166        2118.822  
 112307303.349    87350140.024    21046340.696 7  21046340.693 7  21046344.837 7
       -34.649         -26.950  
 111005653.790    86497931.9904   21123674.317 8  21123674.72246  21123677.80546
      2246.539        1750.546  
 11  5 30 11  6 15.0000000  0 15R 7G28R 8G19G10R17G26R16G 7R 9R10G15
                                G 8R 6G 5                           
 104677773.112    81416062.770    19554686.245 8  19554685.062 7  19554683.442 7
      4312.384        3354.079  
 113385532.372    88352385.5314   21576549.566 7  21576548.73745  21576552.02145
      5714.963        4453.210  
 118191619.626    91926835.059    22071449.754 7  22071450.329 6  22071451.375 7
      7517.622        5847.033  
 128514304.593   100141032.2474   24455459.855 7  24455458.29643  24455462.32743
      4315.857        3363.033  
 123674682.834    96369900.7744   23534513.735 7  23534512.64043  23534517.23243
       -16.939         -13.189  
 122955296.534    95631912.200    22977138.291 6  22977135.390 5  22977137.046 4
      4461.787        3470.287  
 108054991.041    84198716.5644   20562181.805 8  20562181.26746  20562184.82846
      5846.433        4555.654  
 107583589.330    83676144.919    20139873.963 8  20139874.310 8  20139878.088 7
      1192.651         927.616  
 115251458.284    89806351.7124   21931624.653 7  21931624.52946  21931627.27546
      1067.738         832.002  
 103060553.429    80158229.480    19299930.393 8  19299930.321 8  19299934.204 7
      4888.591        3802.242  
 121050287.786    94150252.727    22708725.789 6  22708725.606 6  22708733.635 5
      7358.338        5723.152  
 125852820.437    98067146.3234   23948995.943 7  23948995.09544  23948999.03344
      7008.362        5461.058  
 107179989.340    83516893.1014   20395673.835 8  20395673.36746  20395676.87946
      2718.016        2117.936  
 112307480.542    87350277.821    21046374.010 7  21046373.807 7  21046377.864 7
       -36.079         -28.061  
 110994426.359    86489183.3374   21121537.604 8  21121538.15146  21121541.33746
      2244.427        1748.901  
 11  5 30 11  6 20.0000000  0 15R 7G28R 8G19G10R17G26R16G 7R 9R10G15
                                G 8R 6G 5                           
 104656219.335    81399298.718    19550659.857 8  19550658.764 7  19550657.024 7
      4309.191        3351.598  
 113356961.127    88330122.2264   21571112.103 8  21571111.66345  21571115.15345
      5713.617        4452.174  
 118154033.153    91897601.141    22064431.812 7  22064431.315 6  22064432.385 7
      7517.065        5846.604  
 128492729.536   100124220.5144   24451354.797 6  24451352.92043  24451356.23143
      4314.187        3361.683  
 123674766.555    96369965.9944   23534529.842 6  23534528.61643  23534532.98343
       -16.368         -12.734  
 122932996.358    95614567.619    22972966.626 5  22972966.723 5  22972970.274 4
      4458.231        3467.492  
 108025762.000    84175940.6924   20556619.939 8  20556619.17246  20556622.76846
      5845.315        4554.784  
 107577628.226    83671508.501    20138758.424 8  20138758.545 8  20138762.248 7
      1191.852         926.996  
 115246120.600    89802192.4704   21930608.643 7  21930608.71146  21930611.43045
      1067.494         831.812  
 103036116.301    80139222.826    19295353.925 8  19295353.887 7  19295357.928 7
      4886.593        3800.682  
 121013496.996    94121637.684    22701824.599 7  22701823.946 6  22701831.806 5
      7358.254        5723.092  
 125817777.420    98039840.0884   23942327.822 7  23942326.77144  23942330.75644
      7008.844        5461.441  
 107166402.213    83506305.7294   20393088.224 8  20393087.65746  20393091.39246
      2716.881        2117.048  
 112307664.490    87350420.876    21046408.989 7  21046408.550 7  21046412.377 7
       -37.283         -28.997  
 110983209.160    86480442.6584   21119403.181 7  21119403.59246  21119406.78046
      2242.507        1747.407  
 11  5 30 11  6 25.0000000  0 15R 7G28R 8G19G10R17G26R16G 7R 9R10G15
                                G 8R 6G 5                           
 104634682.726    81382548.021    19546637.453 8  19546635.640 7  19546633.771 7
      4305.619        3348.808  
 113328397.036    88307864.4954   21565676.324 8  21565676.05845  21565679.75345
      5712.009        4450.914  
 118116451.613    91868371.065    22057414.885 7  22057413.493 6  22057414.310 7
      7515.915        5845.711  
 128471164.465   100107416.5584   24447250.036 6  24447249.18643  24447252.29343
      4312.127        3360.092  
 123674848.869    96370030.1284   23534545.434 6  23534544.17443  23534548.31443
       -16.336         -12.744  
 122910712.175    95597235.482    22968802.352 5  22968801.619 5  22968806.126 4
      4455.453        3465.356  
 107996538.621    84153169.2284   20551058.263 8  20551058.18646  20551061.76846
      5844.124        4553.864  
 107571672.208    83666876.042    20137643.369 8  20137643.271 8  20137647.349 7
      1190.574         926.002  
 115240783.956    89798034.0474   21929593.099 7  21929592.96946  21929595.96546
      1067.201         831.579  
 103011689.658    80120224.329    19290779.532 8  19290779.562 8  19290783.842 7
      4884.288        3798.890  
 120976707.253    94093023.444    22694922.825 6  22694922.037 6  22694930.226 5
      7357.601        5722.577  
 125782731.442    98012531.5394   23935657.560 7  23935657.92044  23935661.98044
      7009.403        5461.872  
 107152820.827    83495722.8234   20390504.133 8  20390503.26946  20390507.02546
      2715.644        2116.080  
 112307855.307    87350569.273    21046444.341 7  21046444.246 7  21046447.956 7
       -38.910         -30.265  
 110972002.252    86471709.9974   21117270.729 8  21117270.96746  21117274.18046
      2240.238        1745.635  
 11  5 30 11  6 30.0000000  0 15R 7G28R 8G19G10R17G26R16G 7R 9R10G15
                                G 8R 6G 5                           
 106217979.965    82614001.432    19842410.233 8  19842408.961 7  19842406.970 7
      4302.225        3346.177  
 114875265.933    89513216.8864   21860035.925 8  21860035.45645  21860039.15845
      5710.500        4449.736  
 119684257.510    93087775.661    22350192.251 7  22350190.092 6  22350190.931 7
      7514.919        5844.928  
 130025033.885   101318223.8984   24742941.136 6  24742940.45343  24742943.42143
      4309.758        3358.234  
 125250349.837    97597693.2204   23834353.081 6  23834351.81343  23834356.57543
       -15.896         -12.385  
 124492698.710    96827669.462    23264436.541 5  23264434.568 5  23264437.523 4
      4451.787        3462.494  
 109542746.984    85358006.9174   20845292.404 8  20845291.80946  20845295.44046
      5842.986        4552.975  
 109167159.818    84907810.851    20436321.481 8  20436321.813 8  20436325.856 7
      1189.708         925.326  
 116810869.537    91021477.3534   22228370.612 8  22228370.49246  22228373.44746
      1066.932         831.373  
 104588153.473    81346362.854    19586000.766 8  19586000.845 8  19586005.043 7
      4882.088        3797.170  
 122537988.579    95307353.376    22987814.279 7  22987814.509 6  22987823.104 5
      7357.457        5722.455  
 127323109.697    99212826.2984   24228782.104 6  24228781.79844  24228785.88644
      7010.014        5462.359  
 108714668.002    84712746.5924   20687713.639 8  20687713.01346  20687716.75046
      2714.490        2115.189  
 113907803.092    88594973.098    21346274.526 7  21346274.016 7  21346277.015 7
       -40.270         -31.320  
 112536228.002    87690587.2044   21414932.663 8  21414933.27946  21414936.44746
      2238.255        1744.094  
 11  5 30 11  6 35.0000000  0 15R 7G28R 8G19G10R17G26R16G 7R 9R10G15
                                G 8R 6G 5                           
 106196477.162    82597277.029    19838393.421 8  19838392.153 8  19838390.143 7
      4298.691        3343.423  
 114846716.147    89490970.2984   21854603.275 8  21854602.66145  21854606.35245
      5709.279        4448.796  
 119646685.702    93058553.158    22343175.859 7  22343173.872 7  22343174.587 7
      7513.987        5844.204  
 130003488.825   101301435.5424   24738840.522 6  24738840.20743  24738843.35543
      4308.089        3356.939  
 125250429.238    97597755.0734   23834368.063 6  23834367.01143  23834372.18943
       -15.851         -12.340  
 124470446.724    96810362.354    23260278.995 6  23260277.463 5  23260279.958 4
      4448.665        3460.077  
 109513535.159    85335244.4604   20839733.674 8  20839732.98346  20839736.60646
      5841.782        4552.044  
 109161213.468    84903185.910    20435208.434 8  20435208.487 8  20435212.766 7
      1188.768         924.593  
 116805534.934    91017320.5164   22227355.566 8  22227355.42845  22227358.36545
      1066.732         831.225  
 104563747.729    81327380.609    19581430.082 8  19581430.474 8  19581434.653 7
      4880.030        3795.576  
 122501201.008    95278740.836    22980913.228 6  22980913.315 6  22980921.578 5
      7357.404        5722.422  
 127288057.922    99185513.2254   24222111.796 7  24222111.67444  24222115.59644
      7010.463        5462.674  
 108701098.075    84702172.6224   20685131.722 8  20685130.93446  20685134.59246
      2713.434        2114.369  
 113908007.727    88595132.254    21346311.541 7  21346311.449 7  21346315.165 7
       -41.741         -32.460  
 112525041.673    87681870.5804   21412803.938 8  21412804.60246  21412807.80746
      2236.215        1742.503  
 11  5 30 11  6 40.0000000  0 15R 7G28R 8G19G10R17G26R16G 7R 9R10G15
                                G 8R 6G 5                           
 106174991.429    82580565.902    19834380.072 8  19834378.450 8  19834376.296 7
      4295.416        3340.874  
 114818173.596    89468729.3524   21849171.901 7  21849171.35845  21849174.78145
      5707.765        4447.605  
 119609118.776    93029334.452    22336160.853 7  22336158.626 7  22336159.164 7
      7512.836        5843.319  
 129981953.772   101284654.9864   24734742.924 6  24734742.13643  24734745.25143
      4306.089        3355.377  
 125250507.156    97597815.7784   23834382.898 6  23834381.82044  23834387.05243
       -15.365         -11.982  
 124448210.755    96793067.715    23256122.639 5  23256121.350 5  23256125.074 4
      4445.604        3457.710  
 109484329.057    85312486.4614   20834175.717 8  20834175.26546  20834178.92046
      5840.542        4551.063  
 109155272.020    84898564.775    20434095.709 8  20434095.996 8  20434100.572 7
      1187.751         923.808  
 116800201.340    91013164.4634   22226340.724 8  22226340.74146  22226343.51446
      1066.612         831.130  
 104539352.475    81308406.527    19576861.981 8  19576862.091 8  19576866.178 7
      4877.880        3793.911  
 122464414.455    95250129.074    22974011.984 7  22974012.022 6  22974020.462 5
      7357.133        5722.222  
 127253003.316    99158197.9644   24215440.872 7  24215440.75244  24215445.09744
      7011.212        5463.261  
 108687533.911    84691603.1404   20682550.747 8  20682549.84846  20682553.49846
      2712.271        2113.459  
 113908219.102    88595296.644    21346350.971 7  21346350.804 7  21346354.758 7
       -42.976         -33.412  
 112513865.624    87673161.9624   21410677.409 7  21410677.96946  21410681.05346
      2234.115        1740.864  
 11  5 30 11  6 45.0000000  0 15R 7G28R 8G19G10R17G26R16G 7R 9R10G15
                                G 8R 6G 5                           
 106153522.966    82563868.208    19830369.159 8  19830367.990 8  19830365.937 7
      4292.073        3338.285  
 114789638.524    89446494.2334   21843742.147 8  21843741.48245  21843744.83145
      5706.358        4446.517  
 119571557.041    93000119.784    22329144.865 7  22329144.181 7  22329144.813 7
      7511.914        5842.606  
 129960429.001   101267882.4404   24730646.964 6  24730645.92143  24730649.28843
      4304.105        3353.837  
 125250583.910    97597875.5734   23834396.971 6  23834396.20644  23834402.20244
       -14.965         -11.656  
 124425991.148    96775785.809    23251970.025 5  23251968.910 5  23251972.935 4
      4442.107        3454.946  
 109455129.022    85289733.1904   20828618.967 8  20828618.66646  20828622.36646
      5839.543        4550.289  
 109149335.709    84893947.642    20432984.359 8  20432984.706 8  20432989.376 7
      1186.882         923.120  
 116794869.065    91009009.4424   22225325.934 7  22225325.91346  22225328.89746
      1066.407         830.972  
 104514968.029    81289440.844    19572295.681 8  19572295.730 7  19572299.663 8
      4875.958        3792.409  
 122427629.266    95221518.382    22967110.041 6  22967110.921 6  22967119.390 5
      7356.978        5722.097  
 127217946.040    99130880.6204   24208770.160 7  24208769.41344  24208773.94844
      7011.822        5463.753  
 108673975.740    84681038.3314   20679970.854 8  20679970.02246  20679973.52946
      2711.147        2112.583  
 113908437.567    88595466.545    21346391.724 7  21346391.415 7  21346395.977 7
       -44.131         -34.318  
 112502700.225    87664461.6464   21408553.009 8  21408553.35846  21408556.33646
      2232.056        1739.256  
 11  5 30 11  6 50.0000000  0 15R 7G28R 8G19G10R17G26R16G 7R 9R10G15
                                G 8R 6G 5                           
 106132071.578    82547183.797    19826361.571 8  19826360.662 7  19826358.766 7
      4288.551        3335.538  
 114761110.684    89424264.7464   21838313.623 8  21838313.07946  21838316.10045
      5704.902        4445.388  
 119534000.231    92970908.936    22322131.942 7  22322130.839 6  22322131.505 7
      7510.853        5841.774  
 129938914.231   101251117.6804   24726553.358 6  24726552.12643  24726555.35743
      4301.840        3352.073  
 125250659.219    97597934.2364   23834410.921 6  23834410.14044  23834416.37844
       -14.931         -11.634  
 124403787.557    96758516.361    23247822.309 5  23247819.362 5  23247823.382 4
      4438.898        3452.438  
 109425934.763    85266984.4194   20823063.146 8  20823063.20746  20823066.80846
      5838.243        4549.286  
 109143404.333    84889334.343    20431874.362 8  20431874.550 8  20431879.008 7
      1185.743         922.252  
 116789537.818    91004855.2164   22224311.430 7  22224311.38146  22224314.37646
      1066.071         830.702  
 104490593.962    81270483.239    19567731.302 8  19567731.168 8  19567735.045 7
      4873.796        3790.735  
 122390845.248    95192908.602    22960209.962 6  22960210.161 6  22960218.450 5
      7356.402        5721.642  
 127182885.936    99103561.0644   24202098.531 7  24202097.88444  24202102.12244
      7012.401        5464.232  
 108660423.323    84670478.0074   20677391.995 8  20677391.02746  20677394.42246
      2709.927        2111.634  
 113908662.853    88595641.757    21346434.191 7  21346434.141 7  21346438.635 7
       -45.843         -35.651  
 112491545.039    87655769.2894   21406430.306 7  21406430.57246  21406433.55346
      2230.077        1737.725  
 11  5 30 11  6 55.0000000  0 15R 7G28R 8G19G10R17G26R16G 7R 9R10G15
                                G 8R 6G 5                           
 106110637.285    82530512.680    19822357.820 7  19822356.458 8  19822354.754 7
      4285.211        3332.944  
 114732590.407    89402041.1514   21832886.803 8  21832885.96146  21832888.71546
      5703.420        4444.237  
 119496448.774    92941702.258    22315118.291 7  22315118.138 7  22315119.012 7
      7509.809        5840.961  
 129917409.808   101234360.9884   24722461.713 6  24722460.28243  24722463.74843
      4299.943        3350.585  
 125250733.377    97597991.9964   23834424.835 6  23834423.90444  23834430.83544
       -14.453         -11.247  
 124381600.471    96741259.725    23243676.071 6  23243673.635 5  23243676.468 4
      4435.815        3450.055  
 109396746.652    85244240.4394   20817508.701 8  20817508.86946  20817512.46746
      5837.075        4548.375  
 109137478.091    84884725.044    20430765.465 8  20430765.590 8  20430769.508 7
      1184.984         921.660  
 116784207.906    91000702.0324   22223296.887 8  22223297.13346  22223300.12646
      1065.906         830.574  
 104466230.769    81251534.090    19563168.424 8  19563168.552 8  19563172.551 7
      4871.646        3789.060  
 122354062.629    95164299.920    22953309.079 6  22953310.434 6  22953318.107 5
      7356.307        5721.576  
 127147823.354    99076239.5784   24195426.288 6  24195425.83544  24195429.81643
      7012.776        5464.480  
 108646876.996    84659922.4264   20674813.891 8  20674813.18446  20674816.64246
      2708.727        2110.698  
 113908895.398    88595822.625    21346478.173 7  21346477.890 7  21346482.429 7
       -47.103         -36.630  
 112480400.410    87647085.1614   21404309.581 8  21404309.76946  21404312.83046
      2227.911        1736.044  
 11  5 30 11  7  0.0000000  0 15R 7G28R 8G19G10R17G26R16G 7R 9R10G15
                                G 8R 6G 5                           
 106089220.351    82513855.068    19818356.536 8  19818355.381 7  19818353.912 7
      4281.679        3330.195  
 114704077.606    89379823.3864   21827461.005 8  21827460.43746  21827462.97746
      5701.951        4443.075  
 119458902.349    92912499.484    22308107.710 7  22308106.558 7  22308107.374 7
      7508.771        5840.155  
 129895915.711   101217612.3384   24718370.859 6  24718369.90143  24718373.55543
      4297.757        3348.895  
 125250806.335    97598048.8194   23834438.773 6  23834437.78144  23834444.81044
       -14.435         -11.257  
 124359429.740    96724015.808    23239530.122 5  23239530.499 5  23239533.516 4
      4432.761        3447.700  
 109367564.627    85221501.1984   20811955.647 8  20811955.66046  20811959.41546
      5835.827        4547.399  
 109131556.963    84880119.719    20429657.268 8  20429657.457 8  20429661.008 7
      1183.737         920.697  
 116778879.259    90996549.8354   22222282.511 7  22222282.93046  22222286.31046
      1065.624         830.351  
 104441878.316    81232593.295    19558608.542 8  19558607.954 8  19558612.097 7
      4869.470        3787.360  
 122317281.513    95135692.385    22946410.695 6  22946410.314 6  22946418.097 5
      7355.977        5721.325  
 127112758.149    99048916.0574   24188753.944 6  24188753.03444  24188757.42544
      7013.167        5464.807  
 108633336.615    84649371.4784   20672236.935 8  20672236.39646  20672240.00446
      2707.379        2109.644  
 113909134.924    88596008.915    21346523.136 7  21346523.371 7  21346527.226 7
       -48.552         -37.763  
 112469266.297    87638409.2234   21402190.347 8  21402191.02946  21402194.04246
      2225.846        1734.433  
 11  5 30 11  7  5.0000000  0 15R 7G28R 8G19G10R17G26R16G 7R 9R10G15
                                G 8R 6G 5                           
 106067821.034    82497211.150    19814358.718 8  19814357.676 7  19814356.406 7
      4278.069        3327.394  
 114675572.401    89357611.5394   21822036.923 7  21822036.20245  21822038.64345
      5700.267        4441.781  
 119421361.496    92883301.042    22301097.542 7  22301095.988 7  22301096.980 7
      7507.657        5839.299  
 129874432.008   101200871.8024   24714282.518 6  24714281.14243  24714285.48343
      4295.631        3347.271  
 125250878.123    97598104.7354   23834453.076 6  23834451.66744  23834458.68344
       -14.208         -11.041  
 124337275.468    96706784.725    23235391.087 5  23235390.042 5  23235393.542 4
      4429.342        3445.061  
 109338388.669    85198766.6874   20806403.918 8  20806403.68646  20806407.39946
      5834.612        4546.460  
 109125641.064    84875518.463    20428549.723 8  20428550.031 8  20428553.276 7
      1182.656         919.851  
 116773551.951    90992398.6774   22221268.905 8  22221269.12946  22221272.53046
      1065.398         830.188  
 104417536.685    81213660.918    19554049.931 8  19554049.738 8  19554053.699 7
      4867.306        3785.686  
 122280501.833    95107085.981    22939511.434 7  22939510.704 6  22939518.478 5
      7355.653        5721.074  
 127077690.442    99021590.5804   24182080.426 7  24182079.95144  24182084.04644
      7013.979        5465.419  
 108619802.319    84638825.2694   20669661.196 8  20669660.79346  20669664.52446
      2706.198        2108.735  
 113909381.645    88596200.798    21346570.067 7  21346569.416 7  21346573.428 7
       -50.032         -38.908  
 112458142.771    87629741.5324   21400074.157 8  21400074.31046  21400077.37646
      2223.635        1732.708  
 11  5 30 11  7 10.0000000  0 15R 7G28R 8G19G10R17G26R16G 7R 9R10G15
                                G 8R 6G 5                           
 106046439.123    82480580.771    19810364.755 8  19810363.451 7  19810361.867 7
      4274.702        3324.764  
 114647074.786    89335405.6054   21816613.975 7  21816613.31945  21816615.63546
      5698.780        4440.606  
 119383825.985    92854106.774    22294088.852 7  22294086.470 7  22294087.481 7
      7506.730        5838.562  
 129852958.751   101184139.4064   24710196.408 6  24710194.67843  24710199.31843
      4293.458        3345.561  
 125250948.761    97598159.7614   23834466.881 7  23834465.41344  23834472.20544
       -14.046         -10.950  
 124315137.717    96689566.458    23231254.874 6  23231253.448 5  23231256.435 4
      4425.872        3442.340  
 109309218.982    85176037.0654   20800852.940 7  20800852.88446  20800856.62346
      5833.438        4545.537  
 109119730.255    84870921.166    20427443.444 8  20427443.442 8  20427446.803 7
      1181.574         919.005  
 116768226.002    90988248.5774   22220255.425 7  22220255.63846  22220259.06046
      1065.265         830.082  
 104393205.770    81194736.875    19549493.314 8  19549493.253 8  19549497.440 7
      4865.154        3784.012  
 122243723.652    95078480.735    22932612.260 7  22932611.502 6  22932619.058 5
      7355.491        5720.945  
 127042620.261    98994263.1824   24175406.293 6  24175406.30244  24175410.52944
      7014.618        5465.934  
 108606274.110    84628283.8054   20667087.250 8  20667086.54046  20667090.27446
      2705.198        2107.945  
 113909635.359    88596398.119    21346617.317 7  21346616.975 7  21346621.505 7
       -51.384         -39.954  
 112447029.780    87621082.0594   21397959.512 8  21397959.57546  21397962.59246
      2221.662        1731.163  
 11  5 30 11  7 15.0000000  0 15R 7G28R 8G19G10R17G26R16G 7R 9R10G15
                                G 8R 6G 5                           
 106025074.386    82463963.754    19806373.648 8  19806372.501 7  19806370.756 7
      4271.164        3322.016  
 114618584.808    89313205.6244   21811192.506 8  21811191.87646  21811194.14845
      5697.134        4439.316  
 119346295.842    92824916.674    22287080.333 7  22287078.299 7  22287078.905 7
      7505.493        5837.604  
 129831495.897   101167415.1084   24706112.693 6  24706110.95143  24706114.77643
      4291.464        3344.003  
 125251018.228    97598213.8844   23834479.832 6  23834478.77544  23834485.09444
       -13.649         -10.642  
 124293016.458    96672361.041    23227120.320 5  23227118.570 5  23227123.478 4
      4422.686        3439.830  
 109280055.467    85153312.2494   20795303.341 8  20795303.24246  20795306.94546
      5832.058        4544.466  
 109113824.554    84866327.842    20426337.527 8  20426337.685 8  20426341.395 7
      1180.629         918.268  
 116762901.381    90984099.5134   22219242.018 8  22219242.31146  22219245.85646
      1064.718         829.650  
 104368885.812    81175821.353    19544938.747 8  19544938.862 8  19544943.021 7
      4862.871        3782.233  
 122206946.948    95049876.630    22925712.849 7  22925711.867 6  22925720.013 5
      7355.333        5720.819  
 127007547.634    98966933.8664   24168731.875 6  24168732.31144  24168736.54744
      7014.754        5466.045  
 108592751.949    84617747.0564   20664514.011 8  20664513.38546  20664517.04546
      2703.912        2106.960  
 113909896.295    88596601.051    21346666.536 7  21346666.074 7  21346670.452 7
       -52.866         -41.122  
 112435927.406    87612430.8554   21395846.939 8  21395846.98546  21395849.96446
      2219.458        1729.452  
 11  5 30 11  7 20.0000000  0 15R 7G28R 8G19G10R17G26R16G 7R 9R10G15
                                G 8R 6G 5                           
 106003726.809    82447360.080    19802386.106 8  19802384.511 7  19802382.654 7
      4267.735        3319.340  
 114590102.328    89291011.4864   21805772.248 8  21805771.72945  21805774.10445
      5695.687        4438.200  
 119308771.019    92795730.703    22280071.922 7  22280070.624 7  22280071.446 7
      7504.473        5836.810  
 129810043.362   101150698.8404   24702029.924 7  24702028.71343  24702032.29543
      4289.421        3342.412  
 125251086.433    97598267.0154   23834493.033 6  23834491.95244  23834497.89344
       -13.661         -10.657  
 124270911.596    96655168.397    23222988.893 5  23222988.123 5  23222993.062 4
      4419.295        3437.237  
 109250897.962    85130592.1164   20789754.956 8  20789754.79046  20789758.40546
      5831.048        4543.672  
 109107924.006    84861738.520    20425232.809 8  20425233.058 8  20425236.863 7
      1179.652         917.507  
 116757577.974    90979951.3944   22218229.240 8  22218229.32946  22218232.82046
      1064.572         829.535  
 104344576.551    81156914.156    19540386.609 8  19540386.528 8  19540390.680 7
      4860.832        3780.648  
 122170171.573    95021273.581    22918813.187 7  22918812.993 6  22918820.914 5
      7354.851        5720.434  
 126972472.502    98939602.6054   24162056.931 7  24162057.61044  24162061.64744
      7015.371        5466.524  
 108579235.787    84607214.9814   20661941.679 8  20661941.29846  20661944.96046
      2702.887        2106.148  
 113910164.098    88596809.323    21346716.983 7  21346716.656 7  21346720.799 7
       -54.171         -42.131  
 112424835.500    87603787.8104   21393736.245 8  21393736.30846  21393739.25146
      2217.373        1727.817  
 11  5 30 11  7 25.0000000  0 15R 7G28R 8G19G10R17G26R16G 7R 9R10G15
                                G 8R 6G 5                           
 105982396.550    82430769.877    19798401.702 8  19798400.033 7  19798398.023 7
      4264.290        3316.673  
 114561626.993    89268822.9194   21800353.292 7  21800353.00145  21800355.25245
      5694.376        4437.178  
 119271251.121    92766548.567    22273064.191 7  22273063.956 7  22273064.912 7
      7503.433        5836.005  
 129788600.762   101133990.3214   24697949.880 7  24697948.57743  24697952.19443
      4287.474        3340.908  
 125251152.949    97598318.8324   23834505.050 6  23834504.43044  23834510.56344
       -13.194         -10.281  
 124248822.789    96637988.210    23218863.780 5  23218861.455 5  23218864.728 4
      4416.245        3434.891  
 109221746.272    85107876.5154   20784207.646 8  20784207.41446  20784211.04046
      5829.735        4542.662  
 109102028.085    84857152.802    20424128.958 8  20424129.138 8  20424133.207 7
      1178.818         916.862  
 116752255.409    90975803.9334   22217216.311 7  22217216.43646  22217219.93346
      1064.457         829.459  
 104320277.643    81138015.006    19535836.521 8  19535836.225 8  19535840.463 7
      4858.730        3779.017  
 122133397.277    94992671.361    22911914.832 7  22911913.989 6  22911921.887 5
      7354.636        5720.283  
 126937394.426    98912269.0454   24155383.198 6  24155382.59444  24155386.74344
      7015.882        5466.936  
 108565725.251    84596687.2904   20659370.511 8  20659370.20046  20659373.96646
      2701.557        2105.107  
 113910438.608    88597022.829    21346768.113 7  21346768.276 7  21346772.352 7
       -55.502         -43.160  
 112413753.717    87595152.6484   21391627.186 7  21391627.38746  21391630.48746
      2215.369        1726.264  
 11  5 30 11  7 30.0000000  0 15R 7G28R 8G19G10R17G26R16G 7R 9R10G15
                                G 8R 6G 5                           
 105961083.845    82414193.330    19794420.206 8  19794418.630 8  19794416.732 7
      4260.939        3314.065  
 114533159.359    89246640.3484   21794936.142 8  21794935.74245  21794937.68945
      5692.681        4435.850  
 119233736.697    92737370.685    22266058.771 7  22266058.347 7  22266059.306 7
      7502.447        5835.223  
 129767168.633   101117289.9724   24693871.676 6  24693870.01743  24693873.70843
      4285.423        3339.283  
 125251218.348    97598369.7834   23834517.384 6  23834516.71143  23834522.95243
       -12.955         -10.085  
 124226750.467    96620820.834    23214739.030 6  23214736.376 5  23214739.478 4
      4412.905        3432.240  
 109192600.866    85085165.8124   20778661.367 8  20778661.22146  20778664.85146
      5828.395        4541.611  
 109096137.247    84852571.039    20423025.876 8  20423026.321 8  20423030.576 7
      1177.635         915.937  
 116746934.231    90971657.5544   22216203.853 8  22216203.92846  22216207.12746
      1064.182         829.234  
 104295989.658    81119124.348    19531287.658 8  19531287.781 8  19531292.241 7
      4856.510        3777.284  
 122096624.530    94964070.353    22905016.146 7  22905015.769 6  22905023.531 5
      7354.382        5720.064  
 126902313.896    98884933.5894   24148706.524 6  24148707.01544  24148711.00544
      7016.419        5467.344  
 108552220.821    84586164.3544   20656800.697 8  20656800.44446  20656804.10946
      2700.310        2104.134  
 113910720.152    88597241.791    21346820.076 7  21346820.477 7  21346825.020 7
       -57.150         -44.453  
 112402682.567    87586525.7744   21389519.977 7  21389520.50646  21389523.70346
      2213.163        1724.544  
 11  5 30 11  7 35.0000000  0 15R 7G28R 8G19G10R17G26R16G 7R 9R10G15
                                G 8R 6G 5                           
 105939788.491    82397630.277    19790441.885 8  19790440.406 8  19790438.621 7
      4257.337        3311.260  
 114504699.355    89224463.7164   21789520.526 8  21789519.82445  21789521.77345
      5691.210        4434.717  
 119196227.808    92708197.111    22259055.145 7  22259053.800 7  22259054.668 7
      7501.185        5834.257  
 129745746.966   101100597.7584   24689794.626 6  24689793.63843  24689797.29643
      4283.219        3337.583  
 125251282.557    97598419.7994   23834529.070 6  23834528.80643  23834535.07743
       -12.832          -9.995  
 124204694.568    96603666.242    23210615.026 5  23210613.980 5  23210618.249 4
      4409.523        3429.635  
 109163461.697    85062459.9704   20773116.296 8  20773116.12746  20773119.78146
      5827.031        4540.547  
 109090251.589    84847993.296    20421923.867 8  20421924.350 8  20421928.677 7
      1176.678         915.200  
 116741614.413    90967512.2334   22215191.432 8  22215191.56645  22215194.71046
      1063.802         828.947  
 104271712.523    81100242.134    19526741.150 8  19526741.344 8  19526745.695 7
      4854.298        3775.566  
 122059853.335    94935470.542    22898118.071 7  22898117.651 6  22898125.338 5
      7354.088        5719.847  
 126867230.991    98857596.2674   24142030.401 6  24142031.03244  24142035.05944
      7016.724        5467.593  
 108538722.436    84575646.1304   20654232.276 8  20654231.89046  20654235.33846
      2699.047        2103.160  
 113911008.733    88597466.223    21346874.820 7  21346874.172 7  21346878.807 7
       -58.333         -45.357  
 112391622.019    87577907.1564   21387415.414 7  21387415.83346  21387418.99046
      2210.912        1722.801  
 11  5 30 11  7 40.0000000  0 15R 7G28R 8G19G10R17G26R16G 7R 9R10G15
                                G 8R 6G 5                           
 105918510.677    82381080.861    19786466.738 8  19786465.484 7  19786463.707 7
      4253.791        3308.497  
 114476247.110    89202293.1384   21784105.733 8  21784105.13145  21784107.53345
      5689.688        4433.520  
 119158724.588    92679027.955    22252051.500 7  22252050.449 7  22252051.198 7
      7499.991        5833.323  
 129724335.816   101083913.7494   24685719.972 6  24685719.06043  24685722.60443
      4281.348        3336.110  
 125251345.636    97598468.9484   23834541.359 6  23834540.26843  23834546.66243
       -12.422          -9.665  
 124182655.478    96586524.744    23206498.017 5  23206496.224 5  23206500.591 4
      4406.299        3427.115  
 109134328.799    85039759.0074   20767572.672 8  20767572.47346  20767576.08746
      5825.871        4539.642  
 109084371.166    84843419.634    20420823.734 8  20420823.656 8  20420827.899 7
      1175.641         914.393  
 116736296.002    90963368.0134   22214179.512 8  22214179.64846  22214182.55546
      1063.349         828.576  
 104247446.319    81081368.421    19522196.623 8  19522197.034 8  19522201.355 7
      4852.147        3773.891  
 122023083.837    94906872.053    22891220.209 7  22891219.474 6  22891227.349 5
      7353.700        5719.545  
 126832145.769    98830257.1304   24135354.081 6  24135354.55044  24135358.58244
      7017.291        5468.014  
 108525230.228    84565132.7184   20651664.949 8  20651664.43346  20651667.84746
      2697.725        2102.119  
 113911304.515    88597696.254    21346930.171 7  21346929.769 7  21346934.121 7
       -59.928         -46.598  
 112380572.110    87569296.8324   21385312.732 8  21385313.11146  21385316.22246
      2208.934        1721.254  
 11  5 30 11  7 45.0000000  0 15R 7G28R 8G19G10R17G26R16G 7R 9R10G15
                                G 8R 6G 5                           
 105897250.801    82364545.402    19782495.522 8  19782493.995 7  19782492.121 7
      4250.214        3305.726  
 114447802.914    89180128.8284   21778692.898 8  21778692.28445  21778694.79745
      5688.188        4432.349  
 119121227.145    92649863.281    22245049.011 7  22245047.998 7  22245048.887 7
      7499.056        5832.586  
 129702935.523   101067238.2054   24681647.727 6  24681647.01543  24681650.37843
      4279.117        3334.373  
 125251407.922    97598517.4674   23834553.501 6  23834552.39343  23834558.59143
       -12.386          -9.646  
 124160633.439    96569396.474    23202382.521 6  23202381.239 5  23202385.108 4
      4402.414        3424.109  
 109105202.573    85017063.2474   20762030.436 8  20762029.89246  20762033.46446
      5824.746        4538.771  
 109078496.186    84838850.200    20419723.674 8  20419724.057 8  20419728.178 7
      1174.569         913.550  
 116730979.264    90959225.0944   22213167.996 7  22213167.97445  22213170.71845
      1063.226         828.495  
 104223191.287    81062503.397    19517654.786 8  19517654.899 8  19517659.204 8
      4849.830        3772.087  
 121986316.202    94878275.016    22884322.875 7  22884321.929 6  22884330.052 5
      7353.552        5719.432  
 126797058.478    98802916.3964   24128677.318 6  24128677.55244  24128681.30044
      7017.825        5468.428  
 108511744.458    84554624.3224   20649098.845 8  20649098.30046  20649101.68146
      2696.620        2101.256  
 113911607.749    88597932.090    21346986.651 7  21346986.607 7  21346990.432 7
       -61.117         -47.533  
 112369533.144    87560695.0344   21383212.207 7  21383212.52746  21383215.64646
      2206.818        1719.608  
 11  5 30 11  7 50.0000000  0 15R 7G28R 8G19G10R17G26R16G 7R 9R10G15
                                G 8R 6G 5                           
 105876008.450    82348023.571    19778527.248 8  19778525.543 8  19778523.943 7
      4246.872        3303.126  
 114419366.651    89157970.7104   21773281.676 7  21773280.94045  21773283.60045
      5686.480        4431.028  
 119083735.541    92620703.160    22238047.624 7  22238046.713 7  22238047.432 7
      7497.709        5831.544  
 129681545.965   101050571.0154   24677577.684 6  24677576.52943  24677579.67743
      4276.915        3332.664  
 125251469.201    97598565.2084   23834564.897 6  23834564.36543  23834570.67643
       -12.272          -9.533  
 124138627.986    96552281.109    23198270.888 5  23198268.686 5  23198271.984 4
      4399.529        3421.853  
 109076082.869    84994372.5724   20756489.135 8  20756488.63946  20756492.23346
      5823.335        4537.666  
 109072626.593    84834284.959    20418625.285 8  20418625.284 8  20418629.410 7
      1173.464         912.696  
 116725664.041    90955083.3614   22212156.835 7  22212156.70746  22212159.14745
      1062.955         828.273  
 104198947.424    81043647.060    19513115.154 8  19513114.988 8  19513119.005 7
      4847.777        3770.502  
 121949550.383    94849679.390    22877425.642 7  22877424.872 6  22877433.046 5
      7353.009        5719.006  
 126761969.029    98775573.9814   24122000.138 7  24121999.97743  24122004.05544
      7018.105        5468.668  
 108498264.959    84544120.8154   20646534.061 8  20646533.32046  20646536.69146
      2695.415        2100.328  
 113911918.060    88598173.422    21347044.627 7  21347044.622 7  21347048.302 7
       -62.752         -48.803  
 112358504.966    87552101.6444   21381114.038 7  21381113.84546  21381116.95246
      2204.581        1717.861  
 11  5 30 11  7 55.0000000  0 15R 7G28R 8G19G10R17G26R16G 7R 9R10G15
                                G 8R 6G 5                           
 105854783.907    82331515.593    19774562.361 7  19774560.600 8  19774559.296 7
      4243.167        3300.242  
 114390938.346    89135818.7984   21767871.855 7  21767871.26545  21767873.84145
      5684.885        4429.777  
 119046249.756    92591547.559    22231048.230 7  22231046.807 7  22231047.374 7
      7496.359        5830.500  
 129660167.141   101033912.1884   24673509.762 6  24673508.61943  24673511.44643
      4274.635        3330.864  
 125251529.541    97598612.2144   23834576.575 6  23834575.91343  23834582.45243
       -12.196          -9.497  
 124116639.286    96535178.797    23194159.302 5  23194158.370 5  23194162.453 4
      4396.187        3419.226  
 109046969.672    84971686.9734   20750948.953 8  20750948.55346  20750952.20246
      5822.096        4536.690  
 109066762.425    84829723.937    20417527.091 8  20417527.538 8  20417531.518 7
      1172.260         911.766  
 116720350.406    90950942.8644   22211145.943 7  22211145.54946  22211148.04346
      1062.608         828.009  
 104174714.668    81024799.363    19508577.443 8  19508577.083 8  19508580.901 8
      4845.351        3768.599  
 121912786.426    94821085.213    22870529.344 7  22870527.935 6  22870535.993 5
      7352.545        5718.636  
 126726877.461    98748229.9194   24115323.263 6  24115322.40744  24115326.43743
      7018.688        5469.116  
 108484791.816    84533622.2664   20643970.341 8  20643969.48846  20643972.84946
      2694.025        2099.234  
 113912235.779    88598420.535    21347104.014 7  21347104.080 7  21347108.181 7
       -64.291         -50.006  
 112347487.613    87543516.6924   21379017.461 8  21379017.36246  21379020.47546
      2202.342        1716.102  
 11  5 30 11  8  0.0000000  0 15R 7G28R 8G19G10R17G26R16G 7R 9R10G15
                                G 8R 6G 5                           
 105833577.584    82315021.781    19770600.499 8  19770599.233 8  19770597.564 7
      4239.414        3297.322  
 114362518.525    89113673.4824   21762464.111 8  21762463.44646  21762466.03645
      5683.100        4428.400  
 119008770.360    92562396.931    22224047.964 7  22224047.444 7  22224048.333 7
      7495.271        5829.652  
 129638799.485   101017262.0654   24669442.830 6  24669442.20443  24669445.92443
      4272.465        3329.184  
 125251589.298    97598658.7674   23834588.229 6  23834587.25543  23834593.90543
       -11.832          -9.205  
 124094667.916    96518089.956    23190054.595 5  23190052.970 5  23190056.960 4
      4392.531        3416.413  
 109017863.511    84949006.8464   20745410.220 8  20745409.87446  20745413.40146
      5820.462        4535.420  
 109060904.025    84825167.400    20416430.670 8  20416430.918 8  20416434.738 7
      1171.132         910.882  
 116715038.821    90946803.9684   22210134.772 8  22210134.82046  22210137.32046
      1062.126         827.635  
 104150493.520    81005960.695    19504041.436 8  19504041.429 8  19504044.994 7
      4843.025        3766.805  
 121876024.720    94792492.779    22863632.070 7  22863631.747 6  22863639.571 5
      7352.167        5718.353  
 126691784.229    98720884.5474   24108645.204 7  24108644.57344  24108648.51944
      7018.802        5469.205  
 108471325.412    84523128.9644   20641407.714 8  20641406.90546  20641410.42146
      2692.679        2098.194  
 113912561.193    88598673.623    21347165.242 7  21347165.231 7  21347169.592 7
       -65.741         -51.127  
 112336481.551    87534940.5324   21376923.266 8  21376922.97346  21376926.02746
      2200.107        1714.374  
 11  5 30 11  8  5.0000000  0 15R 7G28R 8G19G10R17G26R16G 7R 9R10G15
                                G 8R 6G 5                           
 105812389.312    82298542.012    19766643.103 8  19766641.423 7  19766639.751 7
      4235.809        3294.529  
 114334106.943    89091534.5864   21757057.903 8  21757057.27945  21757059.56745
      5681.729        4427.332  
 118971297.166    92533251.122    22217050.146 7  22217049.650 7  22217050.642 7
      7493.750        5828.471  
 129617442.930   101000620.5964   24665379.328 6  24665378.02843  24665381.60143
      4270.182        3327.407  
 125251648.469    97598704.8524   23834599.166 6  23834598.20243  23834605.52943
       -11.737          -9.131  
 124072713.757    96501014.514    23185951.515 5  23185950.567 5  23185954.241 4
      4389.033        3413.690  
 108988764.242    84926332.0934   20739872.632 8  20739872.46746  20739876.05046
      5818.996        4534.286  
 109055051.305    84820615.285    20415335.051 8  20415335.409 8  20415339.042 7
      1169.890         909.919  
 116709729.143    90942666.5504   22209124.511 8  22209124.50546  22209127.07546
      1061.589         827.233  
 104126283.800    80987130.918    19499508.138 8  19499507.831 8  19499511.360 8
      4840.845        3765.109  
 121839265.313    94763902.132    22856736.629 7  22856735.735 6  22856743.460 5
      7351.544        5717.860  
 126656689.182    98693537.7724   24101966.169 6  24101966.06544  24101969.88744
      7019.156        5469.463  
 108457865.641    84512640.8294   20638846.222 8  20638845.54246  20638849.06246
      2691.039        2096.916  
 113912894.057    88598932.505    21347228.146 7  21347227.813 7  21347232.476 7
       -67.467         -52.459  
 112325486.623    87526373.0504   21374830.841 8  21374830.73046  21374833.83346
      2197.794        1712.574  
 11  5 30 11  8 10.0000000  0 15R 7G28R 8G19G10R17G26R16G 7R 9R10G15
                                G 8R 6G 5                           
 105791219.105    82282076.301    19762688.606 8  19762686.710 8  19762684.773 7
      4232.185        3291.697  
 114305703.648    89069402.1504   21751653.041 8  21751652.32045  21751654.60245
      5679.786        4425.801  
 118933830.145    92504110.108    22210053.248 7  22210052.753 7  22210053.809 7
      7492.801        5827.743  
 129596097.406   100983987.7344   24661317.162 6  24661316.16643  24661319.75243
      4268.107        3325.788  
 125251706.874    97598750.3354   23834610.926 6  23834609.52143  23834616.85143
       -11.502          -8.957  
 124050776.795    96483952.427    23181852.258 5  23181851.261 5  23181854.564 4
      4385.338        3410.790  
 108959671.793    84903662.6534   20734336.291 8  20734336.36546  20734339.89346
      5817.804        4533.350  
 109049204.153    84816067.501    20414240.600 8  20414240.788 8  20414244.371 7
      1168.788         909.060  
 116704421.264    90938530.5404   22208114.112 8  22208114.27746  22208117.05746
      1061.390         827.054  
 104102085.535    80968310.047    19494976.215 8  19494976.204 8  19494979.991 7
      4838.563        3763.330  
 121802507.928    94735313.064    22849840.432 7  22849840.162 6  22849847.930 5
      7351.314        5717.683  
 126621592.357    98666189.6054   24095287.725 6  24095287.45044  24095291.27044
      7019.473        5469.746  
 108444412.420    84502157.8004   20636285.815 8  20636285.39846  20636288.98946
      2689.934        2096.039  
 113913234.567    88599197.336    21347291.956 7  21347292.096 7  21347296.238 7
       -68.869         -53.577  
 112314502.761    87517814.1964   21372740.859 8  21372740.53446  21372743.68646
      2195.635        1710.877  
 11  5 30 11  8 15.0000000  0 15R 7G28R 8G19G10R17G26R16G 7R 9R10G15
                                G 8R 6G 5                           
 105770066.909    82265624.589    19758736.880 8  19758735.196 7  19758733.233 7
      4228.699        3288.989  
 114277308.492    89047276.0504   21746249.713 8  21746249.09445  21746251.23746
      5678.312        4424.652  
 118896369.068    92474973.726    22203057.664 7  22203056.978 7  22203058.187 7
      7491.500        5826.713  
 129574762.784   100967363.3564   24657257.085 6  24657256.48443  24657259.91343
      4265.854        3324.055  
 125251764.415    97598795.1534   23834621.632 6  23834620.46144  23834627.47344
       -11.432          -8.903  
 124028856.834    96466903.573    23177756.629 5  23177754.919 5  23177758.026 4
      4382.272        3408.430  
 108930586.067    84880998.4544   20728801.329 8  20728801.52446  20728805.07046
      5816.394        4532.251  
 109043362.450    84811523.950    20413146.498 8  20413147.065 8  20413151.085 7
      1167.833         908.319  
 116699115.096    90934395.8574   22207104.496 8  22207104.65546  22207107.52446
      1061.097         826.830  
 104077898.477    80949497.895    19490446.646 8  19490446.759 8  19490450.658 7
      4836.239        3761.523  
 121765752.546    94706725.551    22842945.512 7  22842945.026 7  22842952.807 5
      7350.891        5717.375  
 126586493.537    98638839.8884   24088609.203 6  24088608.39243  24088612.14144
      7019.806        5469.982  
 108430965.653    84491679.7964   20633727.042 8  20633726.42446  20633730.14146
      2688.628        2095.043  
 113913582.257    88599467.742    21347357.689 7  21347357.328 7  21347361.428 7
       -70.180         -54.594  
 112303529.846    87509263.8674   21370652.652 8  21370652.48746  21370655.64646
      2193.564        1709.268  
 11  5 30 11  8 20.0000000  0 15R 7G28R 8G19G10R17G26R16G 7R 9R10G15
                                G 8R 6G 5                           
 105748932.609    82249186.799    19754788.524 8  19754787.025 7  19754785.075 7
      4225.142        3286.218  
 114248921.563    89025156.3664   21740847.558 8  21740847.11245  21740849.40846
      5676.709        4423.413  
 118858914.222    92445842.184    22196061.817 7  22196062.616 7  22196063.818 7
      7490.491        5825.939  
 129553439.118   100950747.5214   24653199.407 6  24653198.42143  24653202.48043
      4263.785        3322.426  
 125251821.080    97598839.2924   23834632.993 7  23834631.67044  23834638.14844
       -11.234          -8.741  
 124006953.942    96449867.981    23173663.240 5  23173662.028 5  23173665.164 4
      4378.866        3405.764  
 108901507.081    84858339.4984   20723268.176 8  20723267.99446  20723271.42846
      5815.090        4531.236  
 109037526.236    84806984.670    20412053.721 8  20412054.422 8  20412058.524 7
      1166.738         907.463  
 116693810.790    90930262.6304   22206094.849 8  22206095.14146  22206098.22546
      1060.692         826.516  
 104053722.800    80930694.590    19485919.369 8  19485919.219 8  19485923.364 7
      4834.120        3759.872  
 121728999.334    94678139.730    22836050.283 7  22836049.663 6  22836057.900 5
      7350.485        5717.041  
 126551392.825    98611488.6994   24081929.773 7  24081929.03644  24081932.66744
      7020.064        5470.148  
 108417525.374    84481206.8504   20631169.318 8  20631168.72246  20631172.55046
      2687.430        2094.090  
 113913937.460    88599744.006    21347424.053 7  21347423.939 7  21347427.723 7
       -71.736         -55.792  
 112292567.958    87500722.1334   21368566.631 8  21368566.48546  21368569.66546
      2191.216        1707.439  
 11  5 30 11  8 25.0000000  0 15R 7G28R 8G19G10R17G26R16G 7R 9R10G15
                                G 8R 6G 5                           
 105727815.865    82232762.661    19750843.673 8  19750842.223 7  19750840.412 7
      4221.578        3283.457  
 114220542.579    89003042.8714   21735447.279 8  21735446.62945  21735448.93645
      5674.982        4422.067  
 118821465.156    92416715.125    22189069.327 7  22189069.223 7  22189070.431 7
      7489.215        5824.943  
 129532126.212   100934140.0644   24649143.887 6  24649142.56643  24649147.02043
      4261.504        3320.643  
 125251876.659    97598882.5874   23834643.900 6  23834642.55144  23834648.69744
       -11.045          -8.599  
 123985067.856    96432845.466    23169574.824 6  23169572.786 5  23169575.188 4
      4375.202        3402.940  
 108872434.644    84835685.6574   20717736.169 8  20717735.69846  20717739.14246
      5813.900        4530.306  
 109031695.227    84802449.438    20410963.135 8  20410962.945 8  20410966.889 7
      1165.692         906.652  
 116688507.927    90926130.5204   22205085.661 8  22205085.81946  22205089.28846
      1060.507         826.369  
 104029558.246    80911899.936    19481393.972 8  19481393.781 8  19481398.016 7
      4831.699        3757.989  
 121692247.895    94649555.290    22829156.359 7  22829155.199 6  22829163.476 5
      7350.119        5716.746  
 126516289.920    98584135.7994   24075249.828 7  24075248.97144  24075252.86844
      7020.918        5470.848  
 108404091.353    84470738.7784   20628612.515 8  20628612.12846  20628616.12746
      2686.180        2093.136  
 113914299.697    88600025.736    21347492.300 7  21347491.977 7  21347495.704 7
       -73.254         -56.969  
 112281616.783    87492188.7424   21366482.616 8  21366482.63346  21366485.72646
      2189.122        1705.816  
 11  5 30 11  8 30.0000000  0 15R 7G28R 8G19G10R17G26R16G 7R 9R10G15
                                G 8R 6G 5                           
 105706717.349    82216352.704    19746902.229 8  19746900.836 7  19746898.849 7
      4217.857        3280.559  
 114192171.915    88980935.8584   21730048.567 8  21730047.98046  21730050.25546
      5673.350        4420.793  
 118784022.497    92387593.060    22182076.784 7  22182077.232 7  22182078.260 7
      7487.961        5823.968  
 129510824.372   100917541.2234   24645090.290 6  24645089.21843  24645093.20743
      4259.470        3319.083  
 125251931.453    97598925.2694   23834654.325 7  23834653.06044  23834659.54444
       -10.880          -8.459  
 123963198.919    96415836.293    23165485.647 5  23165485.452 5  23165488.825 4
      4371.874        3400.331  
 108843369.075    84813037.1624   20712205.178 8  20712204.80646  20712208.12646
      5812.495        4529.218  
 109025869.790    84797918.535    20409872.126 8  20409872.257 8  20409876.324 7
      1164.524         905.744  
 116683206.838    90921999.7934   22204076.857 8  22204076.85546  22204080.58846
      1060.201         826.140  
 104005404.915    80893114.012    19476870.719 8  19476870.573 8  19476874.618 7
      4829.597        3756.353  
 121655498.595    94620972.509    22822261.752 7  22822261.259 7  22822269.291 5
      7349.875        5716.577  
 126481185.213    98556781.4934   24068568.923 6  24068568.95444  24068572.85244
      7021.120        5471.013  
 108390663.878    84460275.8074   20626057.437 8  20626057.03146  20626060.91446
      2684.881        2092.119  
 113914669.373    88600313.252    21347561.550 7  21347561.107 7  21347564.799 7
       -74.745         -58.136  
 112270676.661    87483663.9654   21364401.079 8  21364400.78646  21364403.96046
      2186.947        1704.118  
 11  5 30 11  8 35.0000000  0 15R 7G28R 8G19G10R17G26R16G 7R 9R10G15
                                G 8R 6G 5                           
 105685636.871    82199956.776    19742964.209 8  19742962.812 8  19742960.893 7
      4214.358        3277.840  
 114163809.618    88958835.3684   21724651.469 8  21724650.71846  21724653.27546
      5671.703        4419.516  
 118746585.977    92358475.775    22175085.866 7  22175085.973 7  22175087.243 7
      7486.791        5823.061  
 129489533.665   100900951.0794   24641039.092 6  24641037.54743  24641041.19643
      4257.084        3317.230  
 125251985.567    97598967.4244   23834664.598 6  23834663.26744  23834669.61544
       -10.655          -8.309  
 123941347.229    96398840.545    23161403.004 5  23161401.757 5  23161405.823 4
      4368.816        3397.962  
 108814310.515    84790394.1314   20706675.041 8  20706675.12446  20706678.49846
      5811.205        4528.214  
 109020050.039    84793392.061    20408782.703 8  20408782.755 8  20408786.745 7
      1163.500         904.956  
 116677907.623    90917870.5214   22203068.575 7  22203068.43146  22203072.25346
      1059.688         825.728  
 103981263.036    80874337.000    19472349.476 8  19472349.569 7  19472353.651 8
      4827.273        3754.555  
 121618751.666    94592391.577    22815368.240 7  22815368.158 7  22815375.927 5
      7349.209        5716.049  
 126446078.827    98529425.8744   24061888.635 6  24061888.28644  24061892.47144
      7021.709        5471.471  
 108377243.123    84449818.0714   20623503.761 8  20623503.27846  20623507.02746
      2683.571        2091.101  
 113915046.640    88600606.670    21347631.956 7  21347631.693 7  21347635.837 7
       -75.933         -59.055  
 112259747.720    87475147.9114   21362320.723 8  21362320.93946  21362324.22046
      2184.789        1702.437  
 11  5 30 11  8 40.0000000  0 15R 7G28R 8G19G10R17G26R16G 7R 9R10G15
                                G 8R 6G 5                           
 105664574.499    82183574.930    19739029.521 8  19739028.152 7  19739026.168 7
      4210.680        3274.975  
 114135455.565    88936741.3024   21719255.938 8  21719255.16246  21719258.05146
      5670.171        4418.316  
 118709155.689    92329363.334    22168096.115 7  22168096.281 7  22168097.372 7
      7485.413        5821.985  
 129468253.890   100884369.4244   24636989.178 6  24636988.48443  24636991.76343
      4254.901        3315.495  
 125252038.771    97599008.8694   23834674.609 6  23834673.26944  23834679.46344
       -10.484          -8.160  
 123919512.566    96381858.023    23157324.755 6  23157322.096 5  23157325.312 4
      4365.410        3395.330  
 108785258.715    84767756.3664   20701146.818 8  20701146.74546  20701150.09746
      5809.761        4527.090  
 109014235.648    84788869.753    20407693.922 8  20407694.281 8  20407698.331 7
      1162.539         904.196  
 116672610.039    90913742.5244   22202060.667 7  22202060.34846  22202064.05446
      1059.415         825.521  
 103957132.526    80855568.825    19467830.579 8  19467830.650 7  19467834.723 7
      4824.997        3752.781  
 121582006.748    94563812.198    22808475.862 7  22808474.888 6  22808482.497 5
      7348.773        5715.709  
 126410970.499    98502068.7474   24055207.037 6  24055207.31344  24055211.56544
      7022.048        5471.724  
 108363828.778    84439365.3344   20620951.230 8  20620950.74346  20620954.39846
      2682.236        2090.051  
 113915431.152    88600905.714    21347703.891 7  21347703.505 7  21347708.360 7
       -77.666         -60.413  
 112248829.653    87466640.3194   21360243.054 8  21360243.30046  21360246.60746
      2182.693        1700.807  
 11  5 30 11  8 45.0000000  0 15R 7G28R 8G19G10R17G26R16G 7R 9R10G15
                                G 8R 6G 5                           
 105643530.378    82167207.276    19735097.774 8  19735096.993 8  19735095.056 7
      4207.102        3272.197  
 114107109.939    88914653.8074   21713861.826 8  21713861.06146  21713864.27346
      5668.396        4416.923  
 118671731.873    92300255.928    22161107.651 7  22161107.379 7  22161108.765 7
      7484.117        5820.974  
 129446985.302   100867796.5054   24632942.724 7  24632941.69943  24632944.14143
      4252.733        3313.815  
 125252091.267    97599049.7564   23834684.321 7  23834683.09644  23834689.38744
       -10.431          -8.129  
 123897695.171    96364888.939    23153244.788 5  23153244.493 5  23153248.044 4
      4361.808        3392.507  
 108756213.928    84745124.0644   20695619.748 8  20695619.71846  20695623.09246
      5808.172        4525.845  
 109008426.872    84784351.812    20406606.926 8  20406606.844 7  20406610.831 7
      1161.135         903.107  
 116667314.322    90909615.9814   22201053.071 7  22201052.71546  22201056.36746
      1059.048         825.229  
 103933013.509    80836809.587    19463313.880 8  19463313.996 8  19463318.170 7
      4822.624        3750.931  
 121545264.031    94535234.535    22801582.156 7  22801582.364 7  22801589.921 5
      7348.304        5715.346  
 126375860.522    98474710.3324   24048526.192 6  24048526.22243  24048530.20144
      7022.179        5471.828  
 108350421.114    84428917.8024   20618399.933 8  20618399.41646  20618403.01546
      2680.949        2089.045  
 113915823.187    88601210.610    21347776.475 7  21347776.547 7  21347781.295 7
       -79.074         -61.489  
 112237922.769    87458141.4424   21358167.357 8  21358167.71546  21358171.09746
      2180.283        1698.919  
 11  5 30 11  8 50.0000000  0 15R 7G28R 8G19G10R17G26R16G 7R 9R10G15
                                G 8R 6G 5                           
 105622504.633    82150853.916    19731170.819 8  19731169.232 7  19731167.265 7
      4203.314        3269.241  
 114078772.785    88892572.9154   21708469.081 8  21708468.55746  21708472.12146
      5666.570        4415.510  
 118634314.621    92271153.636    22154121.338 7  22154120.184 7  22154121.171 7
      7482.755        5819.918  
 129425727.942   100851232.3284   24628897.249 6  24628896.53443  24628899.51343
      4250.192        3311.850  
 125252143.092    97599090.1384   23834694.117 6  23834693.02244  23834699.24544
       -10.249          -7.981  
 123875895.099    96347933.322    23149172.389 6  23149171.384 5  23149173.215 4
      4358.365        3389.844  
 108727176.267    84722497.3184   20690093.875 8  20690094.03846  20690097.38346
      5806.776        4524.758  
 109002623.776    84779838.289    20405520.559 8  20405520.441 8  20405524.653 7
      1160.011         902.232  
 116662020.589    90905490.9854   22200045.975 7  22200045.49446  22200048.83246
      1058.462         824.773  
 103908906.095    80818059.379    19458799.708 8  19458799.613 8  19458803.777 7
      4820.222        3749.061  
 121508523.787    94506658.801    22794689.410 7  22794689.398 7  22794697.238 5
      7347.780        5714.936  
 126340748.948    98447350.6774   24041844.235 6  24041844.58643  24041848.65944
      7022.425        5472.015  
 108337020.179    84418475.5154   20615849.843 8  20615849.38946  20615852.82646
      2679.420        2087.862  
 113916222.718    88601521.342    21347851.047 7  21347850.899 7  21347856.155 7
       -80.692         -62.768  
 112227027.059    87449651.2794   21356094.016 8  21356094.33046  21356097.64046
      2177.982        1697.116  
 11  5 30 11  8 55.0000000  0 15R 7G28R 8G19G10R17G26R16G 7R 9R10G15
                                G 8R 6G 5                           
 105601497.428    82134514.981    19727247.087 8  19727245.022 7  19727242.826 7
      4199.709        3266.438  
 114050444.484    88870498.9194   21703078.244 8  21703077.56346  21703081.45346
      5664.855        4414.169  
 118596904.265    92242056.701    22147135.035 7  22147134.024 7  22147135.054 7
      7481.429        5818.879  
 129404482.184   100834677.1864   24624855.209 7  24624853.70643  24624856.32243
      4248.041        3310.155  
 125252194.665    97599130.3104   23834703.258 6  23834702.23643  23834708.90543
       -10.168          -7.933  
 123854112.913    96330991.619    23145101.942 5  23145099.917 5  23145102.439 4
      4354.890        3387.136  
 108698146.007    84699876.3374   20684569.895 8  20684569.80246  20684573.18646
      5805.474        4523.747  
 108996826.706    84775329.451    20404435.431 8  20404435.477 8  20404439.590 7
      1158.898         901.369  
 116656729.152    90901367.7784   22199038.942 7  22199038.56946  22199041.87446
      1058.154         824.544  
 103884810.601    80799318.439    19454287.389 8  19454287.542 8  19454291.562 7
      4818.001        3747.330  
 121471786.283    94478085.193    22787798.395 7  22787797.469 6  22787805.578 5
      7347.322        5714.584  
 126305636.169    98419990.0824   24035162.831 6  24035162.85144  24035166.87544
      7022.621        5472.154  
 108323626.305    84408038.7314   20613300.915 8  20613300.54246  20613303.99046
      2678.117        2086.844  
 113916630.279    88601838.312    21347927.798 7  21347927.341 7  21347932.480 7
       -82.173         -63.909  
 112216142.924    87441170.1224   21354022.849 7  21354023.25146  21354026.49346
      2175.791        1695.413  
 11  5 30 11  9  0.0000000  0 15R 7G28R 8G19G10R17G26R16G 7R 9R10G15
                                G 8R 6G 5                           
 105580508.392    82118190.175    19723325.822 8  19723324.243 7  19723322.072 7
      4196.061        3263.604  
 114022124.571    88848431.4684   21697688.712 8  21697688.34646  21697692.26546
      5663.179        4412.862  
 118559500.217    92212964.681    22140149.528 7  22140148.688 6  22140150.122 7
      7480.100        5817.849  
 129383247.629   100818130.7774   24620813.554 6  24620812.73443  24620815.97343
      4245.854        3308.458  
 125252245.483    97599169.8964   23834712.739 6  23834711.87343  23834718.74843
       -10.033          -7.829  
 123832348.008    96314063.358    23141032.401 5  23141031.691 5  23141035.754 4
      4351.459        3384.488  
 108669122.795    84677260.8524   20679047.078 8  20679046.77946  20679050.19946
      5803.996        4522.600  
 108991035.216    84770824.958    20403351.332 8  20403351.450 8  20403355.618 7
      1157.743         900.466  
 116651439.513    90897245.9774   22198032.511 7  22198032.04746  22198035.18846
      1057.716         824.192  
 103860726.579    80780586.429    19449777.334 8  19449777.516 8  19449781.521 7
      4815.579        3745.444  
 121435051.040    94449513.355    22780907.001 7  22780906.219 6  22780914.318 5
      7346.943        5714.294  
 126270521.683    98392628.1624   24028480.826 6  24028480.98544  24028484.87344
      7023.066        5472.501  
 108310239.072    84397607.1204   20610753.135 8  20610752.97246  20610756.47146
      2676.833        2085.835  
 113917045.159    88602160.985    21348005.900 7  21348005.230 7  21348010.080 7
       -83.559         -64.981  
 112205269.905    87432697.6334   21351953.940 8  21351954.10046  21351957.41046
      2173.482        1693.621  
 11  5 30 11  9  5.0000000  0 15R 7G28R 8G19G10R17G26R16G 7R 9R10G15
                                G 8R 6G 5                           
 105559537.909    82101879.797    19719407.736 8  19719406.750 7  19719404.554 7
      4192.257        3260.653  
 113993813.496    88826370.8914   21692301.612 7  21692300.87046  21692304.60945
      5661.237        4411.358  
 118522103.203    92183878.118    22133165.333 7  22133165.440 7  22133166.634 7
      7478.790        5816.840  
 129362024.644   100801593.3834   24616774.635 6  24616773.90743  24616777.37243
      4243.377        3306.540  
 125252295.998    97599209.2434   23834722.284 6  23834721.42243  23834728.36343
       -10.336          -8.040  
 123810600.627    96297148.747    23136970.214 5  23136968.788 5  23136972.254 4
      4347.731        3381.559  
 108640107.029    84654651.1654   20673525.705 8  20673525.35746  20673528.64046
      5802.372        4521.326  
 108985249.737    84766325.137    20402267.918 8  20402268.365 8  20402272.643 7
      1156.586         899.573  
 116646152.153    90893125.9494   22197026.491 7  22197026.04846  22197028.84246
      1057.177         823.791  
 103836654.475    80761863.685    19445269.632 8  19445269.618 8  19445273.448 7
      4813.326        3743.701  
 121398318.602    94420943.694    22774016.684 7  22774015.599 7  22774023.320 5
      7346.271        5713.758  
 126235405.992    98365265.2894   24021798.200 6  24021799.00244  24021802.66844
      7023.098        5472.531  
 108296858.891    84387180.9994   20608207.014 8  20608206.72246  20608210.29946
      2675.496        2084.806  
 113917467.972    88602489.832    21348085.313 7  21348084.987 7  21348089.233 7
       -85.481         -66.480  
 112194408.417    87424234.1314   21349887.601 8  21349887.17946  21349890.51346
      2171.209        1691.849  
 11  5 30 11  9 10.0000000  0 15R 7G28R 8G19G10R17G26R16G 7R 9R10G15
                                G 8R 6G 5                           
 105538585.515    82085583.488    19715493.858 8  19715492.686 8  19715490.521 7
      4188.774        3257.945  
 113965511.034    88804317.0264   21686916.011 8  21686915.45345  21686918.56345
      5659.731        4410.180  
 118484712.739    92154796.655    22126182.538 7  22126182.845 6  22126184.074 7
      7477.347        5815.712  
 129340812.982   100785064.8204   24612737.722 6  24612737.43843  24612741.06243
      4241.283        3304.885  
 125252345.847    97599248.0674   23834732.084 6  23834731.25043  23834737.65743
        -9.841          -7.668  
 123788870.750    96280247.713    23132911.490 6  23132909.520 5  23132912.282 4
      4344.188        3378.815  
 108611098.469    84632047.0964   20668005.603 8  20668005.17946  20668008.48646
      5800.966        4520.230  
 108979469.982    84761829.766    20401186.258 8  20401186.326 8  20401190.687 7
      1155.504         898.725  
 116640866.764    90889007.4614   22196020.403 8  22196020.27746  22196023.11246
      1056.895         823.550  
 103812594.088    80743150.051    19440763.779 8  19440763.677 8  19440767.658 7
      4811.048        3741.928  
 121361588.525    94392375.853    22767125.233 7  22767125.387 6  22767132.929 5
      7345.875        5713.447  
 126200288.757    98337901.2124   24015116.030 6  24015116.21344  24015120.01144
      7023.761        5473.060  
 108283485.420    84376760.1114   20605662.296 8  20605661.84046  20605665.47046
      2674.119        2083.731  
 113917898.210    88602824.455    21348165.871 7  21348165.954 7  21348169.956 7
       -86.555         -67.306  
 112183558.177    87415779.3964   21347823.080 7  21347822.51746  21347825.80646
      2168.945        1690.087  
 11  5 30 11  9 15.0000000  0 15R 7G28R 8G19G10R17G26R16G 7R 9R10G15
                                G 8R 6G 5                           
 105517651.499    82069301.473    19711583.560 8  19711582.061 7  19711579.753 7
      4184.969        3254.980  
 113937217.001    88782269.7234   21681531.940 8  21681531.38945  21681534.13446
      5658.077        4408.893  
 118447328.969    92125720.394    22119201.723 7  22119201.754 6  22119203.001 7
      7476.061        5814.710  
 129319612.551   100768545.0084   24608702.472 6  24608702.32843  24608707.15543
      4239.096        3303.165  
 125252394.947    97599286.3154   23834741.762 6  23834740.49943  23834747.38143
        -9.672          -7.545  
 123767158.144    96263360.123    23128851.964 6  23128850.984 5  23128854.172 4
      4340.626        3376.033  
 108582096.964    84609448.5234   20662486.806 8  20662486.38846  20662489.71046
      5799.616        4519.187  
 108973695.693    84757338.646    20400105.577 8  20400105.541 8  20400109.459 7
      1154.368         897.839  
 116635583.212    90884890.4044   22195015.101 7  22195014.80546  22195017.54546
      1056.612         823.331  
 103788545.225    80724445.375    19436259.563 8  19436259.875 8  19436263.854 7
      4808.598        3740.019  
 121324860.857    94363809.896    22760234.907 7  22760234.824 6  22760242.749 5
      7345.125        5712.882  
 126165169.884    98310535.8624   24008432.744 6  24008432.99843  24008436.92843
      7023.910        5473.176  
 108270118.612    84366344.4134   20603118.651 8  20603118.22246  20603121.81046
      2672.625        2082.566  
 113918335.991    88603164.943    21348248.543 7  21348248.167 7  21348251.697 7
       -88.301         -68.686  
 112172719.046    87407333.3164   21345760.391 7  21345759.91946  21345763.19246
      2166.767        1688.393  
 11  5 30 11  9 20.0000000  0 15R 7G28R 8G19G10R17G26R16G 7R 9R10G15
                                G 8R 6G 5                           
 105496735.900    82053033.788    19707676.782 8  19707674.954 8  19707672.654 7
      4181.384        3252.187  
 113908931.693    88760229.2224   21676149.395 8  21676148.94345  21676151.53346
      5656.207        4407.434  
 118409951.757    92096649.235    22112221.863 7  22112221.776 7  22112222.915 7
      7474.650        5813.614  
 129298423.562   100752034.1284   24604671.821 6  24604670.51243  24604674.48343
      4236.679        3301.270  
 125252443.526    97599324.1584   23834750.944 6  23834749.70143  23834756.56243
        -9.522          -7.403  
 123745463.084    96246486.197    23124796.750 5  23124795.587 5  23124798.886 4
      4337.494        3373.614  
 108553102.709    84586855.5984   20656969.172 8  20656969.03946  20656972.29046
      5798.267        4518.129  
 108967927.273    84752852.098    20399025.316 8  20399025.550 8  20399029.322 7
      1153.212         896.947  
 116630301.773    90880774.9914   22194010.190 8  22194009.84846  22194012.42346
      1056.087         822.923  
 103764508.081    80705749.815    19431758.050 8  19431758.262 8  19431762.403 7
      4806.303        3738.229  
 121288135.697    94335245.896    22753345.784 7  22753344.929 6  22753353.049 5
      7344.844        5712.661  
 126130049.664    98283169.4724   24001749.945 6  24001750.11343  24001753.57043
      7024.138        5473.367  
 108256758.621    84355934.0294   20600576.323 8  20600575.79146  20600579.62746
      2671.412        2081.621  
 113918781.433    88603511.391    21348331.856 7  21348331.774 7  21348335.107 7
       -89.716         -69.783  
 112161891.262    87398896.0774   21343699.419 7  21343699.43846  21343702.68646
      2164.456        1686.599  
 11  5 30 11  9 25.0000000  0 15R 7G28R 8G19G10R17G26R16G 7R 9R10G15
                                G 8R 6G 5                           
 105475838.845    82036780.522    19703772.362 8  19703770.998 7  19703768.957 7
      4177.453        3249.133  
 113880654.995    88738195.4324   21670768.358 8  21670767.87545  21670770.66846
      5654.538        4406.131  
 118372581.401    92067583.413    22105244.061 7  22105243.181 6  22105244.261 7
      7473.318        5812.579  
 129277245.889   100735532.0364   24600642.620 6  24600640.64243  24600643.84943
      4234.576        3299.659  
 125252491.412    97599361.4574   23834760.311 6  23834758.86543  23834765.61543
        -9.509          -7.392  
 123723785.562    96229625.905    23120746.671 5  23120745.007 5  23120748.316 4
      4333.408        3370.446  
 108524115.651    84564268.2814   20651453.021 8  20651452.96846  20651456.18146
      5796.569        4516.794  
 108962164.555    84748369.979    20397946.521 8  20397946.868 8  20397950.563 7
      1151.916         895.936  
 116625022.281    90876661.1004   22193005.621 7  22193005.35246  22193007.81745
      1055.685         822.618  
 103740482.563    80687063.303    19427259.022 8  19427259.054 8  19427263.001 7
      4804.001        3736.442  
 121251413.156    94306683.931    22746456.758 7  22746455.919 6  22746463.761 5
      7344.481        5712.361  
 126094927.911    98255801.8724   23995066.835 6  23995066.40443  23995070.18243
      7024.474        5473.585  
 108243405.401    84345528.9184   20598035.277 8  20598034.71846  20598038.54346
      2669.928        2080.468  
 113919234.278    88603863.594    21348416.972 7  21348416.468 7  21348420.112 7
       -91.499         -71.166  
 112151074.668    87390467.5514   21341640.931 8  21341641.12746  21341644.36346
      2162.017        1684.697  
 11  5 30 11  9 30.0000000  0 15R 7G28R 8G19G10R17G26R16G 7R 9R10G15
                                G 8R 6G 5                           
 105454959.965    82020541.392    19699871.982 8  19699870.323 7  19699868.532 7
      4173.973        3246.416  
 113852386.834    88716168.2944   21665389.156 8  21665388.58945  21665391.38145
      5652.837        4404.809  
 118335217.487    92038522.590    22098267.667 7  22098265.829 7  22098266.862 7
      7472.040        5811.588  
 129256079.542   100719038.7814   24596614.058 6  24596612.70043  24596616.01543
      4232.095        3297.745  
 125252538.566    97599398.1964   23834769.382 6  23834767.77843  23834774.28943
        -9.498          -7.404  
 123702125.498    96212779.183    23116698.320 6  23116697.315 5  23116700.863 4
      4330.274        3367.994  
 108495135.729    84541686.5244   20645938.105 8  20645938.30946  20645941.46746
      5795.201        4515.741  
 108956407.381    84743892.175    20396868.761 8  20396869.102 8  20396872.815 7
      1151.010         895.230  
 116619744.685    90872548.6864   22192001.154 8  22192001.13646  22192003.68346
      1055.324         822.326  
 103716468.597    80668385.781    19422762.356 8  19422762.074 8  19422765.946 7
      4801.666        3734.620  
 121214692.960    94278123.789    22739568.741 7  22739567.409 6  22739575.246 5
      7343.828        5711.859  
 126059804.566    98228433.0424   23988383.366 6  23988382.54743  23988386.31443
      7024.920        5473.971  
 108230058.846    84335129.0024   20595495.537 8  20595495.04246  20595498.77246
      2668.604        2079.428  
 113919694.539    88604221.562    21348503.053 7  21348502.662 7  21348506.444 7
       -92.803         -72.181  
 112140269.188    87382047.6944   21339585.284 8  21339584.96246  21339588.22646
      2160.060        1683.161  
 11  5 30 11  9 35.0000000  0 15R 7G28R 8G19G10R17G26R16G 7R 9R10G15
                                G 8R 6G 5                           
 105434099.711    82004316.747    19695974.361 8  19695973.273 7  19695971.925 7
      4170.203        3243.491  
 113824127.480    88694148.0204   21660011.546 8  21660010.93246  21660013.93546
      5650.901        4403.299  
 118297860.639    92009467.279    22091291.281 7  22091289.757 6  22091290.633 7
      7470.545        5810.423  
 129234924.744   100702554.5144   24592588.189 6  24592587.12543  24592590.19843
      4229.801        3295.951  
 125252585.236    97599434.5464   23834778.001 6  23834776.76043  23834783.47043
        -9.244          -7.222  
 123680483.063    96195946.195    23112654.424 5  23112653.299 5  23112656.315 4
      4326.760        3365.243  
 108466163.245    84519110.5634   20640424.909 8  20640425.02346  20640428.23246
      5793.712        4514.585  
 108950656.012    84739418.887    20395792.486 8  20395792.536 8  20395796.072 7
      1149.630         894.155  
 116614469.224    90868437.9364   22190997.517 8  22190997.31246  22190999.94346
      1054.775         821.898  
 103692466.511    80649717.495    19418267.889 8  19418267.300 8  19418271.258 7
      4799.293        3732.788  
 121177975.474    94249565.753    22732679.797 7  22732679.400 6  22732687.001 5
      7343.088        5711.292  
 126024679.944    98201063.2134   23981699.717 7  23981698.90043  23981702.54344
      7024.930        5473.983  
 108216719.226    84324734.4874   20592957.305 8  20592956.80046  20592960.34746
      2667.303        2078.425  
 113920162.398    88604585.448    21348590.581 7  21348590.453 7  21348594.153 7
       -94.405         -73.416  
 112129475.133    87373636.7414   21337531.308 7  21337530.88346  21337534.20246
      2157.729        1681.339  
 11  5 30 11  9 40.0000000  0 15R 7G28R 8G19G10R17G26R16G 7R 9R10G15
                                G 8R 6G 5                           
 105413258.435    81988106.862    19692081.251 7  19692080.049 7  19692078.698 7
      4166.329        3240.482  
 113795877.241    88672134.8524   21654635.833 8  21654635.15645  21654638.33745
      5648.973        4401.793  
 118260511.045    91980417.603    22084316.022 7  22084315.203 6  22084315.975 7
      7469.408        5809.534  
 129213781.791   100686079.4984   24588565.499 6  24588564.19343  24588567.27743
      4227.173        3293.922  
 125252631.678    97599470.7144   23834786.802 6  23834785.61443  23834791.90343
        -9.316          -7.254  
 123658858.604    96179127.166    23108615.790 6  23108613.001 5  23108615.290 4
      4323.371        3362.613  
 108437198.458    84496540.6014   20634913.399 8  20634913.24246  20634916.32646
      5792.229        4513.424  
 108944910.772    84734950.366    20394716.346 8  20394716.936 8  20394720.670 7
      1148.444         893.231  
 116609196.183    90864329.0664   22189993.994 7  22189993.92346  22189996.36846
      1054.279         821.509  
 103668476.404    80631058.519    19413774.947 8  19413774.750 8  19413778.675 7
      4796.871        3730.893  
 121141260.896    94221009.979    22725791.825 7  22725791.491 6  22725799.536 5
      7342.626        5710.930  
 125989554.352    98173692.6384   23975015.688 7  23975014.75143  23975018.54243
      7025.226        5474.188  
 108203386.810    84314345.5924   20590420.558 8  20590419.84846  20590423.20746
      2665.895        2077.320  
 113920638.273    88604955.558    21348679.903 7  21348679.597 7  21348683.737 7
       -95.907         -74.598  
 112118692.739    87365234.8734   21335479.176 7  21335479.01146  21335482.34346
      2155.382        1679.517  
 11  5 30 11  9 45.0000000  0 15R 7G28R 8G19G10R17G26R16G 7R 9R10G15
                                G 8R 6G 5                           
 105392436.058    81971911.683    19688191.924 8  19688190.371 7  19688188.626 7
      4162.696        3237.647  
 113767636.011    88650128.6994   21649261.604 8  21649261.17846  21649264.28646
      5647.367        4400.554  
 118223168.523    91951373.427    22077341.778 7  22077341.441 6  22077342.228 7
      7467.925        5808.390  
 129192650.519   100669613.5674   24584544.416 6  24584543.20243  24584546.43343
      4225.149        3292.334  
 125252677.806    97599506.6444   23834795.288 6  23834794.43743  23834800.68843
        -9.014          -7.012  
 123637251.976    96162322.007    23104576.314 6  23104574.900 5  23104577.573 4
      4319.755        3359.831  
 108408241.339    84473976.6154   20629403.425 8  20629402.91146  20629406.12846
      5790.674        4512.213  
 108939171.578    84730486.546    20393642.450 8  20393642.639 8  20393646.195 7
      1147.275         892.326  
 116603925.404    90860221.9644   22188990.874 7  22188990.82146  22188993.56646
      1054.008         821.309  
 103644498.351    80612408.921    19409284.654 8  19409284.594 8  19409288.242 7
      4794.439        3729.018  
 121104549.143    94192456.403    22718904.760 7  22718904.555 6  22718912.517 5
      7342.184        5710.598  
 125954427.687    98146321.2214   23968331.781 6  23968330.26344  23968333.96744
      7025.587        5474.503  
 108190061.567    84303962.2854   20587884.967 8  20587884.23246  20587887.42646
      2664.396        2076.171  
 113921121.986    88605331.767    21348770.204 7  21348769.948 7  21348774.043 7
       -97.609         -75.916  
 112107921.929    87356842.0274   21333429.696 8  21333429.40046  21333432.74146
      2153.005        1677.669  
 11  5 30 11  9 50.0000000  0 15R 7G28R 8G19G10R17G26R16G 7R 9R10G15
                                G 8R 6G 5                           
 105371632.210    81955730.916    19684305.548 8  19684304.202 7  19684302.321 7
      4158.851        3234.663  
 113739403.530    88628129.3714   21643889.356 8  21643888.76746  21643891.96846
      5645.664        4399.217  
 118185832.829    91922334.564    22070370.157 7  22070369.346 7  22070370.179 7
      7466.478        5807.263  
 129171530.749   100653156.6074   24580525.833 6  24580524.48243  24580527.52143
      4222.827        3290.503  
 125252723.349    97599542.1194   23834804.291 6  23834802.91943  23834809.29143
        -9.105          -7.083  
 123615663.000    96145530.573    23100540.947 5  23100539.772 5  23100542.754 4
      4316.212        3357.047  
 108379291.548    84451418.3364   20623894.402 8  20623893.94746  20623897.05546
      5789.226        4511.081  
 108933438.040    84726027.128    20392568.855 8  20392569.099 8  20392572.801 7
      1146.156         891.456  
 116598656.673    90856116.4544   22187988.138 7  22187988.08346  22187991.15146
      1053.551         820.956  
 103620532.118    80593768.513    19404796.832 8  19404796.638 8  19404800.224 7
      4792.070        3727.163  
 121067840.126    94163904.958    22712018.845 7  22712018.214 6  22712026.251 5
      7341.598        5710.129  
 125919299.691    98118948.7654   23961646.729 6  23961645.73544  23961649.20544
      7025.682        5474.551  
 108176743.170    84293584.3144   20585350.724 8  20585349.87646  20585353.08046
      2662.944        2075.029  
 113921613.275    88605713.859    21348862.604 7  21348862.211 7  21348866.125 7
       -98.882         -76.908  
 112097162.375    87348457.9524   21331382.467 8  21331381.94246  21331385.41146
      2150.888        1676.020  
 11  5 30 11  9 55.0000000  0 15R 7G28R 8G19G10R17G26R16G 7R 9R10G15
                                G 8R 6G 5                           
 105350847.336    81939564.905    19680422.340 8  19680421.368 8  19680419.563 7
      4155.237        3231.856  
 113711179.795    88606136.8494   21638518.881 7  21638518.39346  21638521.15946
      5643.965        4397.891  
 118148504.198    91893301.188    22063398.537 7  22063398.393 6  22063399.407 7
      7465.119        5806.203  
 129150422.447   100636708.5724   24576509.499 6  24576507.51843  24576511.29343
      4220.680        3288.822  
 125252768.256    97599577.0884   23834812.996 6  23834811.51043  23834817.84643
        -9.145          -7.116  
 123594091.573    96128752.794    23096512.140 5  23096508.928 5  23096511.114 4
      4313.086        3354.622  
 108350349.103    84428865.7854   20618386.551 8  20618386.36946  20618389.57346
      5787.825        4509.991  
 108927710.198    84721572.137    20391496.168 8  20391496.648 8  20391500.458 7
      1145.046         890.602  
 116593389.943    90852012.4974   22186985.440 7  22186985.89246  22186988.92146
      1053.182         820.667  
 103596577.515    80575137.155    19400310.840 8  19400310.696 8  19400314.117 7
      4789.917        3725.490  
 121031133.603    94135355.452    22705132.882 7  22705132.341 6  22705140.378 5
      7341.177        5709.809  
 125884170.306    98091575.2354   23954962.289 6  23954960.56043  23954964.46144
      7026.091        5474.860  
 108163431.549    84283211.6234   20582817.256 8  20582816.64846  20582819.96346
      2661.709        2074.056  
 113922111.996    88606101.743    21348956.660 7  21348956.055 7  21348959.483 7
      -100.367         -78.066  
 112086414.087    87340082.6584   21329336.932 8  21329336.67246  21329339.98546
      2148.629        1674.267  
 11  5 30 11 10  0.0000000  0 15R 7G28R 8G19G10R17G26R16G 7R 9R10G15
                                G 8R 6G 5                           
 105330078.914    81923411.687    19676542.566 8  19676541.265 7  19676539.785 7
      4151.719        3229.116  
 113682964.691    88584151.0544   21633149.862 8  21633149.22746  21633152.02646
      5642.225        4396.545  
 118111182.299    91864273.053    22056428.835 6  22056428.674 6  22056429.750 7
      7463.569        5804.996  
 129129325.483   100620269.3784   24572493.677 6  24572492.66343  24572497.28043
      4218.343        3287.022  
 125252812.400    97599611.4684   23834821.558 6  23834819.93143  23834826.19043
        -8.772          -6.832  
 123572537.649    96111988.618    23092482.600 6  23092481.179 5  23092483.928 4
      4308.831        3351.305  
 108321413.988    84406318.9444   20612880.164 8  20612880.22246  20612883.39546
      5786.184        4508.712  
 108921987.849    84717121.414    20390424.850 8  20390425.137 7  20390429.469 7
      1143.864         889.675  
 116588125.127    90847910.0354   22185983.848 7  22185983.86846  22185987.05146
      1052.809         820.367  
 103572634.533    80556514.841    19395827.188 8  19395826.840 8  19395830.376 7
      4787.286        3723.444  
 120994429.676    94106807.957    22698247.193 7  22698246.562 6  22698254.742 5
      7340.451        5709.241  
 125849039.478    98064200.5824   23948276.821 6  23948275.46943  23948279.14644
      7026.129        5474.920  
 108150126.652    84272844.1684   20580285.059 8  20580284.66346  20580288.15546
      2660.219        2072.898  
 113922618.107    88606495.374    21349051.227 7  21349051.024 7  21349054.414 7
      -102.080         -79.389  
 112075676.974    87331716.0784   21327293.382 7  21327293.49746  21327296.93646
      2146.221        1672.380  
 11  5 30 11 10  5.0000000  0 15R 7G28R 8G19G10R17G26R16G 7R 9R10G15
                                G 8R 6G 5                           
 105309330.509    81907274.034    19672666.541 7  19672665.300 7  19672663.739 7
      4147.809        3226.068  
 113654758.262    88562172.0174   21627782.240 8  21627781.58846  21627784.33346
      5640.471        4395.169  
 118073867.226    91835250.226    22049460.466 7  22049460.340 6  22049461.421 7
      7462.249        5803.971  
 129108239.897   100603839.0644   24568480.096 6  24568479.77543  24568484.83143
      4216.119        3285.275  
 125252855.813    97599645.2834   23834829.543 6  23834828.57043  23834834.48243
        -8.648          -6.732  
 123551001.022    96095237.922    23088456.108 5  23088456.011 5  23088460.276 4
      4306.100        3349.190  
 108292486.042    84383777.6864   20607375.654 8  20607375.55046  20607378.58046
      5784.845        4507.667  
 108916271.140    84712675.077    20389354.585 8  20389354.762 8  20389359.390 7
      1142.798         888.856  
 116582862.228    90843809.0664   22184982.101 7  22184982.43346  22184985.57246
      1052.335         819.994  
 103548703.161    80537901.557    19391345.246 8  19391345.163 8  19391348.657 7
      4785.146        3721.777  
 120957728.314    94078262.461    22691362.290 7  22691361.389 6  22691369.949 5
      7340.181        5709.035  
 125813907.176    98036824.7624   23941590.182 6  23941590.12643  23941593.82143
      7026.632        5475.285  
 108136828.462    84262481.9374   20577754.547 8  20577753.97746  20577757.59446
      2658.997        2071.946  
 113923131.698    88606894.818    21349146.453 7  21349147.152 7  21349150.686 7
      -103.401         -80.425  
 112064951.032    87323358.1924   21325251.881 7  21325252.40946  21325255.69846
      2144.093        1670.719  
 11  5 30 11 10 10.0000000  0 15R 7G28R 8G19G10R17G26R16G 7R 9R10G15
                                G 8R 6G 5                           
 105288600.549    81891150.731    19668794.051 8  19668792.885 7  19668791.292 7
      4144.174        3223.239  
 113626560.670    88540199.8674   21622415.852 8  21622415.43146  21622418.37146
      5638.631        4393.742  
 118036559.395    91806233.031    22042492.862 6  22042492.970 6  22042494.546 7
      7460.737        5802.800  
 129087165.903   100587417.7814   24564469.756 6  24564469.42643  24564474.22543
      4213.692        3283.364  
 125252898.621    97599678.6244   23834837.229 6  23834836.63243  23834842.92243
        -8.348          -6.504  
 123529482.118    96078501.005    23084436.765 5  23084434.816 5  23084439.446 4
      4302.159        3346.117  
 108263565.613    84361242.2914   20601872.634 8  20601872.10046  20601875.22446
      5783.373        4506.526  
 108910560.131    84708233.172    20388285.731 8  20388285.724 8  20388290.299 7
      1141.631         887.936  
 116577601.422    90839709.7254   22183981.031 7  22183981.33846  22183984.55146
      1052.098         819.826  
 103524783.597    80519297.456    19386865.341 8  19386865.585 8  19386869.337 7
      4782.585        3719.787  
 120921029.620    94049719.048    22684477.326 7  22684476.917 6  22684485.250 5
      7339.468        5708.467  
 125778773.628    98009447.9844   23934903.959 6  23934904.25144  23934908.10444
      7026.927        5475.488  
 108123537.122    84252125.0454   20575225.231 8  20575224.67246  20575228.43446
      2657.533        2070.803  
 113923652.732    88607300.051    21349245.069 7  21349244.654 7  21349248.606 7
      -104.955         -81.620  
 112054236.424    87315009.1394   21323212.888 8  21323213.47246  21323216.73246
      2141.754        1668.900  
 11  5 30 11 10 15.0000000  0 15R 7G28R 8G19G10R17G26R16G 7R 9R10G15
                                G 8R 6G 5                           
 105267888.595    81875041.436    19664925.222 7  19664923.898 8  19664922.180 7
      4140.520        3220.401  
 113598371.856    88518234.5574   21617051.816 8  21617051.21246  21617054.25246
      5636.896        4392.385  
 117999258.347    91777221.116    22035527.291 6  22035527.505 6  22035528.800 7
      7459.586        5801.896  
 129066103.404   100571005.4494   24560462.328 6  24560461.41543  24560465.67543
      4211.495        3281.674  
 125252940.783    97599711.4644   23834845.679 6  23834844.63843  23834850.95243
        -8.551          -6.644  
 123507980.866    96061777.806    23080418.104 5  23080416.914 5  23080421.155 4
      4298.209        3343.055  
 108234652.574    84338712.6544   20596370.513 8  20596370.14746  20596373.22846
      5781.829        4505.323  
 108904854.842    84703795.721    20387217.990 8  20387218.101 8  20387222.212 7
      1140.456         887.018  
 116572342.624    90835611.9534   22182980.425 8  22182980.50746  22182983.79246
      1051.713         819.514  
 103500875.780    80500702.486    19382388.342 8  19382388.486 8  19382392.366 7
      4780.427        3718.118  
 120884333.620    94021177.725    22677592.891 7  22677592.755 6  22677601.321 5
      7338.956        5708.075  
 125743638.800    97982070.2034   23928217.692 6  23928218.44143  23928222.13443
      7027.126        5475.713  
 108110252.618    84241773.4844   20572697.634 8  20572696.74146  20572700.47046
      2656.183        2069.757  
 113924181.224    88607711.085    21349343.715 7  21349343.562 7  21349347.231 7
      -106.335         -82.703  
 112043533.091    87306668.8714   21321176.465 7  21321176.70746  21321179.91646
      2139.547        1667.182  
 11  5 30 11 10 20.0000000  0 15R 7G28R 8G19G10R17G26R16G 7R 9R10G15
                                G 8R 6G 5                           
 105247196.483    81858947.574    19661059.465 8  19661058.417 7  19661056.611 7
      4136.680        3217.422  
 113570191.874    88496276.1294   21611689.294 8  21611688.65646  21611691.72846
      5635.206        4391.077  
 117961964.299    91748214.638    22028563.235 7  22028562.876 6  22028564.413 7
      7458.189        5800.810  
 129045052.445   100554602.1064   24556456.919 6  24556455.23043  24556459.40043
      4208.958        3279.688  
 125252982.266    97599743.7694   23834853.410 6  23834852.48143  23834858.80243
        -8.024          -6.237  
 123486497.270    96045068.342    23076401.271 5  23076401.293 5  23076405.606 4
      4295.082        3340.610  
 108205746.897    84316188.7514   20590869.556 8  20590869.56846  20590872.67746
      5780.424        4504.218  
 108899155.152    84699362.626    20386151.769 8  20386151.429 8  20386155.109 7
      1139.563         886.323  
 116567085.847    90831515.7564   22181980.135 7  22181980.14346  22181983.36446
      1051.328         819.212  
 103476979.681    80482116.631    19377912.921 8  19377913.421 8  19377917.543 7
      4778.143        3716.336  
 120847640.289    93992638.480    22670709.950 7  22670709.205 6  22670717.392 5
      7338.409        5707.649  
 125708502.601    97954691.3514   23921531.524 6  23921532.10543  23921535.61443
      7027.432        5475.906  
 108096974.884    84231427.1954   20570170.694 8  20570170.04346  20570173.82746
      2655.046        2068.878  
 113924717.199    88608127.941    21349444.908 7  21349444.081 7  21349447.400 7
      -107.766         -83.817  
 112032840.992    87298337.3664   21319142.030 8  21319142.05146  21319145.29746
      2137.416        1665.520  
