     2.10           OBSERVATION DATA    M (MIXED)           RINEX VERSION / TYPE
Pinnacle 1.00                           30-MAY-11 20:31     PGM / RUN BY / DATE
build April 19, 2002                                        COMMENT
-Unknown-           -Unknown-                               OBSERVER / AGENCY
         Begin Pinnacle project                             COMMENT
VG_GPS                                                      COMMENT
                                                            COMMENT
                                                            COMMENT
May 30, 2011 8:29:02 pm                                     COMMENT
                                                            COMMENT
                                                            COMMENT
C:\data\VG_GPS\projekt\Pinnacle.dbd                         COMMENT
         End Pinnacle project                               COMMENT
                                                            COMMENT
1003                                                        MARKER NAME
1003                                                        MARKER NUMBER
8QG4AWP4FEO         TPS HIPER           3.3 Dec,22,2008 p6  REC # / TYPE / VERS
-Unknown-           TPSPG_A1                                ANT # / TYPE
  3915391.0995  1194625.1628  4875755.3456                  APPROX POSITION XYZ
        1.3900        0.0000        0.0000                  ANTENNA: DELTA H/E/N
     1     1                                                WAVELENGTH FACT L1/2
     7    L1    L2    C1    P1    P2    D1    D2            # / TYPES OF OBSERV
     5.000                                                  INTERVAL
  2011     5    30    12    27   50.0000000     GPS         TIME OF FIRST OBS
  2011     5    30    12    58   25.0000000     GPS         TIME OF LAST OBS
    15                                                      LEAP SECONDS
    18                                                      # OF SATELLITES
   R 1   368   368   368   368   368   368   368            PRN / # OF OBS
   R 7   368   368   368   368   368   368   368            PRN / # OF OBS
   R 8   368   368   368   368   368   368   368            PRN / # OF OBS
   R 9   368   368   368   368   368   368   368            PRN / # OF OBS
   R10   368   368   368   368   368   368   368            PRN / # OF OBS
   R11   149   149   149   149   149   149   149            PRN / # OF OBS
   R16    36    31    36    34    31    36    31            PRN / # OF OBS
   R18   368   368   368   368   368   368   368            PRN / # OF OBS
   R19   368   368   368   368   368   368   368            PRN / # OF OBS
   G 5   310   310   310   310   310   310   310            PRN / # OF OBS
   G 8   368   368   368   368   368   368   368            PRN / # OF OBS
   G 9   368   368   368   368   368   368   368            PRN / # OF OBS
   G15   368   368   368   368   368   368   368            PRN / # OF OBS
   G17   368   368   368   368   368   368   368            PRN / # OF OBS
   G18   368   368   368   368   368   368   368            PRN / # OF OBS
   G26   368   368   368   368   368   368   368            PRN / # OF OBS
   G27   368   368   368   368   368   368   368            PRN / # OF OBS
   G28   368   368   368   368   368   368   368            PRN / # OF OBS
SE TPS e9dd5a07                                             COMMENT
                                                            END OF HEADER
 11  5 30 12 27 50.0000000  0 16G26G28R 9R 8R10G15R 7G 8G27R18G 5R19
                                R 1G17G18G 9                        
 105005941.665    81822831.3354   19981966.830 8  19981966.68847  19981969.89247
      2905.438        2263.971  
 111228731.538    86671758.7804   21166123.806 8  21166123.16146  21166126.70946
      2814.882        2193.409  
 105666734.763    82185257.858    19787984.307 8  19787984.635 8  19787989.184 8
      2021.878        1572.563  
 108503464.835    84391604.896    20262256.432 8  20262255.939 8  20262256.310 7
      3804.642        2959.143  
 108373978.799    84290896.708    20330683.650 7  20330683.233 7  20330689.375 6
      5478.130        4260.766  
 113048488.168    88089749.0124   21512411.482 8  21512411.66446  21512414.97946
      5622.664        4381.289  
 113581541.337    88341223.508    21217986.666 7  21217985.524 7  21217984.538 6
       146.592         114.016  
 117491460.029    91551805.9384   22357881.189 7  22357880.33344  22357884.64845
       919.160         716.237  
 120235479.552    93690003.5704   22880050.772 7  22880050.27245  22880055.27445
      5842.155        4552.312  
 118291944.697    92004862.070    22160065.331 6  22160065.744 6  22160070.365 6
      3499.369        2721.729  
 125152833.399    97521709.5784   23815792.469 7  23815793.03444  23815798.09644
        30.348          23.649  
 121071739.064    94166934.844    22633087.202 6  22633085.777 6  22633088.231 6
      6905.794        5371.146  
 123638463.416    96163275.074    23129131.755 6  23129131.606 6  23129137.120 5
      7252.325        5640.686  
 127990223.762    99732662.6914   24355730.420 6  24355729.98043  24355734.95243
      6723.268        5238.926  
 130669537.975   101820444.1674   24865587.293 6  24865586.39442  24865591.96542
      6078.121        4736.208  
 128453353.135   100093540.4584   24443859.958 6  24443859.67443  24443864.74343
      7118.708        5547.044  
 11  5 30 12 27 55.0000000  0 16G26G28R 9R 8R10G15R 7G 8G27R18G 5R19
                                R 1G17G18G 9                        
 104991412.463    81811509.8764   19979201.795 8  19979201.61247  19979205.11946
      2906.167        2264.550  
 111214653.587    86660788.9484   21163445.210 8  21163444.41746  21163447.73646
      2816.455        2194.648  
 105656620.446    82177391.164    19786090.609 8  19786090.695 8  19786094.962 7
      2023.807        1574.084  
 108484443.082    84376810.198    20258704.929 8  20258703.882 8  20258704.073 7
      3804.139        2958.769  
 108346582.510    84269588.488    20325544.795 8  20325543.923 7  20325550.516 6
      5480.328        4262.477  
 113020369.968    88067838.7244   21507060.866 8  21507060.99546  21507064.34346
      5624.517        4382.741  
 113580805.299    88340651.028    21217849.704 7  21217848.136 7  21217847.123 6
       147.856         115.001  
 117486856.369    91548218.6714   22357005.261 7  22357004.44244  22357008.74744
       922.255         718.632  
 120206261.007    93667235.8684   22874490.774 7  22874490.19745  22874494.91445
      5845.256        4554.749  
 118274448.739    91991254.113    22156787.863 6  22156787.486 6  22156792.824 6
      3499.101        2721.518  
 125152673.935    97521585.3034   23815762.329 7  23815762.29544  23815767.95444
        33.426          26.051  
 121037204.999    94140075.050    22626630.567 6  22626630.024 6  22626631.789 5
      6907.678        5372.610  
 123602196.399    96135067.419    23122347.271 6  23122347.024 6  23122352.260 5
      7254.191        5642.156  
 127956598.042    99706460.8494   24349330.642 6  24349330.65243  24349336.54743
      6726.713        5241.590  
 130639141.709   101796758.7634   24859804.309 6  24859803.26542  24859807.34942
      6080.222        4737.844  
 128417749.864   100065797.6704   24437085.129 6  24437084.09843  24437089.51843
      7122.450        5549.948  
 11  5 30 12 28  0.0000000  0 16G26G28R 9R 8R10G15R 7G 8G27R18G 5R19
                                R 1G17G18G 9                        
 104976878.626    81800184.8064   19976435.672 8  19976435.75046  19976439.35746
      2907.201        2265.354  
 111200568.364    86649813.4414   21160764.989 8  21160764.21346  21160767.36946
      2817.798        2195.689  
 105646495.750    82169516.403    19784194.836 8  19784194.835 8  19784198.968 7
      2025.990        1575.775  
 108465423.747    84362017.388    20255152.065 8  20255152.066 8  20255152.419 7
      3803.601        2958.346  
 108319175.641    84248272.042    20320402.600 7  20320402.167 7  20320409.030 6
      5482.403        4264.096  
 112992241.689    88045920.5814   21501707.590 8  21501708.36646  21501711.65446
      5626.582        4384.339  
 113580061.985    88340072.893    21217711.825 7  21217709.614 7  21217708.432 6
       149.418         116.220  
 117482237.794    91544619.7764   22356126.050 7  22356125.62844  22356129.83444
       925.153         720.898  
 120177026.656    93644455.8644   22868927.734 7  22868927.03145  22868931.73545
      5848.564        4557.326  
 118256954.498    91977647.479    22153510.611 6  22153510.339 6  22153515.545 6
      3498.661        2721.177  
 125152498.029    97521448.2114   23815728.855 7  23815728.72544  23815734.56644
        36.926          28.792  
 121002662.469    94113208.654    22620173.707 6  22620171.661 5  22620174.833 5
      6909.328        5373.913  
 123565920.000    96106852.453    23115561.102 6  23115561.080 6  23115565.904 5
      7256.201        5643.706  
 127922954.889    99680245.4334   24342928.431 6  24342928.56343  24342934.89843
      6730.211        5244.316  
 130608734.658   101773064.9644   24854017.218 6  24854016.79442  24854020.87042
      6082.563        4739.604  
 128382127.852   100038040.2714   24430306.111 6  24430305.27843  24430310.83643
      7126.182        5552.863  
 11  5 30 12 28  5.0000000  0 16G26G28R 9R 8R10G15R 7G 8G27R18G 5R19
                                R 1G17G18G 9                        
 104962340.563    81788856.4394   19973669.479 8  19973669.27846  19973672.76846
      2908.220        2266.153  
 111186476.452    86638832.7304   21158083.630 8  21158082.85546  21158085.78346
      2819.066        2196.683  
 105636361.344    82161634.083    19782296.888 8  19782296.797 8  19782301.133 7
      2028.011        1577.347  
 108446407.338    84347226.844    20251600.818 8  20251600.735 8  20251601.360 7
      3803.050        2957.927  
 108291758.822    84226947.840    20315258.405 7  20315258.435 7  20315265.453 6
      5484.432        4265.672  
 112964103.961    88023995.0804   21496352.947 8  21496353.87246  21496357.17546
      5628.561        4385.897  
 113579313.423    88339490.669    21217571.721 7  21217569.959 7  21217568.634 6
       150.380         116.961  
 117477604.892    91541009.7154   22355244.531 7  22355243.88844  22355248.45944
       927.991         723.116  
 120147777.106    93621664.0114   22863361.255 7  22863361.03245  22863365.87445
      5851.480        4559.590  
 118239462.315    91964042.460    22150234.264 7  22150233.807 6  22150238.709 6
      3498.349        2720.942  
 125152306.322    97521298.8134   23815692.478 7  23815692.36844  23815697.97344
        40.016          31.203  
 120968111.982    94086336.074    22613715.146 5  22613712.840 5  22613716.063 5
      6910.827        5375.078  
 123529634.875    96078630.706    23108773.987 6  23108773.266 6  23108778.860 5
      7257.917        5645.048  
 127889294.901    99654016.8834   24336522.543 6  24336522.51343  24336529.33943
      6733.800        5247.129  
 130578317.458   101749363.2534   24848229.112 6  24848228.22042  24848233.20442
      6084.580        4741.207  
 128346487.706   100010268.7274   24423524.058 6  24423523.18443  24423528.57443
      7129.927        5555.769  
 11  5 30 12 28 10.0000000  0 16G26G28R 9R 8R10G15R 7G 8G27R18G 5R19
                                R 1G17G18G 9                        
 104947798.765    81777525.1674   19970902.195 8  19970902.03446  19970905.47146
      2908.588        2266.431  
 111172378.159    86627847.0484   21155400.828 8  21155400.16646  21155403.10646
      2820.262        2197.605  
 105626217.503    82153744.422    19780396.283 8  19780396.794 8  19780401.366 8
      2029.645        1578.617  
 108427394.300    84332438.927    20248050.736 8  20248050.415 7  20248050.690 7
      3802.267        2957.321  
 108264332.299    84205616.110    20310114.555 7  20310113.871 7  20310120.219 6
      5486.334        4267.152  
 112935957.192    88002062.5314   21490997.567 7  21490997.83646  21491001.08146
      5630.219        4387.175  
 113578557.921    88338903.044    21217429.190 7  21217427.786 7  21217427.411 6
       151.709         118.001  
 117472957.964    91537388.7174   22354360.165 6  22354359.52644  22354364.10044
       930.662         725.184  
 120118512.693    93598860.5744   22857792.276 7  22857792.13645  22857796.84045
      5854.254        4561.755  
 118221972.870    91950439.554    22146958.069 7  22146957.611 6  22146962.215 6
      3497.535        2720.314  
 125152099.077    97521137.2954   23815653.758 7  23815653.18444  23815658.68044
        42.897          33.424  
 120933553.964    94059457.616    22607254.051 6  22607253.229 6  22607255.116 5
      6912.280        5376.218  
 123493341.462    96050402.516    23101985.047 6  23101984.242 6  23101989.094 5
      7259.409        5646.214  
 127855618.455    99627775.4994   24330114.704 6  24330114.69543  24330120.45643
      6736.654        5249.333  
 130547890.381   101725653.8414   24842439.321 6  24842438.50342  24842442.95042
      6086.404        4742.662  
 128310829.771    99982483.3264   24416738.552 6  24416737.91043  24416742.82543
      7133.227        5558.332  
 11  5 30 12 28 15.0000000  0 16G26G28R 9R 8R10G15R 7G 8G27R18G 5R19
                                R 1G17G18G 9                        
 104933253.493    81766191.1844   19968134.612 8  19968134.22747  19968137.62846
      2909.396        2267.053  
 111158273.805    86616856.6354   21152716.693 7  21152716.02346  21152719.19246
      2821.452        2198.535  
 105616064.642    82145847.754    19778495.608 8  19778495.662 8  19778499.861 7
      2031.375        1579.944  
 108408384.949    84317653.873    20244501.707 8  20244501.018 8  20244500.938 7
      3801.468        2956.701  
 108236896.644    84184277.274    20304967.099 7  20304966.742 7  20304973.378 6
      5487.964        4268.404  
 112907801.658    87980123.1594   21485639.955 8  21485639.94846  21485643.23246
      5631.871        4388.468  
 113577797.081    88338311.273    21217288.004 7  21217285.619 7  21217285.199 6
       152.477         118.581  
 117468297.384    91533757.0914   22353472.476 7  22353472.46344  22353477.19344
       933.553         727.436  
 120089233.761    93576045.8314   22852221.004 7  22852220.66645  22852225.26345
      5857.118        4563.988  
 118204486.392    91936838.953    22143681.758 7  22143681.231 6  22143686.369 6
      3497.019        2719.894  
 125151876.593    97520963.9104   23815610.922 7  23815610.93144  23815616.36944
        45.899          35.748  
 120898988.831    94032573.632    22600793.047 6  22600791.945 6  22600793.868 5
      6913.491        5377.147  
 123457039.942    96022168.011    23095194.443 7  23095193.964 6  23095198.461 5
      7261.074        5647.476  
 127821925.856    99601521.5204   24323703.601 6  24323703.73743  24323709.27743
      6740.032        5251.985  
 130517453.812   101701937.0344   24836646.898 6  24836646.66842  24836651.45742
      6088.597        4744.371  
 128275154.354    99954684.3114   24409949.545 6  24409948.94343  24409954.41843
      7136.622        5560.966  
 11  5 30 12 28 20.0000000  0 16G26G28R 9R 8R10G15R 7G 8G27R18G 5R19
                                R 1G17G18G 9                        
 104918705.115    81754854.7854   19965366.175 8  19965365.88047  19965369.11647
      2910.072        2267.593  
 111144163.746    86605861.7834   21150031.087 8  21150030.72646  21150034.06446
      2822.493        2199.351  
 105605902.981    82137944.238    19776593.058 8  19776592.859 8  19776596.612 7
      2033.119        1581.318  
 108389379.569    84302871.904    20240951.837 8  20240951.235 8  20240951.738 7
      3800.779        2956.172  
 108209452.046    84162931.476    20299819.063 7  20299818.248 7  20299824.979 6
      5489.941        4269.959  
 112879637.702    87958177.2144   21480281.064 8  21480280.69946  21480283.77846
      5633.694        4389.888  
 113577031.803    88337716.041    21217144.759 7  21217143.090 7  21217141.935 6
       153.634         119.496  
 117463623.513    91530115.1074   22352583.254 6  22352583.03744  22352588.06144
       936.019         729.378  
 120059940.606    93553220.0074   22846646.197 7  22846646.34145  22846650.93045
      5859.994        4566.212  
 118187003.139    91923240.865    22140407.108 7  22140406.281 6  22140411.181 6
      3496.247        2719.303  
 125151639.210    97520778.9254   23815565.502 7  23815565.82744  23815571.17244
        48.729          37.982  
 120864416.712    94005684.225    22594329.587 6  22594328.505 6  22594331.525 6
      6915.000        5378.321  
 123420730.826    95993927.599    23088402.011 7  23088401.891 6  23088405.721 5
      7262.531        5648.635  
 127788217.484    99575255.2624   24317288.382 6  24317288.61643  24317294.49343
      6743.209        5254.458  
 130487008.128   101678213.1204   24830853.113 5  24830852.72142  24830857.22242
      6090.249        4745.646  
 128239461.806    99926871.9474   24403157.826 6  24403156.89143  24403162.68143
      7140.292        5563.874  
 11  5 30 12 28 25.0000000  0 16G26G28R 9R 8R10G15R 7G 8G27R18G 5R19
                                R 1G17G18G 9                        
 104904154.041    81743516.2854   19962596.761 8  19962596.69646  19962600.09246
      2910.388        2267.828  
 111130048.247    86594862.6894   21147345.628 8  21147344.87546  21147347.85546
      2823.719        2200.303  
 105595732.892    82130034.172    19774688.169 8  19774688.308 8  19774692.147 8
      2034.784        1582.608  
 108370378.720    84288093.464    20237404.370 8  20237403.293 8  20237403.427 7
      3799.633        2955.279  
 108181998.779    84141578.940    20294668.308 7  20294667.960 7  20294674.756 6
      5491.461        4271.131  
 112851465.666    87936224.9794   21474920.446 8  21474919.73746  21474922.90146
      5635.180        4391.056  
 113576261.023    88337116.537    21217000.127 7  21216999.244 7  21216998.291 6
       154.643         120.281  
 117458936.576    91526462.9394   22351691.963 6  22351691.11744  22351695.74644
       938.535         731.320  
 120030633.596    93530383.3744   22841069.953 7  22841069.32145  22841073.97445
      5862.857        4568.457  
 118169523.552    91909645.632    22137131.802 7  22137131.642 6  22137136.396 6
      3495.451        2718.682  
 125151387.255    97520582.5694   23815517.407 7  23815518.07644  23815523.32244
        51.690          40.267  
 120829838.213    93978789.818    22587866.690 6  22587865.007 6  22587867.123 6
      6916.181        5379.263  
 123384414.476    95965681.545    23081609.261 7  23081608.303 6  23081611.672 5
      7263.815        5649.641  
 127754493.676    99548976.9844   24310872.370 6  24310871.57243  24310877.11743
      6746.093        5256.699  
 130456553.608   101654482.3244   24825057.833 6  24825057.23942  24825062.18242
      6091.723        4746.778  
 128203752.484    99899046.5164   24396361.030 6  24396361.44043  24396367.74743
      7143.495        5566.349  
 11  5 30 12 28 30.0000000  0 16G26G28R 9R 8R10G15R 7G 8G27R18G 5R19
                                R 1G17G18G 9                        
 104889600.362    81732175.7544   19959827.380 8  19959827.21547  19959830.70747
      2910.883        2268.220  
 111115927.610    86583859.5954   21144658.788 8  21144658.04746  21144660.75346
      2824.676        2201.049  
 105585554.734    82122117.823    19772782.390 8  19772782.594 8  19772786.347 7
      2036.311        1583.796  
 108351382.338    84273318.501    20233856.569 8  20233856.240 8  20233855.670 7
      3798.847        2954.658  
 108154537.201    84120219.937    20289517.097 7  20289516.420 7  20289522.833 6
      5493.108        4272.413  
 112823285.825    87914266.6734   21469557.339 8  21469557.25246  21469560.41346
      5636.725        4392.253  
 113575485.573    88336513.409    21216855.501 7  21216854.132 7  21216853.329 6
       155.537         120.961  
 117454236.909    91522800.8594   22350797.333 6  22350796.74044  22350801.30644
       941.238         733.429  
 120001313.008    93507536.1704   22835490.710 7  22835489.92845  22835494.53345
      5865.599        4570.595  
 118152047.934    91896053.485    22133858.425 7  22133857.652 6  22133862.651 6
      3494.520        2717.965  
 125151120.971    97520375.0514   23815467.832 7  23815467.43945  23815472.65644
        54.590          42.542  
 120795253.596    93951890.693    22581401.233 6  22581399.730 6  22581402.382 6
      6917.410        5380.216  
 123348090.924    95937429.905    23074812.228 6  23074812.013 6  23074816.773 5
      7265.483        5650.920  
 127720754.700    99522686.8884   24304451.935 6  24304452.10343  24304456.82643
      6749.393        5259.262  
 130426090.553   101630744.8744   24819261.681 6  24819260.97242  24819265.06942
      6093.421        4748.160  
 128168026.612    99871208.1804   24389563.190 6  24389563.40543  24389569.25343
      7146.830        5568.955  
 11  5 30 12 28 35.0000000  0 16G26G28R 9R 8R10G15R 7G 8G27R18G 5R19
                                R 1G17G18G 9                        
 104875044.485    81720833.5074   19957057.618 8  19957057.46747  19957061.01847
      2911.461        2268.672  
 111101802.196    86572852.7814   21141970.695 8  21141970.10946  21141972.72746
      2825.697        2201.841  
 105575368.791    82114195.423    19770874.906 8  19770874.893 8  19770878.913 8
      2038.096        1585.178  
 108332391.027    84258547.484    20230310.442 8  20230310.008 8  20230309.568 7
      3797.882        2953.906  
 108127067.657    84098854.740    20284363.936 8  20284363.277 7  20284369.566 6
      5494.834        4273.759  
 112795098.550    87892302.5654   21464193.520 8  21464193.39946  21464196.50046
      5638.333        4393.504  
 113574705.815    88335906.912    21216710.258 7  21216708.579 7  21216707.884 6
       156.503         121.741  
 117449524.856    91519129.1054   22349900.658 6  22349900.41844  22349904.86444
       943.709         735.355  
 119971979.182    93484678.6464   22829908.515 7  22829907.93745  22829912.62145
      5868.179        4572.611  
 118134576.509    91882464.584    22130585.134 7  22130584.570 6  22130589.756 6
      3493.993        2717.555  
 125150840.704    97520156.6424   23815413.670 7  23815414.16345  23815419.31445
        57.539          44.819  
 120760662.935    93924986.845    22574933.958 5  22574933.384 5  22574936.143 6
      6919.147        5381.561  
 123311760.909    95909173.232    23068015.828 6  23068015.186 6  23068020.528 5
      7266.634        5651.831  
 127687000.953    99496385.2894   24298028.194 6  24298027.98643  24298033.63143
      6752.428        5261.622  
 130395619.363   101607001.0964   24813462.553 6  24813462.27542  24813466.26542
      6095.082        4749.395  
 128132284.635    99843357.2844   24382761.389 6  24382761.90043  24382767.07643
      7150.256        5571.641  
 11  5 30 12 28 40.0000000  0 16G26G28R 9R 8R10G15R 7G 8G27R18G 5R19
                                R 1G17G18G 9                        
 104860486.508    81709489.6254   19954287.548 8  19954287.32946  19954290.74546
      2911.850        2268.984  
 111087672.065    86561842.2914   21139281.664 8  21139280.97246  21139283.76046
      2826.471        2202.455  
 105565175.095    82106266.986    19768966.240 8  19768965.773 8  19768970.132 7
      2039.422        1586.228  
 108313404.798    84243780.418    20226765.481 8  20226764.672 8  20226764.051 7
      3796.790        2953.057  
 108099590.320    84077483.484    20279209.181 7  20279208.705 7  20279214.733 6
      5496.225        4274.837  
 112766903.921    87870332.7214   21458827.765 8  21458828.07246  21458831.29146
      5639.666        4394.552  
 113573922.404    88335297.592    21216564.230 7  21216562.384 7  21216561.767 6
       157.216         122.288  
 117444800.440    91515447.7374   22349001.733 6  22349001.34244  22349005.66244
       946.104         737.232  
 119942632.150    93461810.8364   22824323.504 7  22824323.36245  22824327.97345
      5870.760        4574.627  
 118117109.399    91868879.051    22127312.767 7  22127312.420 6  22127317.351 6
      3493.023        2716.791  
 125150546.470    97519927.3614   23815357.963 7  23815357.99144  23815363.42444
        60.346          47.046  
 120726066.709    93898078.697    22568466.583 6  22568465.787 5  22568467.998 5
      6919.985        5382.223  
 123275424.202    95880911.366    23061218.008 6  23061217.434 6  23061222.648 5
      7268.146        5653.005  
 127653232.532    99470072.2484   24291601.067 6  24291601.39243  24291607.61143
      6754.938        5263.590  
 130365140.094   101583251.0304   24807662.953 6  24807661.82542  24807666.48442
      6096.608        4750.610  
 128096526.504    99815493.8104   24375957.395 6  24375957.30343  24375962.54943
      7153.317        5574.040  
 11  5 30 12 28 45.0000000  0 16G26G28R 9R 8R10G15R 7G 8G27R18G 5R19
                                R 1G17G18G 9                        
 104845926.997    81698144.5514   19951516.734 8  19951516.74747  19951520.05046
      2912.039        2269.121  
 111073537.783    86550828.5654   21136592.015 8  21136591.20246  21136593.98746
      2827.278        2203.072  
 105554974.206    82098332.959    19767055.547 8  19767055.386 7  19767059.575 8
      2040.855        1587.325  
 108294424.034    84229017.598    20223219.791 8  20223219.760 8  20223219.581 7
      3795.552        2952.082  
 108072105.578    84056106.461    20274053.293 8  20274052.773 7  20274058.546 6
      5497.640        4275.943  
 112738702.498    87848357.5904   21453461.842 8  21453461.53646  21453464.70546
      5640.977        4395.568  
 113573134.098    88334684.450    21216416.853 7  21216414.950 7  21216414.352 6
       158.240         123.090  
 117440064.245    91511757.1784   22348100.782 7  22348100.27444  22348104.68544
       948.478         739.068  
 119913272.499    93438933.1904   22818735.907 7  22818736.19945  22818740.89245
      5873.173        4576.483  
 118099647.068    91855297.236    22124041.823 7  22124041.501 6  22124047.094 6
      3491.690        2715.767  
 125150238.867    97519687.6624   23815300.137 7  23815299.71544  23815304.73344
        62.710          48.861  
 120691465.315    93871166.474    22561997.445 5  22561996.307 5  22561999.626 5
      6920.753        5382.809  
 123239081.639    95852644.939    23054418.866 6  23054418.504 6  23054423.728 5
      7268.845        5653.542  
 127619449.906    99443748.1544   24285172.489 6  24285172.53643  24285178.82643
      6758.079        5266.035  
 130334653.334   101559495.1274   24801860.398 6  24801860.36842  24801864.95942
      6097.904        4751.575  
 128060752.854    99787618.2454   24369150.109 6  24369149.92743  24369154.91443
      7156.371        5576.390  
 11  5 30 12 28 50.0000000  0 16G26G28R 9R 8R10G15R 7G 8G27R18G 5R19
                                R 1G17G18G 9                        
 104831366.425    81686798.6504   19948746.249 8  19948745.87546  19948749.25946
      2912.267        2269.293  
 111059399.797    86539811.9444   21133901.481 8  21133900.87846  21133903.67846
      2828.022        2203.650  
 105544766.628    82090393.726    19765143.500 8  19765143.829 8  19765148.012 8
      2042.367        1588.515  
 108275449.480    84214259.618    20219677.288 8  20219676.501 8  20219676.546 7
      3794.277        2951.110  
 108044613.936    84034724.074    20268895.910 8  20268895.183 7  20268901.397 6
      5498.869        4276.898  
 112710494.751    87826377.5274   21448093.939 8  21448093.83546  21448096.85946
      5642.199        4396.513  
 113572342.511    88334068.760    21216268.120 7  21216266.949 7  21216266.438 6
       158.303         123.133  
 117435316.720    91508057.8074   22347197.308 6  22347196.75244  22347201.23544
       950.606         740.733  
 119883900.752    93416046.1244   22813146.475 7  22813146.78445  22813151.73845
      5875.583        4578.361  
 118082190.176    91841719.666    22120770.845 7  22120770.921 7  22120776.857 6
      3490.980        2715.207  
 125149918.352    97519437.8854   23815239.187 7  23815238.75845  23815243.82145
        65.415          50.974  
 120656859.316    93844250.660    22555527.700 6  22555527.851 5  22555531.349 5
      6921.855        5383.671  
 123202733.539    95824374.201    23047620.571 6  23047619.357 6  23047624.220 5
      7270.156        5654.556  
 127585653.689    99417413.4344   24278741.957 6  24278742.24643  24278747.62343
      6760.940        5268.287  
 130304159.524   101535733.7314   24796058.420 6  24796058.17742  24796062.47342
      6099.502        4752.836  
 128024964.135    99759730.9424   24362339.750 6  24362339.24843  24362344.88443
      7159.203        5578.609  
 11  5 30 12 28 55.0000000  0 16G26G28R 9R 8R10G15R 7G 8G27R18G 5R19
                                R 1G17G18G 9                        
 104816805.022    81675452.0984   19945975.194 8  19945974.96747  19945978.15146
      2912.422        2269.425  
 111045258.301    86528792.5944   21131210.352 8  21131209.56446  21131212.57946
      2828.721        2204.199  
 105534552.570    82082449.455    19763231.129 8  19763230.924 8  19763235.276 7
      2043.449        1589.355  
 108256481.264    84199506.554    20216135.101 8  20216134.385 8  20216134.311 7
      3792.896        2950.037  
 108017115.778    84013336.622    20263737.139 8  20263736.689 7  20263742.666 6
      5500.242        4277.966  
 112682280.969    87804392.7624   21442724.655 8  21442724.89446  21442728.01846
      5643.403        4397.461  
 113571549.273    88333451.797    21216119.483 7  21216118.559 7  21216118.325 6
       158.999         123.665  
 117430558.076    91504349.7834   22346292.508 6  22346291.45744  22346295.71844
       952.841         742.484  
 119854517.075    93393149.7554   22807555.212 7  22807555.19445  22807560.14345
      5877.972        4580.239  
 118064738.937    91828146.493    22117502.073 7  22117501.655 7  22117507.508 6
      3489.745        2714.244  
 125149585.157    97519178.2344   23815175.056 7  23815175.29744  23815180.29544
        67.874          52.898  
 120622249.040    93817331.575    22549058.924 6  22549057.921 5  22549061.353 6
      6922.508        5384.161  
 123166380.313    95796099.485    23040820.138 6  23040819.060 6  23040823.926 5
      7271.285        5655.445  
 127551844.027    99391068.2684   24272308.235 6  24272308.38843  24272313.59543
      6763.023        5269.897  
 130273658.944   101511967.0484   24790254.078 6  24790254.27542  24790258.74942
      6100.731        4753.813  
 127989160.636    99731832.1274   24355526.435 6  24355525.97343  24355531.53043
      7162.372        5581.061  
 11  5 30 12 29  0.0000000  0 16G26G28R 9R 8R10G15R 7G 8G27R18G 5R19
                                R 1G17G18G 9                        
 104802243.014    81664105.0784   19943204.071 8  19943203.90447  19943207.15247
      2912.500        2269.481  
 111031113.617    86517770.7604   21128518.285 8  21128517.91446  21128520.87146
      2829.368        2204.703  
 105524332.307    82074500.359    19761317.079 8  19761317.181 8  19761321.258 7
      2044.587        1590.234  
 108237519.666    84184758.644    20212594.257 8  20212593.616 8  20212592.960 7
      3791.657        2949.065  
 107989611.296    83991944.253    20258577.419 7  20258576.929 7  20258583.066 6
      5501.517        4278.962  
 112654061.435    87782403.5144   21437355.128 8  21437354.94346  21437358.09646
      5644.460        4398.290  
 113570752.480    88332832.058    21215971.560 7  21215970.128 7  21215969.558 6
       159.841         124.335  
 117425788.631    91500633.2984   22345384.598 7  22345384.03444  22345388.13744
       955.005         744.166  
 119825121.741    93370244.3044   22801962.003 7  22801961.69145  22801966.34945
      5880.473        4582.202  
 118047293.621    91814577.915    22114233.940 7  22114233.740 7  22114239.708 6
      3488.337        2713.140  
 125149239.481    97518908.8554   23815109.273 7  23815109.44344  23815114.57944
        70.431          54.900  
 120587634.601    93790409.263    22542587.049 5  22542587.341 5  22542590.126 5
      6923.254        5384.783  
 123130022.138    95767820.928    23034017.556 6  23034017.012 6  23034021.857 5
      7272.078        5656.071  
 127518021.235    99364712.8614   24265872.348 6  24265872.46943  24265877.55143
      6765.917        5272.162  
 130243151.851   101488195.2884   24784449.486 6  24784448.67742  24784453.33542
      6101.999        4754.814  
 127953342.610    99703921.9694   24348710.778 6  24348710.20843  24348715.78443
      7165.094        5583.185  
 11  5 30 12 29  5.0000000  0 16G26G28R 9R 8R10G15R 7G 8G27R18G 5R19
                                R 1G17G18G 9                        
 104787680.587    81652757.7364   19940433.062 8  19940432.75646  19940436.08046
      2912.565        2269.526  
 111016965.777    86506746.4684   21125825.861 8  21125825.55646  21125828.71246
      2830.070        2205.248  
 105514105.863    82066546.460    19759402.033 8  19759402.131 8  19759406.357 7
      2045.929        1591.272  
 108218564.872    84170016.026    20209054.232 8  20209053.561 7  20209053.436 7
      3790.330        2948.029  
 107962100.547    83970547.003    20253416.455 8  20253415.853 7  20253422.116 6
      5502.884        4280.016  
 112625836.172    87760409.8044   21431983.475 8  21431983.83246  21431986.92346
      5645.753        4399.281  
 113569952.164    88332209.591    21215821.926 7  21215820.411 7  21215819.836 6
       160.245         124.618  
 117421008.460    91496908.4844   22344473.646 6  22344473.60844  22344478.76644
       957.223         745.918  
 119795714.877    93347329.8694   22796366.356 7  22796365.90645  22796370.44245
      5882.700        4583.908  
 118029854.210    91801013.932    22110967.534 7  22110966.849 7  22110972.717 6
      3487.380        2712.413  
 125148881.393    97518629.8204   23815040.931 7  23815041.23844  23815046.58544
        72.889          56.793  
 120553016.255    93763483.869    22536114.781 6  22536115.683 5  22536118.686 6
      6924.080        5385.400  
 123093659.175    95739538.631    23027214.719 6  23027214.737 6  23027219.430 5
      7273.107        5656.856  
 127484185.428    99338347.3004   24259433.548 6  24259433.21243  24259438.98943
      6768.469        5274.103  
 130212638.391   101464418.5654   24778642.834 6  24778641.96842  24778647.31842
      6103.416        4755.921  
 127917510.105    99676000.5494   24341891.970 6  24341891.25343  24341896.80743
      7168.077        5585.535  
 11  5 30 12 29 10.0000000  0 16G26G28R 9R 8R10G15R 7G 8G27R18G 5R19
                                R 1G17G18G 9                        
 104773117.549    81641409.9054   19937661.720 8  19937661.49246  19937664.68546
      2912.670        2269.630  
 111002814.760    86495719.6934   21123133.078 8  21123132.66146  21123135.89846
      2830.477        2205.571  
 105503873.267    82058587.770    19757486.294 8  19757486.250 8  19757489.975 8
      2047.075        1592.184  
 108199616.713    84155278.568    20205515.460 8  20205515.377 8  20205515.025 7
      3788.875        2946.912  
 107934583.434    83949144.810    20248254.410 8  20248254.038 7  20248259.821 6
      5503.912        4280.830  
 112597605.188    87738411.6364   21426611.457 8  21426611.63646  21426614.61446
      5646.696        4400.031  
 113569150.386    88331585.974    21215671.995 7  21215670.398 7  21215669.983 6
       160.611         124.925  
 117416217.391    91493175.1794   22343562.640 6  22343561.89044  22343567.08344
       959.145         747.365  
 119766296.387    93324406.3784   22790768.063 7  22790767.70645  22790772.18045
      5884.901        4585.627  
 118012420.759    91787454.601    22107702.312 7  22107701.237 7  22107706.704 6
      3486.147        2711.444  
 125148510.896    97518341.0934   23814970.639 7  23814970.66744  23814976.10044
        75.349          58.716  
 120518393.760    93736555.270    22529644.726 6  22529643.710 5  22529646.787 6
      6924.934        5386.062  
 123057291.378    95711252.579    23020411.971 6  23020411.396 6  23020415.730 5
      7273.994        5657.550  
 127450336.583    99311971.5834   24252992.823 6  24252991.91843  24252997.34143
      6770.971        5276.115  
 130182118.430   101440636.7914   24772834.884 6  24772834.18342  24772838.86442
      6104.522        4756.758  
 127881663.119    99648067.8294   24335070.917 6  24335070.23843  24335075.69843
      7170.787        5587.620  
 11  5 30 12 29 15.0000000  0 16G26G28R 9R 8R10G15R 7G 8G27R18G 5R19
                                R 1G17G18G 9                        
 104758554.626    81630062.1724   19934890.308 8  19934890.30546  19934893.59546
      2912.483        2269.465  
 110988661.204    86484690.9474   21120439.847 8  21120439.36046  21120442.35046
      2830.958        2205.936  
 105493635.155    82050624.794    19755569.047 8  19755568.839 8  19755572.866 7
      2048.205        1593.047  
 108180675.865    84140546.798    20201978.296 8  20201977.947 8  20201978.021 7
      3787.350        2945.712  
 107907060.802    83927738.326    20243091.244 8  20243090.720 7  20243096.742 6
      5505.134        4281.762  
 112569369.195    87716409.5644   21421238.292 8  21421238.43946  21421241.51946
      5647.574        4400.696  
 113568346.297    88330960.562    21215522.678 7  21215520.370 7  21215519.807 6
       161.056         125.242  
 117411416.191    91489433.9634   22342648.295 6  22342648.12344  22342653.29744
       961.243         749.017  
 119736866.974    93301474.3704   22785167.351 7  22785167.30045  22785172.08545
      5887.131        4587.368  
 117994993.786    91773900.273    22104437.023 7  22104436.336 7  22104442.027 6
      3484.768        2710.366  
 125148128.596    97518043.1954   23814897.506 7  23814897.99544  23814903.34644
        77.703          60.528  
 120483768.051    93709624.175    22523171.377 6  22523170.572 6  22523173.689 5
      6925.266        5386.305  
 123020919.476    95682963.322    23013608.046 6  23013607.628 6  23013611.714 5
      7274.901        5658.242  
 127416475.335    99285586.2054   24246548.683 6  24246548.76743  24246554.24243
      6773.398        5277.974  
 130151592.688   101416850.5164   24767026.113 6  24767025.77242  24767030.31242
      6105.636        4757.611  
 127845802.330    99620124.3724   24328246.634 6  24328246.17843  24328251.33043
      7173.492        5589.724  
 11  5 30 12 29 20.0000000  0 16G26G28R 9R 8R10G15R 7G 8G27R18G 5R19
                                R 1G17G18G 9                        
 104743991.863    81618714.5604   19932119.182 8  19932119.06047  19932122.26646
      2912.470        2269.455  
 110974505.177    86473660.2784   21117745.969 8  21117745.49446  21117748.39546
      2831.520        2206.376  
 105483391.587    82042657.568    19753650.424 8  19753650.420 8  19753654.512 7
      2049.307        1593.908  
 108161742.588    84125820.919    20198443.353 8  20198442.323 8  20198442.147 7
      3785.948        2944.614  
 107879532.584    83906327.495    20237927.287 7  20237926.542 7  20237932.647 6
      5506.118        4282.528  
 112541128.189    87694403.5814   21415864.334 8  21415864.33446  21415867.43446
      5648.604        4401.497  
 113567539.339    88330332.913    21215371.333 7  21215369.482 7  21215369.195 6
       161.488         125.610  
 117406604.964    91485684.9264   22341733.035 6  22341732.75144  22341737.90444
       963.326         750.648  
 119707426.681    93278533.8904   22779565.388 7  22779564.82445  22779569.68845
      5889.217        4589.003  
 117977573.516    91760351.182    22101173.095 7  22101173.184 7  22101177.845 6
      3483.376        2709.294  
 125147734.623    97517736.1734   23814821.577 6  23814822.94344  23814828.12844
        79.970          62.295  
 120449139.166    93682690.608    22516697.446 6  22516696.746 5  22516699.960 6
      6925.975        5386.857  
 122984543.534    95654670.944    23006803.524 6  23006802.792 6  23006807.177 5
      7275.535        5658.743  
 127382601.769    99259191.2424   24240103.209 6  24240102.99043  24240108.21643
      6775.706        5279.784  
 130121061.315   101393059.8224   24761215.568 6  24761215.44442  24761219.94042
      6106.646        4758.422  
 127809927.712    99592170.1324   24321419.740 6  24321419.84043  24321424.90243
      7176.242        5591.881  
 11  5 30 12 29 25.0000000  0 16G26G28R 9R 8R10G15R 7G 8G27R18G 5R19
                                R 1G17G18G 9                        
 104729429.580    81607367.3234   19929348.226 8  19929347.91047  19929351.12646
      2912.563        2269.532  
 110960346.891    86462627.8504   21115051.638 8  21115051.18546  21115054.20646
      2832.024        2206.766  
 105473142.743    82034686.246    19751730.967 8  19751730.980 7  19751735.182 8
      2050.399        1594.756  
 108142816.863    84111100.912    20194909.110 8  20194908.177 8  20194907.905 7
      3784.361        2943.396  
 107851998.971    83884912.469    20232761.232 7  20232760.814 7  20232767.354 6
      5507.274        4283.424  
 112512882.406    87672393.8884   21410489.282 7  21410489.39146  21410492.39946
      5649.775        4402.414  
 113566731.586    88329704.657    21215220.101 7  21215218.565 7  21215218.110 6
       161.913         125.924  
 117401783.800    91481928.1744   22340815.795 6  22340815.25244  22340820.47544
       965.237         752.151  
 119677975.766    93255585.1274   22773961.264 7  22773960.62345  22773965.60345
      5891.233        4590.572  
 117960160.190    91746807.482    22097912.085 7  22097911.341 7  22097916.195 6
      3481.847        2708.098  
 125147329.081    97517420.1464   23814745.374 7  23814746.03844  23814750.96844
        82.205          64.067  
 120414507.201    93655754.671    22510222.392 5  22510222.251 5  22510225.541 5
      6926.307        5387.095  
 122948163.763    95626375.584    22999996.734 6  22999997.015 6  23000001.649 5
      7276.438        5659.438  
 127348716.137    99232786.8814   24233654.040 6  24233654.51443  24233659.77243
      6778.344        5281.839  
 130090524.428   101369264.8584   24755404.816 6  24755404.49842  24755408.54342
      6107.979        4759.473  
 127774039.558    99564205.3474   24314589.698 6  24314590.16943  24314595.41143
      7179.088        5594.093  
 11  5 30 12 29 30.0000000  0 16G26G28R 9R 8R10G15R 7G 8G27R18G 5R19
                                R 1G17G18G 9                        
 104714867.772    81596020.4604   19926576.990 8  19926576.86246  19926580.06946
      2912.272        2269.303  
 110946186.373    86451593.6784   21112357.274 8  21112356.78646  21112359.61546
      2832.231        2206.935  
 105462888.675    82026710.858    19749810.678 8  19749810.583 8  19749814.877 7
      2051.270        1595.437  
 108123898.678    84096386.765    20191375.821 8  20191375.312 8  20191375.407 7
      3782.746        2942.132  
 107824460.108    83863493.347    20227594.692 7  20227594.502 7  20227601.055 6
      5508.377        4284.292  
 112484631.924    87650380.5254   21405113.113 8  21405113.40746  21405116.64846
      5650.647        4403.102  
 113565920.736    88329073.993    21215068.637 7  21215067.046 7  21215066.097 6
       162.249         126.198  
 117396952.818    91478163.7354   22339896.942 6  22339896.01544  22339901.06544
       967.250         753.713  
 119648514.195    93232628.0654   22768355.175 7  22768354.42145  22768359.18045
      5893.405        4592.267  
 117942753.756    91733269.120    22094650.043 7  22094650.144 7  22094655.074 6
      3480.810        2707.297  
 125146911.946    97517095.0874   23814666.194 6  23814666.37444  23814671.81044
        84.512          65.855  
 120379872.518    93628816.599    22503748.223 5  22503747.064 5  22503750.869 5
      6927.048        5387.713  
 122911780.199    95598077.273    22993191.161 6  22993190.419 6  22993194.781 5
      7276.997        5659.880  
 127314818.497    99206373.1514   24227203.961 6  24227204.08243  24227208.99243
      6780.895        5283.806  
 130059982.093   101345465.6294   24749592.314 6  24749592.53142  24749597.14242
      6108.814        4760.111  
 127738137.947    99536230.0634   24307757.858 6  24307758.05343  24307763.32143
      7181.562        5596.035  
 11  5 30 12 29 35.0000000  0 16G26G28R 9R 8R10G15R 7G 8G27R18G 5R19
                                R 1G17G18G 9                        
 104700306.586    81584674.0794   19923806.164 8  19923805.95246  19923809.25946
      2912.171        2269.231  
 110932023.828    86440557.9284   21109662.411 7  21109661.71546  21109664.67246
      2832.844        2207.415  
 105452629.624    82018731.597    19747889.440 8  19747889.366 8  19747893.645 7
      2052.236        1596.188  
 108104988.693    84081678.997    20187844.620 8  20187843.989 8  20187844.239 7
      3781.126        2940.877  
 107796916.282    83842070.375    20222428.015 8  20222427.543 7  20222433.898 6
      5509.282        4284.994  
 112456376.944    87628363.6574   21399736.317 8  21399736.69246  21399739.89646
      5651.472        4403.751  
 113565108.823    88328442.488    21214917.411 7  21214915.657 7  21214914.557 6
       162.560         126.449  
 117392112.184    91474391.8054   22338975.875 7  22338974.97744  22338979.78444
       969.176         755.202  
 119619042.267    93209662.9324   22762746.835 7  22762746.15345  22762750.75245
      5895.319        4593.750  
 117925354.532    91719736.374    22091390.726 7  22091390.650 7  22091395.530 6
      3478.949        2705.852  
 125146483.528    97516761.2314   23814584.831 7  23814584.83044  23814590.44644
        86.830          67.647  
 120345235.038    93601876.312    22497272.998 5  22497272.725 5  22497276.012 5
      6927.641        5388.160  
 122875393.155    95569776.241    22986383.410 6  22986383.491 6  22986387.925 5
      7277.669        5660.396  
 127280909.036    99179950.2124   24220749.676 6  24220750.99843  24220756.35043
      6783.100        5285.573  
 130029434.579   101321662.3894   24743779.905 6  24743779.68342  24743783.52142
      6109.815        4760.880  
 127702222.998    99508244.3914   24300924.271 6  24300923.76443  24300929.06743
      7184.424        5598.265  
 11  5 30 12 29 40.0000000  0 17G26G28R 9R 8R10G15R 7G 8G27R18G 5R19
                                R 1R16G17G18G 9                     
 104685746.705    81573328.7164   19921035.190 8  19921035.27747  19921038.53847
      2911.842        2268.972  
 110917859.966    86429521.1544   21106966.662 7  21106966.22246  21106969.45446
      2833.020        2207.551  
 105442366.220    82010748.950    19745967.432 8  19745967.586 8  19745971.654 7
      2053.096        1596.856  
 108086087.099    84066977.753    20184314.286 8  20184314.274 8  20184314.101 7
      3779.411        2939.548  
 107769368.099    83820644.015    20217260.249 7  20217259.629 7  20217266.058 6
      5510.054        4285.605  
 112428118.153    87606343.8194   21394359.113 8  21394359.32146  21394362.41446
      5652.200        4404.312  
 113564295.715    88327810.074    21214764.783 7  21214763.720 7  21214762.642 6
       162.615         126.474  
 117387262.629    91470612.9114   22338053.086 6  22338052.36744  22338056.82544
       970.721         756.419  
 119589560.595    93186690.2104   22757136.064 7  22757135.86145  22757140.62545
      5897.308        4595.303  
 117907962.962    91706209.601    22088132.168 7  22088132.192 7  22088137.526 6
      3477.519        2704.732  
 125146044.500    97516419.1184   23814501.076 7  23814501.26844  23814506.93144
        88.669          69.105  
 120310595.587    93574934.580    22490798.726 5  22490796.932 5  22490799.995 5
      6928.165        5388.588  
 122839003.188    95541472.935    22979576.446 6  22979575.902 6  22979580.143 5
      7278.249        5660.877  
 124439560.374                    23295350.515 4                                
        88.915                  
 127246988.541    99153518.6564   24214295.569 6  24214295.65243  24214301.80643
      6785.068        5287.053  
 129998882.520   101297855.5874   24737966.239 6  24737965.42542  24737969.74742
      6110.669        4761.600  
 127666295.474    99480248.9244   24294087.319 6  24294086.91943  24294092.79243
      7186.667        5599.978  
 11  5 30 12 29 45.0000000  0 17G26G28R 9R 8R10G15R 7G 8G27R18G 5R19
                                R 1R16G17G18G 9                     
 104671188.002    81561984.2734   19918264.647 8  19918264.72746  19918268.12046
      2911.587        2268.758  
 110903694.596    86418483.1984   21104271.562 8  21104270.79246  21104273.80446
      2833.289        2207.760  
 105432098.350    82002762.830    19744044.987 8  19744044.812 8  19744049.194 7
      2054.040        1597.581  
 108067193.923    84052283.064    20180786.719 8  20180786.283 8  20180786.038 7
      3777.830        2938.298  
 107741815.195    83799213.987    20212091.323 7  20212090.730 7  20212097.119 6
      5511.086        4286.409  
 112399855.432    87584320.9214   21388980.686 8  21388981.11546  21388984.25446
      5653.068        4404.996  
 113563481.738    88327176.972    21214612.603 7  21214611.837 7  21214610.502 6
       162.793         126.607  
 117382403.907    91466826.8934   22337128.616 7  22337127.77744  22337132.30944
       972.671         757.924  
 119560069.087    93163709.8184   22751524.595 7  22751523.77845  22751528.59245
      5899.284        4596.839  
 117890579.183    91692688.898    22084876.427 7  22084875.937 7  22084881.414 6
      3476.068        2703.603  
 125145594.622    97516068.5444   23814415.806 7  23814415.65444  23814421.29844
        91.002          70.919  
 120275954.024    93547991.179    22484322.048 5  22484320.518 5  22484323.949 5
      6928.481        5388.824  
 122802610.338    95513167.399    22972768.574 6  22972767.877 6  22972772.783 5
      7278.824        5661.323  
 124439108.483    96786010.625    23295265.040 5  23295266.230    23295272.467  
        92.236          71.751  
 127213056.736    99127078.2964   24207839.325 6  24207839.51543  24207845.55843
      6787.369        5288.848  
 129968325.831   101274045.1884   24732151.171 6  24732150.76842  24732155.20542
      6111.691        4762.335  
 127630355.182    99452243.5294   24287247.607 6  24287247.36943  24287253.53943
      7189.538        5602.208  
 11  5 30 12 29 50.0000000  0 17G26G28R 9R 8R10G15R 7G 8G27R18G 5R19
                                R 1R16G17G18G 9                     
 104656630.385    81550640.6744   19915494.854 8  19915494.60846  19915498.08846
      2911.467        2268.677  
 110889527.647    86407444.0164   21101575.771 7  21101574.96646  21101578.01146
      2833.509        2207.917  
 105421825.881    81994773.125    19742121.040 8  19742121.113 8  19742125.421 7
      2054.899        1598.254  
 108048309.226    84037594.966    20177260.017 8  20177259.514 8  20177259.438 7
      3776.181        2937.026  
 107714257.790    83777780.447    20206921.106 7  20206920.729 7  20206927.420 6
      5512.060        4287.172  
 112371588.684    87562294.8814   21383601.783 8  21383602.15946  21383605.21446
      5653.785        4405.542  
 113562666.365    88326542.789    21214461.191 7  21214459.860 7  21214458.677 6
       163.341         127.053  
 117377535.990    91463033.7024   22336202.203 7  22336201.58644  22336205.83144
       974.554         759.412  
 119530567.628    93140721.6734   22745910.265 7  22745909.87445  22745914.46945
      5901.391        4598.505  
 117873202.772    91679173.892    22081620.449 7  22081620.387 7  22081626.464 6
      3474.562        2702.454  
 125145133.854    97515709.4754   23814327.587 7  23814327.97644  23814333.66344
        93.235          72.635  
 120241310.303    93521046.037    22477845.860 5  22477845.166 5  22477847.422 5
      6928.881        5389.125  
 122766214.381    95484859.436    22965960.161 6  22965959.947 6  22965963.696 5
      7279.518        5661.844  
 124438642.544    96785648.183    23295178.853 5  23295178.486 5  23295185.587 4
        94.374          73.391  
 127179113.618    99100629.1244   24201380.023 6  24201379.65243  24201386.01543
      6790.075        5290.943  
 129937764.464   101250231.1264   24726336.163 6  24726334.22542  24726339.07542
      6112.944        4763.354  
 127594402.140    99424228.1784   24280406.702 6  24280406.15543  24280411.36643
      7191.839        5604.013  
 11  5 30 12 29 55.0000000  0 17G26G28R 9R 8R10G15R 7G 8G27R18G 5R19
                                R 1R16G17G18G 9                     
 104642074.532    81539298.4494   19912724.941 8  19912724.70347  19912728.27546
      2910.923        2268.251  
 110875359.748    86396404.0904   21098879.558 7  21098879.02446  21098881.96346
      2833.815        2208.168  
 105411549.428    81986780.331    19740196.672 8  19740196.642 8  19740200.895 7
      2055.671        1598.860  
 108029433.528    84022913.867    20173734.998 8  20173734.664 8  20173734.405 7
      3774.225        2935.506  
 107686696.440    83756343.848    20201750.714 8  20201750.706 7  20201756.588 6
      5512.701        4287.659  
 112343318.581    87540266.2324   21378222.289 8  21378222.44146  21378225.58846
      5654.323        4405.968  
 113561850.397    88325908.131    21214308.918 7  21214307.364 7  21214306.649 6
       163.120         126.877  
 117372659.498    91459233.8584   22335274.054 6  22335273.37444  22335277.91644
       976.177         760.654  
 119501056.873    93117726.2884   22740294.001 7  22740294.20145  22740298.87645
      5903.125        4599.852  
 117855834.735    91665665.423    22078366.219 7  22078366.517 7  22078372.653 6
      3472.692        2700.993  
 125144662.822    97515342.4254   23814237.751 7  23814238.33944  23814244.30144
        95.320          74.268  
 120206665.224    93494099.849    22471370.271 6  22471369.396 5  22471371.287 5
      6928.906        5389.166  
 122729816.154    95456549.719    22959151.150 6  22959151.178 6  22959155.370 5
      7279.826        5662.101  
 124438163.238    96785275.360    23295086.448 5  23295087.712 5  23295095.227 4
        97.601          75.908  
 127145159.860    99074171.6734   24194918.557 6  24194918.53143  24194924.93043
      6791.931        5292.421  
 129907199.011   101226413.8934   24720520.101 6  24720518.55242  24720523.83842
      6113.506        4763.798  
 127558436.911    99396203.3214   24273563.119 6  24273562.65843  24273567.29443
      7194.075        5605.767  
 11  5 30 12 30  0.0000000  0 17G26G28R 9R 8R10G15R 7G 8G27R18G 5R19
                                R 1R16G17G18G 9                     
 104627520.781    81527957.8604   19909955.485 8  19909955.27146  19909958.81246
      2910.568        2267.980  
 110861191.304    86385363.7414   21096183.296 7  21096182.92446  21096185.75846
      2833.802        2208.169  
 105401269.571    81978784.879    19738271.627 8  19738271.502 8  19738275.651 7
      2056.370        1599.405  
 108010567.152    84008240.014    20170211.636 8  20170211.349 8  20170211.518 7
      3772.369        2934.074  
 107659131.484    83734904.434    20196579.840 7  20196579.576 7  20196585.834 6
      5513.434        4288.229  
 112315045.561    87518235.3054   21372842.294 8  21372842.24646  21372845.51046
      5655.015        4406.521  
 113561034.137    88325273.258    21214155.821 7  21214154.852 7  21214154.277 6
       163.367         127.074  
 117367774.877    91455427.6494   22334345.056 7  22334344.04445  22334348.73345
       977.666         761.817  
 119471537.227    93094723.9674   22734677.239 7  22734676.82945  22734681.48945
      5904.903        4601.212  
 117838475.385    91652163.698    22075115.386 7  22075114.808 7  22075120.824 6
      3471.097        2699.751  
 125144181.907    97514967.6674   23814146.433 7  23814146.94744  23814152.48244
        97.240          75.791  
 120172018.965    93467152.744    22464893.700 6  22464892.500 6  22464894.517 5
      6929.483        5389.623  
 122693416.084    95428238.573    22952342.320 6  22952341.920 6  22952345.668 5
      7280.154        5662.333  
 124437670.996    96784892.513    23294993.724 5  23294996.192 5  23295002.799 4
       100.060          77.792  
 127111195.886    99047706.2424   24188455.723 6  24188455.48343  24188462.09243
      6793.870        5293.936  
 129876629.912   101202593.8254   24714703.353 6  24714701.72142  24714706.51342
      6114.261        4764.382  
 127522459.933    99368169.3244   24266717.250 6  24266716.64043  24266721.52043
      7196.667        5607.802  
 11  5 30 12 30  5.0000000  0 17G26G28R 9R 8R10G15R 7G 8G27R18G 5R19
                                R 1R16G17G18G 9                     
 104612968.920    81516618.7474   19907186.320 8  19907186.07946  19907189.61146
      2910.159        2267.652  
 110847021.941    86374322.6784   21093486.809 7  21093486.37546  21093489.42246
      2833.990        2208.299  
 105390985.807    81970786.393    19736345.472 8  19736345.463 8  19736349.868 7
      2057.130        1599.995  
 107991709.946    83993573.306    20166690.701 8  20166689.636 8  20166689.697 7
      3770.533        2932.627  
 107631562.689    83713462.042    20191407.644 7  20191407.522 7  20191413.721 6
      5514.014        4288.668  
 112286769.270    87496201.8294   21367461.660 7  21367461.43446  21367464.64246
      5655.544        4406.908  
 113560217.240    88324637.885    21214003.788 7  21214002.155 7  21214001.731 6
       163.356         127.063  
 117362881.747    91451614.8154   22333413.552 6  22333412.91644  22333417.35544
       979.409         763.156  
 119442008.365    93071714.4644   22729058.309 7  22729057.75245  22729062.20245
      5906.711        4602.625  
 117821124.237    91638668.360    22071864.690 7  22071864.614 7  22071869.956 6
      3469.337        2698.373  
 125143690.768    97514584.9454   23814052.736 7  23814053.46944  23814059.17544
        99.310          77.399  
 120137371.348    93440204.660    22458417.338 5  22458415.254 5  22458416.756 5
      6929.197        5389.398  
 122657013.789    95399925.697    22945531.977 6  22945531.156 6  22945536.385 5
      7280.526        5662.614  
 124437165.485    96784499.353    23294900.200 5  23294901.085 5  23294907.801 4
       102.524          79.762  
 127077221.305    99021232.5564   24181990.734 6  24181990.02743  24181996.66943
      6795.812        5295.459  
 129846056.820   101178770.6374   24708885.232 6  24708883.86442  24708889.00342
      6115.072        4764.986  
 127486470.868    99340125.9144   24259868.269 6  24259867.58143  24259873.44143
      7198.998        5609.590  
 11  5 30 12 30 10.0000000  0 17G26G28R 9R 8R10G15R 7G 8G27R18G 5R19
                                R 1R16G17G18G 9                     
 104598419.529    81505281.5584   19904417.787 8  19904417.58647  19904421.04447
      2909.591        2267.214  
 110832852.372    86363281.4574   21090790.301 7  21090789.76246  21090792.96546
      2834.040        2208.342  
 105380698.776    81962785.373    19734418.898 8  19734419.057 8  19734423.312 7
      2057.808        1600.509  
 107972862.503    83978914.179    20163170.251 8  20163170.090 8  20163170.278 7
      3768.640        2931.165  
 107603990.696    83692017.161    20186235.842 7  20186235.009 7  20186241.015 6
      5514.734        4289.232  
 112258490.369    87474166.3244   21362080.338 8  21362080.19846  21362083.42446
      5656.051        4407.313  
 113559400.615    88324002.720    21213851.387 7  21213849.774 7  21213849.039 6
       163.430         127.119  
 117357980.789    91447795.8674   22332481.270 7  22332480.18044  22332484.88744
       980.969         764.376  
 119412470.964    93048698.3144   22723437.288 7  22723436.84345  22723441.57045
      5908.487        4603.999  
 117803782.337    91625180.209    22068615.644 7  22068615.792 7  22068620.659 6
      3467.512        2696.960  
 125143190.026    97514194.7394   23813957.819 6  23813958.33544  23813963.95244
       101.101          78.768  
 120102723.054    93413256.052    22451939.841 5  22451938.473 5  22451940.428 5
      6929.689        5389.755  
 122620609.908    95371611.572    22938720.658 6  22938720.780 6  22938726.209 5
      7280.975        5662.972  
 124436647.378    96784096.333    23294803.095 5  23294804.657 5  23294811.900 4
       105.053          81.739  
 127043236.901    98994751.2014   24175523.743 6  24175523.32643  24175529.45043
      6797.916        5297.092  
 129815480.428   101154944.8984   24703067.485 6  24703065.81642  24703070.50942
      6115.674        4765.429  
 127450470.355    99312073.5794   24253016.837 6  24253016.82043  24253022.15043
      7201.396        5611.490  
 11  5 30 12 30 15.0000000  0 17G26G28R 9R 8R10G15R 7G 8G27R18G 5R19
                                R 1R16G17G18G 9                     
 104583872.840    81493946.4704   19901649.494 8  19901649.34346  19901652.78146
      2909.156        2266.873  
 110818682.800    86352240.2244   21088093.661 8  21088093.28846  21088096.45846
      2833.949        2208.271  
 105370408.761    81954782.023    19732492.506 8  19732492.252 8  19732496.233 7
      2058.399        1600.976  
 107954025.050    83964262.824    20159652.633 8  20159651.879 7  20159652.294 7
      3766.503        2929.512  
 107576415.693    83670569.944    20181062.389 7  20181062.164 7  20181068.405 6
      5515.328        4289.704  
 112230209.069    87452128.9504   21356698.773 8  21356698.55746  21356701.60446
      5656.427        4407.617  
 113558584.050    88323367.597    21213697.976 7  21213697.044 7  21213696.193 6
       163.194         126.933  
 117353072.176    91443970.9674   22331546.935 7  22331546.28244  22331551.00344
       982.394         765.504  
 119382925.212    93025675.6554   22717814.601 7  22717814.51945  22717819.21145
      5909.963        4605.182  
 117786449.351    91611698.994    22065369.105 7  22065368.484 7  22065374.135 6
      3465.568        2695.435  
 125142679.910    97513797.2314   23813861.386 7  23813861.37644  23813866.79544
       102.961          80.231  
 120068074.299    93386307.056    22445462.421 6  22445461.550 5  22445463.481 6
      6929.756        5389.783  
 122584204.726    95343296.438    22931910.931 6  22931910.887 6  22931915.067 5
      7281.128        5663.087  
 124436116.790    96783683.667    23294706.281 5  23294705.404 4  23294712.010 4
       106.757          83.006  
 127009242.844    98968262.3404   24169054.356 6  24169054.55743  24169060.42843
      6799.452        5298.292  
 129784900.960   101131116.7324   24697247.838 6  24697247.11742  24697250.95242
      6116.008        4765.686  
 127414458.706    99284012.5574   24246164.692 6  24246164.22343  24246169.28543
      7203.518        5613.102  
 11  5 30 12 30 20.0000000  0 17G26G28R 9R 8R10G15R 7G 8G27R18G 5R19
                                R 1R16G17G18G 9                     
 104569328.655    81482613.3404   19898881.365 8  19898881.51646  19898884.95146
      2908.410        2266.290  
 110804512.983    86341198.8074   21085397.341 8  21085396.94746  21085400.09446
      2833.893        2208.224  
 105360115.620    81946776.242    19730564.480 8  19730564.437 8  19730568.832 7
      2058.881        1601.340  
 107935197.480    83949619.163    20156136.933 8  20156136.434 7  20156136.599 7
      3764.493        2927.939  
 107548837.551    83649120.283    20175889.105 7  20175888.867 7  20175895.087 6
      5515.964        4290.202  
 112201925.201    87430089.5774   21351316.266 8  21351316.36146  21351319.41546
      5656.955        4408.017  
 113557767.977    88322732.874    21213546.173 7  21213544.561 7  21213543.889 6
       163.339         127.031  
 117348155.739    91440139.9694   22330611.492 7  22330610.96044  22330615.29445
       983.977         766.736  
 119353370.903    93002646.3344   22712191.431 7  22712190.45545  22712195.19945
      5911.763        4606.553  
 117769125.749    91598225.095    22062124.229 7  22062123.886 7  22062129.159 6
      3463.676        2693.964  
 125142160.243    97513392.2784   23813762.333 7  23813762.56644  23813767.84844
       104.785          81.652  
 120033424.952    93359357.613    22438984.144 6  22438984.126 6  22438986.499 6
      6929.720        5389.765  
 122547798.078    95314980.160    22925101.136 6  22925100.091 6  22925104.847 5
      7281.351        5663.255  
 124435573.614    96783261.167    23294602.864 5  23294603.970 4  23294610.160 4
       110.017          85.622  
 126975238.960    98941765.8184   24162584.883 6  24162584.63743  24162590.15243
      6801.722        5300.046  
 129754318.202   101107286.0254   24691428.425 6  24691426.91942  24691430.09142
      6116.925        4766.398  
 127378435.668    99255942.6704   24239309.573 7  24239308.71743  24239314.60143
      7205.772        5614.866  
 11  5 30 12 30 25.0000000  0 17G26G28R 9R 8R10G15R 7G 8G27R18G 5R19
                                R 1R16G17G18G 9                     
 104554787.185    81471282.3144   19896114.415 8  19896114.32747  19896117.80146
      2908.063        2266.027  
 110790343.156    86330157.3724   21082701.473 8  21082700.74146  21082703.60646
      2834.068        2208.372  
 105349819.528    81938768.168    19728636.522 8  19728636.679 8  19728640.793 7
      2059.570        1601.898  
 107916379.861    83934983.237    20152623.138 8  20152622.469 7  20152622.551 7
      3762.490        2926.388  
 107521256.503    83627668.359    20170715.288 8  20170714.696 7  20170721.007 6
      5516.481        4290.589  
 112173639.027    87408048.4014   21345933.596 8  21345933.68146  21345936.75046
      5657.490        4408.443  
 113556950.778    88322097.261    21213394.059 7  21213392.055 7  21213391.497 6
       163.145         126.911  
 117343231.746    91436303.0924   22329674.372 7  22329673.87745  22329678.11345
       985.461         767.925  
 119323808.353    92979610.5804   22706565.483 7  22706564.90345  22706569.59845
      5913.320        4607.775  
 117751811.134    91584758.168    22058880.711 7  22058880.017 7  22058885.627 6
      3462.021        2692.685  
 125141631.152    97512979.9794   23813661.502 6  23813661.75144  23813667.06144
       106.709          83.172  
 119998775.358    93332407.908    22432507.593 6  22432506.150 6  22432509.417 6
      6929.718        5389.773  
 122511390.263    95286662.988    22918289.889 6  22918289.747 6  22918294.006 5
      7281.543        5663.411  
 124435017.858    96782828.928    23294496.790 5  23294499.210 4  23294506.037 4
       112.698          87.722  
 126941225.480    98915261.8284   24156112.881 6  24156112.03943  24156117.05643
      6803.811        5301.666  
 129723732.466   101083452.9844   24685607.436 6  24685606.37442  24685610.61342
      6117.502        4766.877  
 127342401.497    99227864.1014   24232451.777 6  24232451.99343  24232457.65943
      7207.941        5616.562  
 11  5 30 12 30 30.0000000  0 17G26G28R 9R 8R10G15R 7G 8G27R18G 5R19
                                R 1R16G17G18G 9                     
 104540248.867    81459953.7554   19893347.980 8  19893347.90846  19893351.27246
      2907.324        2265.441  
 110776173.748    86319116.2764   21080005.371 8  21080004.61946  21080007.14946
      2833.825        2208.166  
 105339520.915    81930758.137    19726708.027 8  19726707.843 8  19726712.268 7
      2059.975        1602.197  
 107897572.723    83920355.465    20149111.244 8  20149110.583 8  20149110.447 7
      3760.269        2924.653  
 107493673.068    83606214.576    20165540.438 7  20165539.749 7  20165546.564 6
      5516.932        4290.947  
 112145350.980    87386005.7734   21340550.949 8  21340550.68046  21340553.63646
      5657.776        4408.651  
 113556135.894    88321463.453    21213240.860 7  21213239.638 7  21213239.442 6
       162.829         126.624  
 117338300.562    91432460.6134   22328735.767 7  22328735.43445  22328739.85945
       986.919         769.006  
 119294237.932    92956568.6934   22700938.652 7  22700937.96645  22700942.68045
      5914.781        4608.918  
 117734506.469    91571298.989    22055638.554 7  22055638.012 7  22055643.800 6
      3459.949        2691.079  
 125141093.105    97512560.7054   23813559.378 7  23813559.34344  23813564.85844
       108.567          84.597  
 119964125.881    93305458.343    22426031.046 6  22426028.966 6  22426031.947 6
      6930.008        5390.006  
 122474981.535    95258345.098    22911477.980 6  22911478.270 6  22911482.945 5
      7281.688        5663.521  
 124434450.320    96782387.519    23294392.652 5  23294393.367 4  23294400.619 4
       114.863          89.336  
 126907202.873    98888750.7194   24149638.298 6  24149637.83443  24149642.13443
      6805.478        5302.979  
 129693144.179   101059617.9514   24679786.930 6  24679786.12742  24679789.71642
      6117.878        4767.173  
 127306356.609    99199777.1854   24225593.287 6  24225593.02243  24225598.30243
      7210.143        5618.282  
 11  5 30 12 30 35.0000000  0 17G26G28R 9R 8R10G15R 7G 8G27R18G 5R19
                                R 1R16G17G18G 9                     
 104525713.839    81448627.7564   19890582.456 8  19890582.20846  19890585.55346
      2906.716        2264.981  
 110762004.891    86308075.6084   21077309.089 8  21077308.45646  21077310.92646
      2833.841        2208.205  
 105329219.819    81922746.167    19724779.074 8  19724778.991 8  19724783.403 7
      2060.520        1602.633  
 107878776.235    83905735.969    20145601.131 8  20145600.721 8  20145600.199 7
      3758.393        2923.192  
 107466087.106    83584758.832    20160365.154 7  20160364.658 7  20160371.598 6
      5517.521        4291.409  
 112117061.208    87363961.7904   21335168.039 8  21335167.42146  21335170.24346
      5658.274        4409.054  
 113555321.271    88320829.838    21213088.645 7  21213087.189 7  21213087.658 6
       162.981         126.762  
 117333362.373    91428612.6624   22327796.741 7  22327795.84545  22327800.18245
       988.368         770.160  
 119264659.756    92933520.7704   22695310.083 7  22695309.29645  22695314.16445
      5916.555        4610.293  
 117717211.405    91557847.273    22052398.636 7  22052398.346 7  22052404.280 6
      3458.037        2689.612  
 125140546.225    97512134.5424   23813455.009 7  23813455.28844  23813460.81744
       110.337          85.992  
 119929476.543    93278508.859    22419552.620 6  22419551.785 6  22419554.843 6
      6930.138        5390.109  
 122438572.249    95230026.769    22904668.963 6  22904667.876 6  22904671.744 5
      7281.997        5663.792  
 124433870.931    96781936.876    23294287.248 4  23294285.319 4  23294292.283 4
       117.154          91.079  
 126873171.270    98862232.6084   24143162.426 6  24143162.15043  24143166.73443
      6807.100        5304.238  
 129662553.371   101035780.9734   24673965.084 6  24673964.93342  24673968.90842
      6118.556        4767.672  
 127270301.143    99171682.0204   24218731.070 6  24218731.73243  24218736.86443
      7212.285        5619.968  
 11  5 30 12 30 40.0000000  0 17G26G28R 9R 8R10G15R 7G 8G27R18G 5R19
                                R 1R16G17G18G 9                     
 104511182.480    81437304.6184   19887817.283 8  19887817.01147  19887820.30647
      2905.877        2264.310  
 110747837.051    86297035.7324   21074613.077 8  21074612.44546  21074614.91446
      2833.426        2207.868  
 105318916.860    81914732.754    19722849.607 8  19722849.533 7  19722853.713 7
      2060.766        1602.817  
 107859990.733    83891125.021    20142092.712 8  20142092.364 7  20142092.114 7
      3756.126        2921.430  
 107438499.239    83563301.606    20155189.579 8  20155189.206 7  20155195.869 6
      5517.809        4291.627  
 112088770.094    87341916.7724   21329784.223 8  21329783.81146  21329786.57146
      5658.301        4409.065  
 113554507.473    88320196.883    21212937.143 7  21212935.526 7  21212935.397 6
       162.468         126.369  
 117328417.492    91424759.5154   22326855.442 7  22326854.76445  22326859.11245
       989.787         771.261  
 119235074.268    92910467.1474   22689679.821 7  22689679.31345  22689684.19745
      5918.036        4611.469  
 117699926.648    91544403.571    22049160.016 7  22049160.287 7  22049165.973 6
      3456.079        2688.066  
 125139990.944    97511701.8364   23813349.214 6  23813349.49544  23813355.29844
       112.024          87.294  
 119894828.016    93251560.032    22413074.018 6  22413074.407 6  22413077.345 6
      6929.909        5389.922  
 122402162.771    95201708.299    22897856.031 6  22897856.444 6  22897861.132 5
      7282.007        5663.790  
 124433280.125    96781477.343    23294175.003 4  23294174.620 4  23294181.787 4
       119.786          93.157  
 126839131.102    98835707.8414   24136684.106 6  24136684.13443  24136689.37543
      6809.101        5305.753  
 129631960.591   101011942.4494   24668143.152 6  24668142.69142  24668147.13642
      6118.875        4767.938  
 127234235.555    99143578.9784   24211868.501 6  24211868.58143  24211873.11243
      7214.148        5621.388  
 11  5 30 12 30 45.0000000  0 17G26G28R 9R 8R10G15R 7G 8G27R18G 5R19
                                R 1R16G17G18G 9                     
 104496654.940    81425984.4564   19885052.614 8  19885052.51647  19885055.92647
      2905.086        2263.709  
 110733670.190    86285996.6214   21071917.290 8  21071916.59346  21071919.08046
      2833.223        2207.723  
 105308611.889    81906717.775    19720919.541 8  19720919.538 8  19720923.927 7
      2061.241        1603.200  
 107841216.441    83876522.792    20138586.781 8  20138586.291 8  20138586.175 7
      3753.708        2919.541  
 107410909.501    83541842.922    20150014.445 7  20150013.670 7  20150019.861 6
      5518.219        4291.954  
 112060477.780    87319870.8134   21324400.109 8  21324399.98346  21324402.77646
      5658.604        4409.306  
 113553695.187    88319565.084    21212785.510 7  21212784.287 7  21212783.908 6
       162.400         126.329  
 117323466.062    91420901.2454   22325913.232 7  22325912.59345  22325916.95345
       990.869         772.115  
 119205481.576    92887407.9174   22684048.583 7  22684047.95145  22684052.89845
      5919.278        4612.426  
 117682652.084    91530967.805    22045924.069 7  22045924.363 7  22045929.481 6
      3453.948        2686.401  
 125139427.362    97511262.6554   23813242.710 7  23813242.50144  23813247.92744
       113.573          88.509  
 119860180.250    93224611.777    22406598.447 6  22406597.267 6  22406599.966 6
      6929.516        5389.650  
 122365753.350    95173389.857    22891045.598 6  22891045.111 6  22891049.745 5
      7281.826        5663.641  
 124432677.948    96781008.966    23294064.109 4  23294062.683 4  23294069.085 4
       121.849          94.745  
 126805082.476    98809176.4434   24130204.999 6  24130204.75843  24130209.71343
      6810.655        5307.007  
 129601365.972   100988102.5014   24662321.421 6  24662320.76842  24662325.29842
      6119.021        4768.077  
 127198159.876    99115468.0644   24205004.242 6  24205003.93943  24205009.04643
      7216.117        5622.937  
 11  5 30 12 30 50.0000000  0 17G26G28R 9R 8R10G15R 7G 8G27R18G 5R19
                                R 1R16G17G18G 9                     
 104482131.259    81414667.3014   19882289.146 8  19882288.75747  19882292.16146
      2904.389        2263.151  
 110719504.421    86274958.3554   21069221.803 8  21069221.13946  21069223.49546
      2833.046        2207.566  
 105298305.015    81898701.311    19718989.529 8  19718989.497 8  19718993.747 8
      2061.478        1603.358  
 107822453.292    83861929.238    20135082.780 8  20135082.341 8  20135082.430 7
      3751.403        2917.758  
 107383317.947    83520382.828    20144837.427 7  20144837.465 7  20144843.834 6
      5518.476        4292.134  
 112032184.288    87297823.9434   21319016.101 8  21319015.83446  21319018.69646
      5658.792        4409.439  
 113552884.026    88318934.167    21212634.368 7  21212632.624 7  21212631.892 6
       161.954         125.956  
 117318508.087    91417037.8874   22324970.056 7  22324969.17845  22324973.72145
       992.211         773.143  
 119175881.695    92864343.0884   22678415.831 7  22678415.22845  22678420.23045
      5920.631        4613.472  
 117665387.867    91517540.085    22042690.181 7  22042689.933 6  22042695.234 6
      3451.791        2684.708  
 125138855.432    97510816.9824   23813133.931 6  23813133.68744  23813139.03844
       114.981          89.594  
 119825533.420    93197664.238    22400121.244 6  22400120.197 6  22400123.451 6
      6929.123        5389.307  
 122329343.860    95145071.385    22884233.792 6  22884233.995 6  22884238.529 5
      7281.997        5663.768  
 124432064.541    96780531.901    23293949.015 4  23293947.220 4  23293953.763 4
       123.776          96.269  
 126771025.412    98782638.4704   24123723.734 6  24123723.89543  24123728.36543
      6812.150        5308.169  
 129570769.475   100964261.0784   24656499.706 6  24656498.21042  24656502.31442
      6119.456        4768.409  
 127162074.153    99087349.3334   24198137.344 6  24198137.32443  24198142.24743
      7218.246        5624.584  
 11  5 30 12 30 55.0000000  0 17G26G28R 9R 8R10G15R 7G 8G27R18G 5R19
                                R 1R16G17G18G 9                     
 104467611.809    81403353.4404   19879526.022 8  19879525.82746  19879529.26746
      2903.504        2262.465  
 110705340.174    86263921.2724   21066526.690 8  21066525.86646  21066528.17746
      2832.869        2207.429  
 105287996.662    81890683.708    19717059.370 8  19717059.313 8  19717063.185 7
      2061.830        1603.635  
 107803701.770    83847344.718    20131580.916 8  20131580.447 7  20131580.958 7
      3749.208        2916.053  
 107355725.121    83498921.743    20139661.199 7  20139661.125 7  20139667.674 6
      5518.733        4292.330  
 112003890.093    87275776.5174   21313631.950 8  21313631.54346  21313634.55446
      5658.971        4409.580  
 113552075.075    88318304.985    21212483.039 7  21212481.642 7  21212480.508 6
       161.682         125.753  
 117313544.047    91413169.7914   22324025.355 7  22324024.61945  22324029.04345
       993.539         774.197  
 119146275.051    92841272.9824   22672781.389 7  22672781.32645  22672786.27245
      5922.160        4614.654  
 117648134.622    91504120.895    22039457.895 7  22039457.337 6  22039462.970 6
      3449.708        2683.098  
 125138275.567    97510365.1214   23813022.553 6  23813023.21744  23813029.10444
       116.797          91.006  
 119790887.829    93170717.678    22393644.451 6  22393643.797 6  22393646.728 6
      6929.127        5389.326  
 122292934.863    95116753.296    22877424.263 6  22877423.290 6  22877427.227 5
      7282.072        5663.838  
 124431440.296    96780046.382    23293833.396 4  23293831.386 4  23293836.475 4
       125.861          97.892  
 126736960.444    98756094.3624   24117240.809 6  24117241.10043  24117246.40043
      6813.849        5309.478  
 129540171.582   100940418.5844   24650675.627 5  24650675.84642  24650679.47442
      6119.876        4768.726  
 127125978.883    99059223.1604   24191268.964 6  24191268.44543  24191273.72743
      7220.219        5626.126  
 11  5 30 12 31  0.0000000  0 17G26G28R 9R 8R10G15R 7G 8G27R18G 5R19
                                R 1R16G17G18G 9                     
 104453096.697    81392042.9594   19876763.819 8  19876763.72846  19876767.16146
      2902.567        2261.750  
 110691177.492    86252885.4204   21063831.157 8  21063830.78846  21063833.13546
      2832.409        2207.071  
 105277686.908    81882665.006    19715128.655 8  19715128.649 8  19715132.594 7
      2062.234        1603.964  
 107784961.801    83832769.184    20128081.471 8  20128080.884 8  20128081.068 7
      3746.824        2914.203  
 107328130.974    83477459.634    20134484.857 7  20134484.644 7  20134491.133 6
      5519.031        4292.583  
 111975595.231    87253728.5744   21308247.423 8  21308247.21046  21308250.19446
      5659.133        4409.718  
 113551267.007    88317676.475    21212331.915 7  21212330.706 7  21212329.273 6
       161.507         125.627  
 117308573.934    91409296.9764   22323079.441 7  22323078.88145  22323083.31845
       994.640         775.031  
 119116661.742    92818197.6744   22667146.159 7  22667146.13645  22667151.13845
      5923.407        4615.648  
 117630892.057    91490710.014    22036227.384 7  22036227.373 6  22036233.152 6
      3447.583        2681.461  
 125137687.841    97509907.1384   23812910.478 6  23812911.06044  23812917.07444
       118.200          92.102  
 119756243.764    93143772.291    22387167.825 6  22387167.197 6  22387170.251 6
      6928.496        5388.837  
 122256526.330    95088435.557    22870611.598 6  22870611.499 6  22870616.580 5
      7281.616        5663.475  
 124430805.180    96779552.409    23293713.137 4  23293711.797 4  23293717.558 4
       127.939          99.496  
 126702887.470    98729544.0104   24110756.724 6  24110756.80943  24110761.94943
      6815.136        5310.476  
 129509572.282   100916574.9904   24644853.506 6  24644852.53842  24644857.16342
      6120.123        4768.956  
 127089874.088    99031089.5674   24184398.259 6  24184397.75543  24184402.55943
      7221.843        5627.377  
 11  5 30 12 31  5.0000000  0 16G26G28R 9R 8R10G15R 7G 8G27R18G 5R19
                                R 1G17G18G 9                        
 104438585.944    81380735.8814   19874002.668 8  19874002.37746  19874005.80246
      2901.703        2261.072  
 110677016.360    86241850.7734   21061136.596 8  21061136.06446  21061138.45846
      2832.150        2206.865  
 105267375.842    81874645.292    19713197.080 8  19713197.272 8  19713201.480 7
      2062.221        1603.950  
 107766233.695    83818202.881    20124584.085 8  20124583.584 7  20124583.844 7
      3744.513        2912.390  
 107300535.535    83455996.520    20129308.518 8  20129307.954 7  20129314.437 6
      5519.320        4292.799  
 111947299.748    87231680.1494   21302862.574 7  21302862.66946  21302865.81246
      5659.128        4409.713  
 113550461.245    88317049.764    21212181.348 7  21212180.109 7  21212179.356 6
       160.930         125.170  
 117303597.832    91405419.4924   22322132.479 8  22322132.09345  22322136.47745
       995.893         776.022  
 119087041.770    92795117.1834   22661510.015 7  22661509.81345  22661514.39045
      5924.643        4616.618  
 117613660.330    91477307.552    22033000.277 7  22032999.665 6  22033004.460 6
      3445.259        2679.630  
 125137092.261    97509443.0344   23812797.369 6  23812797.73444  23812804.09544
       119.860          93.411  
 119721601.107    93116827.995    22380692.534 6  22380691.407 6  22380694.106 6
      6928.330        5388.709  
 122220118.408    95060118.302    22863799.929 6  22863800.375 6  22863805.809 5
      7281.720        5663.532  
 126668806.713    98702987.5884   24104271.784 6  24104271.04843  24104277.00243
      6817.026        5311.956  
 129478971.688   100892730.3814   24639029.895 6  24639029.35242  24639033.58942
      6120.370        4769.094  
 127053759.838    99002948.5894   24177526.023 6  24177525.66543  24177530.56443
      7223.786        5628.926  
 11  5 30 12 31 10.0000000  0 16G26G28R 9R 8R10G15R 7G 8G27R18G 5R19
                                R 1G17G18G 9                        
 104424079.686    81369432.2984   19871241.940 8  19871241.87346  19871245.37246
      2900.837        2260.394  
 110662856.942    86230817.4584   21058442.375 8  21058441.81746  21058444.00246
      2831.731        2206.541  
 105257063.576    81866624.634    19711266.436 8  19711266.281 8  19711270.254 7
      2062.617        1604.265  
 107747517.433    83803645.782    20121089.026 8  20121088.577 8  20121088.938 7
      3742.038        2910.472  
 107272938.898    83434532.467    20124130.945 7  20124130.576 7  20124137.357 6
      5519.387        4292.867  
 111919003.795    87209631.3534   21297478.193 8  21297478.16746  21297481.24946
      5659.227        4409.792  
 113549657.596    88316424.696    21212031.602 7  21212030.029 7  21212029.107 6
       160.655         124.970  
 117298615.883    91401537.4464   22321184.453 7  22321183.94245  22321188.59945
       997.048         776.908  
 119057415.282    92772031.6144   22655872.670 7  22655871.98645  22655876.60045
      5925.971        4617.657  
 117596439.503    91463913.579    22029774.419 7  22029773.911 7  22029778.376 6
      3442.952        2677.846  
 125136488.963    97508972.9064   23812682.978 7  23812682.86044  23812689.61744
       121.512          94.693  
 119686960.072    93089884.990    22374217.489 6  22374215.237 6  22374218.831 6
      6928.001        5388.443  
 122183711.214    95031801.617    22856990.803 6  22856990.427 6  22856995.446 5
      7281.441        5663.342  
 126634718.249    98676425.1604   24097785.274 6  24097785.19443  24097790.55943
      6818.562        5313.144  
 129448369.889   100868884.8184   24633207.337 6  24633206.06142  24633210.66742
      6120.602        4769.324  
 127017636.215    98974800.3204   24170651.669 6  24170651.29743  24170656.14843
      7225.729        5630.427  
 11  5 30 12 31 15.0000000  0 16G26G28R 9R 8R10G15R 7G 8G27R18G 5R19
                                R 1G17G18G 9                        
 104409577.951    81358132.2424   19868482.634 8  19868482.34246  19868485.71546
      2899.894        2259.662  
 110648699.237    86219785.4774   21055748.098 8  21055747.61146  21055749.99146
      2831.387        2206.281  
 105246750.072    81858603.018    19709335.244 8  19709335.218 8  19709339.025 7
      2062.871        1604.458  
 107728812.983    83789097.882    20117595.669 8  20117595.454 8  20117596.186 7
      3739.724        2908.681  
 107245341.107    83413067.526    20118953.481 7  20118953.466 7  20118960.340 6
      5519.691        4293.090  
 111890707.422    87187582.2354   21292093.180 8  21292093.39646  21292096.53046
      5659.362        4409.894  
 113548855.314    88315800.695    21211881.124 7  21211880.085 7  21211879.519 6
       160.191         124.598  
 117293628.079    91397650.8514   22320235.383 7  22320235.00245  22320239.43545
       998.229         777.848  
 119027782.300    92748940.9804   22650233.607 7  22650233.17445  22650237.74045
      5927.203        4618.600  
 117579230.117    91450528.491    22026550.440 7  22026549.936 7  22026554.740 6
      3440.832        2676.212  
 125135877.945    97508496.7584   23812566.190 6  23812566.73944  23812573.14544
       123.095          95.916  
 119652320.736    93062943.261    22367740.593 6  22367739.593 5  22367743.731 6
      6927.821        5388.311  
 122147304.791    95003485.528    22850181.332 6  22850180.374 6  22850184.772 5
      7281.014        5663.006  
 126600622.139    98649856.7834   24091296.605 6  24091296.79543  24091302.32543
      6820.043        5314.329  
 129417767.071   100845038.4824   24627383.528 6  24627382.50842  24627387.34642
      6120.601        4769.265  
 126981503.288    98946644.7984   24163775.884 6  24163775.55643  24163780.61043
      7227.556        5631.874  
 11  5 30 12 31 20.0000000  0 16G26G28R 9R 8R10G15R 7G 8G27R18G 5R19
                                R 1G17G18G 9                        
 104395080.856    81346835.8024   19865723.756 8  19865723.63146  19865726.96246
      2898.878        2258.868  
 110634543.455    86208755.0014   21053054.346 8  21053053.78646  21053056.33246
      2830.934        2205.915  
 105236435.512    81850580.583    19707403.695 8  19707403.812 8  19707407.559 7
      2063.014        1604.564  
 107710120.603    83774559.364    20114105.104 8  20114104.697 8  20114105.501 7
      3737.295        2906.787  
 107217742.400    83391601.865    20113776.734 7  20113775.984 7  20113782.782 6
      5519.768        4293.157  
 111862410.811    87165532.9324   21286708.283 7  21286708.71646  21286711.91146
      5659.304        4409.848  
 113548055.583    88315178.664    21211731.172 7  21211730.178 7  21211729.855 6
       159.626         124.158  
 117288634.607    91393759.8264   22319285.091 7  22319284.71045  22319289.19045
       999.192         778.591  
 118998143.043    92725845.4624   22644593.664 7  22644592.99645  22644597.62245
      5928.496        4619.631  
 117562031.927    91437152.107    22023328.332 7  22023328.278 7  22023333.463 6
      3438.535        2674.420  
 125135259.406    97508014.7534   23812448.000 6  23812448.99744  23812455.24244
       124.440          96.963  
 119617683.314    93036003.057    22361264.686 6  22361264.584 6  22361268.006 6
      6927.249        5387.837  
 122110899.450    94975170.273    22843369.780 6  22843369.912 6  22843374.720 5
      7280.833        5662.861  
 126566518.606    98623282.6254   24084807.413 6  24084807.05843  24084812.40943
      6821.545        5315.465  
 129387163.280   100821191.3684   24621559.727 6  24621558.73842  24621563.43842
      6120.794        4769.387  
 126945361.217    98918482.1664   24156897.806 6  24156898.29443  24156903.20343
      7229.281        5633.190  
 11  5 30 12 31 25.0000000  0 16G26G28R 9R 8R10G15R 7G 8G27R18G 5R19
                                R 1G17G18G 9                        
 104380589.043    81335543.4794   19862965.833 8  19862965.85446  19862969.30446
      2897.785        2258.017  
 110620390.129    86197726.4284   21050361.201 8  21050360.38846  21050362.97746
      2830.452        2205.551  
 105226120.386    81842557.712    19705472.211 8  19705472.038 8  19705475.923 7
      2063.076        1604.615  
 107691440.820    83760030.644    20110617.236 8  20110616.815 8  20110617.088 7
      3734.744        2904.787  
 107190143.384    83370135.970    20108599.212 7  20108598.623 7  20108604.843 6
      5519.761        4293.141  
 111834114.472    87143483.8364   21281324.050 8  21281324.14146  21281327.24146
      5659.133        4409.709  
 113547258.429    88314558.637    21211582.556 7  21211581.310 7  21211580.627 6
       159.201         123.825  
 117283635.916    91389864.7554   22318333.925 8  22318333.23645  22318337.80845
      1000.168         779.358  
 118968497.974    92702745.4234   22638952.351 7  22638951.59045  22638956.24545
      5929.677        4620.535  
 117544845.413    91423784.837    22020109.031 7  22020108.785 7  22020114.076 6
      3436.056        2672.503  
 125134633.829    97507527.2614   23812329.710 6  23812329.82744  23812336.13144
       125.720          97.990  
 119583048.277    93009064.725    22354790.688 6  22354790.107 6  22354793.356 6
      6926.310        5387.139  
 122074495.617    94946856.192    22836559.414 6  22836559.371 6  22836564.637 5
      7280.716        5662.791  
 126532408.146    98596703.0564   24078315.702 6  24078316.42143  24078321.22243
      6822.933        5316.595  
 129356559.093   100797343.9634   24615736.803 6  24615735.15242  24615739.78942
      6120.897        4769.559  
 126909210.575    98890312.8444   24150018.735 6  24150018.92543  24150023.78843
      7231.009        5634.565  
 11  5 30 12 31 30.0000000  0 16G26G28R 9R 8R10G15R 7G 8G27R18G 5R19
                                R 1G17G18G 9                        
 104366102.419    81324255.2004   19860209.359 8  19860209.13246  19860212.54946
      2896.741        2257.200  
 110606239.229    86186699.7564   21047667.920 8  21047667.47546  21047670.14546
      2829.863        2205.097  
 105215804.801    81834534.473    19703540.142 8  19703540.026 8  19703544.041 7
      2063.184        1604.700  
 107672773.647    83745511.730    20107131.558 8  20107130.809 8  20107130.824 7
      3732.226        2902.835  
 107162544.003    83348669.788    20103421.790 8  20103421.149 7  20103427.499 6
      5519.955        4293.309  
 111805818.415    87121434.9624   21275939.623 8  21275939.52046  21275942.67546
      5659.101        4409.691  
 113546463.761    88313940.555    21211434.019 7  21211432.844 7  21211432.579 6
       158.489         123.277  
 117278632.103    91385965.6664   22317381.746 8  22317381.10245  22317385.70845
      1001.257         780.200  
 118938847.150    92679640.8864   22633309.586 7  22633309.12845  22633314.10845
      5930.822        4621.412  
 117527670.698    91410426.724    22016891.473 7  22016890.854 7  22016896.643 7
      3433.845        2670.767  
 125134001.173    97507034.2594   23812208.777 6  23812209.29144  23812215.71344
       127.230          99.149  
 119548415.623    92982128.218    22348316.245 6  22348315.890 6  22348319.287 6
      6926.350        5387.157  
 122038093.283    94918543.281    22829749.368 6  22829749.325 6  22829754.411 5
      7280.302        5662.449  
 126498290.758    98570118.0744   24071823.403 6  24071823.81243  24071829.09643
      6824.357        5317.682  
 129325954.494   100773496.2184   24609912.718 6  24609911.42342  24609915.95142
      6121.095        4769.688  
 126873051.332    98862136.8244   24143137.500 6  24143138.15343  24143142.70343
      7232.789        5635.955  
 11  5 30 12 31 35.0000000  0 16G26G28R 9R 8R10G15R 7G 8G27R18G 5R19
                                R 1G17G18G 9                        
 104351621.102    81312971.0534   19857453.743 8  19857453.48946  19857456.89546
      2895.558        2256.283  
 110592090.824    86175675.0164   21044975.463 8  21044975.05046  21044977.91946
      2829.287        2204.645  
 105205488.815    81826510.925    19701607.900 8  19701608.133 8  19701612.222 7
      2063.252        1604.758  
 107654119.157    83731002.678    20103647.944 8  20103647.330 8  20103647.478 7
      3729.526        2900.752  
 107134944.315    83327203.370    20098244.602 8  20098243.562 7  20098249.845 6
      5519.769        4293.148  
 111777522.763    87099386.4064   21270554.932 7  21270555.11746  21270558.30246
      5658.828        4409.480  
 113545671.539    88313324.377    21211285.550 7  21211285.069 7  21211284.469 6
       158.355         123.170  
 117273623.177    91382062.5994   22316428.725 7  22316428.02245  22316432.56145
      1002.160         780.894  
 118909190.637    92656531.9194   22627667.074 7  22627665.74945  22627670.64645
      5931.828        4622.219  
 117510507.853    91397077.853    22013675.422 7  22013675.371 6  22013681.346 7
      3431.372        2668.834  
 125133361.575    97506535.8504   23812087.903 6  23812087.74544  23812093.93844
       128.318         100.003  
 119513785.649    92955193.809    22341843.036 6  22341842.597 6  22341845.191 6
      6925.495        5386.509  
 122001692.690    94890231.714    22822941.103 6  22822939.998 6  22822944.822 5
      7280.156        5662.346  
 126464166.578    98543527.8334   24065330.214 6  24065330.46543  24065335.82943
      6825.409        5318.504  
 129295349.601   100749648.2594   24604088.772 6  24604087.19642  24604091.93442
      6120.994        4769.543  
 126836883.639    98833954.2234   24136256.631 6  24136255.78543  24136260.51943
      7234.335        5637.166  
 11  5 30 12 31 40.0000000  0 16G26G28R 9R 8R10G15R 7G 8G27R18G 5R19
                                R 1G17G18G 9                        
 104337145.382    81301691.2664   19854699.148 8  19854698.92346  19854702.19046
      2894.525        2255.481  
 110577945.215    86164652.4634   21042283.498 8  21042282.99346  21042286.05246
      2828.857        2204.311  
 105195172.590    81818487.195    19699676.294 8  19699676.083 8  19699680.351 7
      2063.088        1604.635  
 107635477.658    83716503.734    20100167.176 8  20100166.279 8  20100166.190 7
      3726.904        2898.712  
 107107344.641    83305736.959    20093065.822 7  20093065.644 7  20093072.195 6
      5519.880        4293.243  
 111749227.740    87077338.3344   21265170.784 8  21265170.69046  21265173.94146
      5658.843        4409.495  
 113544881.975    88312710.263    21211138.630 7  21211137.688 7  21211136.967 6
       157.598         122.591  
 117268609.442    91378155.7754   22315474.304 7  22315473.82345  22315478.51445
      1003.103         781.636  
 118879528.705    92633418.7374   22622021.575 7  22622021.17345  22622026.36345
      5932.917        4623.054  
 117493357.234    91383738.475    22010463.109 7  22010462.272 6  22010468.521 7
      3428.801        2666.860  
 125132715.255    97506032.2044   23811965.247 7  23811964.98144  23811970.85544
       129.708         101.063  
 119479158.491    92928261.584    22335370.202 6  22335368.905 6  22335372.033 6
      6925.117        5386.194  
 121965294.075    94861921.697    22816132.216 6  22816130.903 6  22816135.806 5
      7279.561        5661.896  
 126430035.866    98516932.5124   24058836.375 6  24058836.02343  24058841.07943
      6826.630        5319.447  
 129264744.681   100725800.2704   24598263.530 6  24598263.55642  24598268.02542
      6120.932        4769.582  
 126800707.722    98805765.1914   24129371.909 6  24129371.72543  24129376.31743
      7235.826        5638.320  
 11  5 30 12 31 45.0000000  0 16G26G28R 9R 8R10G15R 7G 8G27R18G 5R19
                                R 1G17G18G 9                        
 104322675.304    81290415.8824   19851945.631 8  19851945.30846  19851948.66146
      2893.489        2254.670  
 110563802.550    86153632.1984   21039592.266 8  21039591.78746  21039594.73246
      2828.270        2203.844  
 105184856.265    81810463.380    19697744.459 8  19697744.387 8  19697748.507 7
      2063.186        1604.701  
 107616849.259    83702014.983    20096688.196 8  20096687.631 8  20096687.552 7
      3724.196        2896.599  
 107079745.100    83284270.649    20087888.975 7  20087888.214 7  20087894.710 6
      5519.970        4293.306  
 111720933.548    87055290.9184   21259786.508 8  21259786.44546  21259789.65746
      5658.805        4409.463  
 113544095.612    88312098.640    21210992.806 7  21210991.118 7  21210990.276 6
       157.106         122.187  
 117263590.993    91374245.2814   22314519.219 8  22314518.60645  22314523.62545
      1004.191         782.461  
 118849861.463    92610301.4114   22616375.767 7  22616375.73145  22616380.69345
      5933.945        4623.836  
 117476218.821    91370408.608    22007251.890 7  22007251.965 7  22007258.061 7
      3426.613        2665.151  
 125132062.334    97505523.4174   23811839.922 6  23811840.69544  23811846.51344
       131.407         102.399  
 119444534.325    92901331.666    22328898.058 6  22328896.417 6  22328899.052 6
      6924.759        5385.950  
 121928897.506    94833613.267    22809321.986 6  22809321.938 6  22809327.187 5
      7279.253        5661.618  
 126395898.799    98490332.2094   24052340.174 6  24052339.91943  24052345.44943
      6827.802        5320.360  
 129234139.832   100701952.3464   24592441.058 6  24592439.54742  24592444.08242
      6121.010        4769.582  
 126764523.734    98777569.8924   24122486.390 6  24122486.11243  24122491.10743
      7237.791        5639.839  
 11  5 30 12 31 50.0000000  0 16G26G28R 9R 8R10G15R 7G 8G27R18G 5R19
                                R 1G17G18G 9                        
 104308211.042    81279145.0274   19849193.245 8  19849192.89646  19849196.24246
      2892.184        2253.667  
 110549662.787    86142614.2024   21036901.632 8  21036901.12646  21036904.02946
      2827.608        2203.334  
 105174539.988    81802439.611    19695812.709 8  19695812.817 8  19695816.862 7
      2063.212        1604.725  
 107598233.948    83687536.409    20093212.379 8  20093211.433 8  20093211.147 7
      3721.630        2894.598  
 107052145.598    83262804.377    20082711.485 7  20082710.799 7  20082716.818 6
      5519.735        4293.125  
 111692640.191    87033244.1454   21254402.609 8  21254402.53946  21254405.61146
      5658.626        4409.320  
 113543312.326    88311489.405    21210845.469 7  21210844.279 7  21210844.225 6
       156.086         121.404  
 117258567.908    91370331.1744   22313563.529 7  22313562.90845  22313567.90245
      1005.054         783.156  
 118820189.013    92587180.0314   22610729.713 7  22610729.24845  22610734.18745
      5934.896        4624.600  
 117459092.595    91357088.221    22004044.424 7  22004043.999 7  22004049.771 7
      3423.960        2663.077  
 125131402.857    97505009.5124   23811714.896 6  23811715.04844  23811720.96544
       132.560         103.330  
 119409913.227    92874404.174    22322425.122 6  22322424.174 6  22322426.787 6
      6923.886        5385.219  
 121892503.206    94805306.600    22802514.628 6  22802513.535 6  22802518.897 5
      7278.483        5661.037  
 126361755.389    98463726.9674   24045843.373 6  24045842.79943  24045847.68843
      6829.251        5321.498  
 129203535.171   100678104.5714   24586616.740 6  24586615.79942  24586620.35242
      6121.038        4769.630  
 126728331.664    98749368.2984   24115599.351 6  24115598.82743  24115603.69143
      7239.060        5640.834  
 11  5 30 12 31 55.0000000  0 16G26G28R 9R 8R10G15R 7G 8G27R18G 5R19
                                R 1G17G18G 9                        
 104293752.821    81267878.8824   19846441.902 8  19846441.61246  19846444.95346
      2891.020        2252.743  
 110535526.314    86131598.7694   21034211.960 8  21034211.27746  21034214.08946
      2827.059        2202.905  
 105164224.018    81794416.078    19693881.029 8  19693880.899 8  19693885.002 7
      2063.170        1604.685  
 107579632.092    83673068.294    20089738.275 8  20089737.398 7  20089737.292 7
      3718.889        2892.461  
 107024546.740    83241338.602    20077533.996 7  20077533.255 7  20077539.639 6
      5519.555        4292.986  
 111664348.067    87011198.3384   21249018.899 8  21249018.78746  21249021.82246
      5658.254        4409.028  
 113542532.973    88310883.246    21210699.674 7  21210698.515 7  21210698.518 6
       155.560         120.995  
 117253540.501    91366413.7084   22312606.613 7  22312606.34145  22312611.19445
      1005.825         783.773  
 118790511.660    92564054.8224   22605082.617 7  22605081.95145  22605086.83545
      5935.995        4625.446  
 117441979.019    91343777.663    22000838.163 7  22000838.120 6  22000843.921 7
      3421.417        2661.091  
 125130737.148    97504490.7644   23811588.538 6  23811588.92644  23811594.35744
       133.854         104.321  
 119375295.652    92847479.414    22315953.589 6  22315953.085 6  22315955.326 6
      6923.314        5384.816  
 121856111.426    94777001.890    22795705.744 6  22795705.459 6  22795711.038 5
      7278.008        5660.660  
 126327606.042    98437117.0884   24039345.007 6  24039344.70743  24039350.09543
      6830.448        5322.455  
 129172931.047   100654257.2154   24580792.433 6  24580791.87042  24580796.89342
      6120.762        4769.390  
 126692131.947    98721160.7264   24108710.456 6  24108709.99443  24108714.68843
      7240.682        5642.120  
 11  5 30 12 32  0.0000000  0 16G26G28R 9R 8R10G15R 7G 8G27R18G 5R19
                                R 1G17G18G 9                        
 104279300.961    81256617.6884   19843691.896 8  19843691.57946  19843694.76346
      2889.757        2251.752  
 110521393.382    86120586.0924   21031523.005 8  21031522.04246  21031524.79146
      2826.368        2202.362  
 105153908.749    81786393.092    19691949.084 8  19691949.126 8  19691953.247 7
      2063.037        1604.585  
 107561044.150    83658611.002    20086265.978 8  20086265.902 8  20086266.214 7
      3716.275        2890.428  
 106996948.789    83219873.535    20072356.524 7  20072355.813 7  20072362.698 6
      5519.477        4292.920  
 111636057.486    86989153.7364   21243635.529 8  21243635.27046  21243638.38946
      5658.003        4408.825  
 113541756.104    88310278.999    21210555.079 7  21210553.701 7  21210553.244 6
       155.323         120.805  
 117248509.084    91362493.1204   22311649.331 7  22311648.87145  22311653.87245
      1006.652         784.394  
 118760829.700    92540926.0324   22599433.723 7  22599433.62545  22599438.52045
      5936.992        4626.208  
 117424878.334    91330477.133    21997634.352 7  21997634.285 7  21997639.983 7
      3418.712        2658.986  
 125130065.487    97503967.3824   23811460.867 7  23811461.23744  23811466.53644
       135.080         105.266  
 119340681.843    92820557.569    22309482.460 6  22309482.235 6  22309484.042 6
      6922.673        5384.315  
 121819722.487    94748699.391    22788899.955 6  22788898.986 6  22788903.768 5
      7277.532        5660.290  
 126293451.030    98410502.8054   24032844.726 6  24032844.92243  24032850.88743
      6831.694        5323.380  
 129142327.845   100630410.5784   24574968.327 6  24574968.54642  24574973.07942
      6120.617        4769.318  
 126655924.845    98692947.4174   24101820.215 6  24101819.81243  24101824.97043
      7242.001        5643.150  
 11  5 30 12 32  5.0000000  0 16G26G28R 9R 8R10G15R 7G 8G27R18G 5R19
                                R 1G17G18G 9                        
 104264855.332    81245361.3514   19840942.775 8  19840942.54946  19840945.81446
      2888.539        2250.816  
 110507263.820    86109576.0424   21028834.075 8  21028833.33246  21028836.05246
      2825.625        2201.776  
 105143593.830    81778370.371    19690018.082 8  19690017.505 8  19690021.466 7
      2062.901        1604.477  
 107542469.838    83644164.315    20082797.975 8  20082797.237 8  20082797.580 7
      3713.616        2888.357  
 106969351.365    83198408.872    20067179.054 7  20067178.576 7  20067185.540 6
      5519.379        4292.848  
 111607768.275    86967110.1954   21238252.035 8  21238252.05946  21238255.13846
      5657.733        4408.618  
 113540982.419    88309677.230    21210411.652 7  21210409.548 7  21210409.022 6
       154.148         119.883  
 117243473.471    91358569.2504   22310691.171 7  22310690.71145  22310695.63745
      1007.531         785.072  
 118731143.008    92517793.5524   22593784.676 7  22593784.38645  22593789.29145
      5937.829        4626.879  
 117407790.607    91317186.666    21994433.151 7  21994433.268 6  21994438.477 6
      3416.381        2657.197  
 125129387.677    97503439.2034   23811331.470 6  23811332.01544  23811337.52844
       136.033         105.997  
 119306071.589    92793638.501    22303012.655 6  22303012.672 6  22303014.500 6
      6921.711        5383.543  
 121783336.295    94720399.038    22782091.836 6  22782091.721 6  22782097.143 5
      7277.083        5659.917  
 126259290.194    98383883.9954   24026344.427 7  24026343.93443  24026350.07143
      6832.928        5324.338  
 129111725.272   100606564.4234   24569145.657 6  24569144.92242  24569149.63042
      6120.186        4768.946  
 126619710.215    98664728.2274   24094928.534 6  24094928.17843  24094933.67343
      7243.640        5644.386  
 11  5 30 12 32 10.0000000  0 16G26G28R 9R 8R10G15R 7G 8G27R18G 5R19
                                R 1G17G18G 9                        
 104250416.222    81234110.0994   19838194.846 8  19838194.88446  19838198.24246
      2887.139        2249.726  
 110493137.991    86098568.8974   21026145.774 8  21026145.21946  21026148.09846
      2824.757        2201.115  
 105133279.723    81770348.289    19688085.698 8  19688086.048 8  19688090.203 7
      2062.827        1604.427  
 107523909.451    83629728.461    20079330.945 8  20079330.715 7  20079331.295 7
      3710.667        2886.070  
 106941754.941    83176944.985    20062002.078 8  20062001.586 7  20062008.299 6
      5519.184        4292.702  
 111579480.783    86945067.9934   21232869.270 8  21232869.21546  21232872.18546
      5657.381        4408.352  
 113540214.353    88309079.835    21210266.635 7  21210265.899 7  21210264.831 6
       153.347         119.275  
 117238434.011    91354642.3874   22309731.951 7  22309731.59245  22309736.49145
      1008.318         785.712  
 118701451.902    92494657.6334   22588134.338 7  22588134.25145  22588139.16045
      5938.806        4627.666  
 117390715.912    91303906.357    21991234.682 6  21991234.730 6  21991239.967 6
      3413.669        2655.083  
 125128704.009    97502906.4554   23811202.556 6  23811202.00444  23811207.64844
       137.383         107.067  
 119271465.342    92766722.545    22296544.676 6  22296543.266 6  22296545.457 6
      6921.028        5383.023  
 121746953.186    94692101.092    22775285.187 6  22775285.413 6  22775291.203 5
      7276.376        5659.416  
 126225123.952    98357260.9474   24019841.814 6  24019842.32343  24019848.39443
      6833.322        5324.665  
 129081123.743   100582719.0894   24563321.955 6  24563321.43742  24563326.65142
      6120.374        4769.112  
 126583488.354    98636503.4134   24088036.247 6  24088035.62243  24088041.10743
      7245.274        5645.669  
 11  5 30 12 32 15.0000000  0 16G26G28R 9R 8R10G15R 7G 8G27R18G 5R19
                                R 1G17G18G 9                        
 104235983.855    81222864.0944   19835448.556 8  19835448.48646  19835451.87246
      2885.845        2248.719  
 110479016.043    86087564.7844   21023458.494 8  21023457.73846  21023460.60046
      2823.990        2200.514  
 105122966.530    81762326.919    19686154.855 8  19686154.825 8  19686158.442 7
      2062.438        1604.121  
 107505363.209    83615303.603    20075867.732 8  20075867.475 8  20075868.010 7
      3707.858        2883.899  
 106914159.702    83155482.022    20056825.016 8  20056824.757 7  20056831.612 6
      5518.978        4292.530  
 111551195.152    86923027.2484   21227486.833 8  21227486.69846  21227489.64946
      5656.832        4407.913  
 113539448.526    88308484.193    21210124.243 7  21210122.779 7  21210121.890 6
       152.867         118.899  
 117233390.844    91350712.6314   22308772.639 7  22308771.94145  22308776.82145
      1008.983         786.225  
 118671756.506    92471518.3694   22582483.643 7  22582483.56645  22582488.33745
      5939.591        4628.255  
 117373654.649    91290636.478    21988038.487 7  21988038.411 6  21988043.569 6
      3410.842        2652.883  
 125128014.662    97502369.2974   23811072.011 7  23811071.14444  23811076.42144
       138.254         107.731  
 119236863.229    92739809.789    22290076.096 7  22290074.648 6  22290077.220 6
      6920.080        5382.289  
 121710573.256    94663805.598    22768479.882 6  22768479.744 6  22768485.592 5
      7275.865        5659.000  
 126190952.362    98330633.7514   24013338.274 6  24013338.81343  24013345.22343
      6834.665        5325.708  
 129050523.447   100558874.7344   24557498.813 6  24557498.43342  24557503.18642
      6119.986        4768.816  
 126547259.476    98608273.1374   24081142.616 6  24081141.66643  24081147.03843
      7246.611        5646.693  
 11  5 30 12 32 20.0000000  0 16G26G28R 9R 8R10G15R 7G 8G27R18G 5R19
                                R 1G17G18G 9                        
 104221558.221    81211623.3364   19832703.301 8  19832703.30246  19832706.71046
      2884.415        2247.600  
 110464897.978    86076563.6864   21020771.701 8  21020771.08046  21020774.04446
      2823.208        2199.896  
 105112654.275    81754306.278    19684223.970 8  19684223.683 8  19684227.308 7
      2062.352        1604.048  
 107486831.051    83600889.700    20072407.581 8  20072407.199 8  20072407.178 7
      3704.828        2881.526  
 106886565.652    83134019.990    20051649.061 8  20051648.247 7  20051654.876 6
      5518.797        4292.394  
 111522911.439    86900987.9874   21222104.118 8  21222104.43546  21222107.45746
      5656.638        4407.771  
 113538687.468    88307892.249    21209981.699 7  21209980.094 7  21209979.861 6
       151.686         117.993  
 117228343.935    91346779.9754   22307812.142 7  22307811.59745  22307816.39645
      1009.784         786.847  
 118642056.884    92448375.8064   22576832.165 7  22576832.09545  22576836.78645
      5940.219        4628.750  
 117356606.642    91277376.915    21984845.226 7  21984844.985 7  21984849.586 6
      3408.088        2650.726  
 125127319.668    97501827.7114   23810939.176 7  23810938.87744  23810944.49644
       139.514         108.724  
 119202265.286    92712900.298    22283608.625 6  22283606.809 6  22283609.682 6
      6919.219        5381.606  
 121674196.762    94635512.776    22761675.183 6  22761675.143 6  22761680.179 5
      7275.060        5658.370  
 126156775.477    98304002.4164   24006834.522 6  24006835.09143  24006840.70443
      6835.929        5326.684  
 129019924.331   100535031.2704   24551676.477 6  24551675.95742  24551680.21542
      6119.740        4768.569  
 126511023.583    98580037.3724   24074246.468 6  24074245.92543  24074251.08643
      7247.808        5647.642  
 11  5 30 12 32 25.0000000  0 16G26G28R 9R 8R10G15R 7G 8G27R18G 5R19
                                R 1G17G18G 9                        
 104207139.612    81200388.0534   19829959.787 8  19829959.56346  19829962.98446
      2883.054        2246.525  
 110450784.111    86065565.8604   21018085.694 8  21018085.16146  21018088.26246
      2822.539        2199.388  
 105102343.276    81746286.611    19682292.690 8  19682292.721 8  19682296.573 7
      2062.032        1603.801  
 107468313.455    83586487.122    20068949.478 8  20068949.083 8  20068949.188 7
      3701.997        2879.334  
 106858973.041    83112559.068    20046472.304 8  20046471.874 7  20046478.453 6
      5518.538        4292.204  
 111494629.977    86878950.4884   21216722.711 8  21216722.67546  21216725.58446
      5656.157        4407.399  
 113537931.113    88307303.960    21209840.301 7  21209839.025 7  21209838.048 6
       151.087         117.518  
 117223293.691    91342844.7154   22306851.189 7  22306850.82845  22306855.36745
      1010.357         787.300  
 118612353.301    92425230.1644   22571179.546 7  22571179.48145  22571184.31445
      5941.248        4629.555  
 117339572.130    91264127.839    21981653.309 7  21981653.488 7  21981658.682 6
      3405.536        2648.758  
 125126619.354    97501281.9974   23810805.192 6  23810805.43544  23810811.37544
       140.552         109.514  
 119167671.974    92685994.383    22277140.901 6  22277139.870 6  22277142.787 6
      6918.383        5380.968  
 121637823.806    94607222.712    22754871.230 6  22754870.851 6  22754875.318 5
      7274.211        5657.709  
 126122593.740    98277367.3034   24000330.502 6  24000330.67743  24000335.46043
      6836.796        5327.410  
 128989326.796   100511189.0354   24545852.938 6  24545853.73542  24545857.90042
      6119.488        4768.449  
 126474780.971    98551796.3894   24067349.312 6  24067349.03343  24067354.61843
      7249.343        5648.838  
 11  5 30 12 32 30.0000000  0 16G26G28R 9R 8R10G15R 7G 8G27R18G 5R19
                                R 1G17G18G 9                        
 104192728.096    81189158.2984   19827217.463 8  19827217.21946  19827220.57446
      2881.619        2245.421  
 110436674.455    86054571.3254   21015400.393 8  21015400.05146  21015403.19746
      2821.513        2198.584  
 105092033.609    81738267.974    19680362.399 8  19680362.071 8  19680365.960 7
      2061.736        1603.576  
 107449810.347    83572095.811    20065494.865 8  20065494.239 8  20065493.939 7
      3699.069        2877.053  
 106831381.976    83091099.355    20041296.436 8  20041295.791 7  20041302.113 6
      5517.994        4291.768  
 111466350.812    86856914.7744   21211341.188 8  21211341.41546  21211344.22446
      5655.636        4406.991  
 113537177.656    88306717.935    21209700.606 7  21209699.091 7  21209697.632 6
       150.127         116.757  
 117218240.107    91338906.8434   22305889.702 7  22305888.98145  22305893.45445
      1011.063         787.830  
 118582645.862    92402081.5104   22565526.271 7  22565526.37945  22565531.23345
      5941.956        4630.102  
 117322551.562    91250889.615    21978464.972 7  21978465.133 7  21978470.839 7
      3402.891        2646.682  
 125125913.675    97500732.0904   23810671.330 7  23810671.26944  23810677.10444
       141.684         110.404  
 119133083.357    92659092.101    22270674.616 6  22270674.021 6  22270677.494 6
      6917.408        5380.214  
 121601454.558    94578935.535    22748067.002 6  22748067.028 6  22748071.554 5
      7273.346        5657.039  
 126088407.118    98250728.3754   23993825.415 6  23993824.91443  23993830.00843
      6837.879        5328.204  
 128958730.904   100487348.0824   24540030.879 6  24540031.44642  24540035.77542
      6118.948        4768.001  
 126438531.729    98523550.2434   24060452.072 7  24060451.30743  24060456.36543
      7250.530        5649.804  
 11  5 30 12 32 35.0000000  0 16G26G28R 9R 8R10G15R 7G 8G27R18G 5R19
                                R 1G17G18G 9                        
 104178323.787    81177934.1644   19824476.117 8  19824475.96946  19824479.58446
      2880.022        2244.172  
 110422569.158    86043580.1804   21012716.308 8  21012715.97446  21012719.02846
      2820.561        2197.830  
 105081725.334    81730250.424    19678431.249 8  19678431.320 7  19678435.620 7
      2061.464        1603.362  
 107431321.941    83557715.939    20062042.325 8  20062041.724 8  20062041.497 7
      3696.137        2874.777  
 106803792.655    83069640.995    20036119.925 8  20036119.955 7  20036126.499 6
      5517.690        4291.535  
 111438074.133    86834881.0024   21205960.766 8  21205960.52146  21205963.51946
      5654.994        4406.483  
 113536429.398    88306135.950    21209559.937 7  21209558.822 7  21209558.529 6
       149.190         116.032  
 117213183.290    91334966.4564   22304927.623 7  22304926.64845  22304931.02545
      1011.582         788.246  
 118552934.690    92378929.9524   22559872.395 7  22559872.70845  22559877.22945
      5942.684        4630.656  
 117305544.613    91237661.978    21975279.477 7  21975279.122 6  21975284.839 6
      3400.035        2644.473  
 125125202.790    97500178.1364   23810535.815 7  23810536.13644  23810541.87244
       142.751         111.230  
 119098499.390    92632193.455    22264210.277 6  22264209.004 6  22264211.541 6
      6916.173        5379.229  
 121565089.167    94550651.357    22741265.160 6  22741264.264 6  22741268.462 5
      7272.636        5656.481  
 126054215.780    98224085.7924   23987319.141 6  23987318.56243  23987323.22143
      6838.838        5328.963  
 128928136.763   100463508.5034   24534210.095 6  24534209.39842  24534214.12142
      6118.566        4767.705  
 126402275.981    98495299.0194   24053552.873 6  24053552.13143  24053557.28843
      7251.761        5650.719  
 11  5 30 12 32 40.0000000  0 16G26G28R 9R 8R10G15R 7G 8G27R18G 5R19
                                R 1G17G18G 9                        
 104163926.830    81166715.7494   19821736.543 8  19821736.28846  19821739.89846
      2878.619        2243.071  
 110408468.324    86032592.5204   21010033.394 8  21010032.75946  21010035.68646
      2819.669        2197.130  
 105071418.603    81722234.076    19676501.179 8  19676500.998 7  19676505.302 7
      2061.117        1603.086  
 107412848.148    83543347.431    20058592.314 8  20058592.039 8  20058591.658 7
      3693.175        2872.458  
 106776205.080    83048183.996    20030945.685 7  20030944.750 7  20030951.231 6
      5517.280        4291.215  
 111409799.928    86812849.1564   21200580.539 8  21200580.08246  21200583.00246
      5654.582        4406.164  
 113535685.684    88305557.492    21209422.004 7  21209419.936 7  21209419.649 6
       148.321         115.374  
 117208123.362    91331023.6604   22303964.354 7  22303963.59745  22303968.40245
      1012.242         788.754  
 118523219.908    92355775.5774   22554219.097 7  22554218.26145  22554222.72845
      5943.389        4631.198  
 117288551.530    91224445.156    21972094.705 6  21972095.130 6  21972101.345 7
      3397.278        2642.322  
 125124486.796    97499620.1984   23810399.354 6  23810399.84144  23810405.44144
       143.737         112.011  
 119063920.393    92605298.686    22257746.186 7  22257744.763 6  22257747.209 6
      6915.137        5378.449  
 121528727.828    94522370.325    22734463.517 6  22734462.021 6  22734466.059 5
      7271.849        5655.886  
 126020019.815    98197439.6174   23980812.100 6  23980811.46343  23980816.22543
      6839.691        5329.630  
 128897544.448   100439670.3474   24528388.174 6  24528388.01642  24528392.65842
      6118.308        4767.541  
 126366013.805    98467042.7904   24046651.439 6  24046651.20143  24046656.72143
      7253.105        5651.763  
 11  5 30 12 32 45.0000000  0 16G26G28R 9R 8R10G15R 7G 8G27R18G 5R19
                                R 1G17G18G 9                        
 104149537.318    81155503.1384   19818998.306 8  19818998.16446  19819001.72146
      2877.168        2241.950  
 110394372.119    86021608.4564   21007351.304 8  21007350.50846  21007353.20246
      2818.580        2196.301  
 105061113.612    81714219.077    19674571.135 8  19674571.143 8  19674575.291 7
      2060.739        1602.804  
 107394389.386    83528990.612    20055145.091 8  20055144.729 8  20055144.621 7
      3690.104        2870.082  
 106748619.471    83026728.525    20025770.560 8  20025769.858 7  20025775.910 6
      5516.900        4290.919  
 111381528.446    86790819.4334   21195200.909 8  21195200.33546  21195203.18746
      5653.942        4405.665  
 113534946.072    88304982.220    21209282.658 7  21209281.688 7  21209281.057 6
       147.340         114.603  
 117203060.493    91327078.5584   22303000.535 7  22302999.97645  22303004.92945
      1012.581         789.018  
 118493501.635    92332618.4894   22548564.036 7  22548563.04845  22548567.37145
      5944.053        4631.728  
 117271572.800    91211239.474    21968915.030 6  21968914.459 6  21968920.366 6
      3394.351        2640.045  
 125123765.822    97499058.3884   23810262.518 7  23810262.74644  23810268.33844
       144.555         112.650  
 119029346.428    92578407.828    22251281.495 6  22251281.234 6  22251283.833 6
      6914.175        5377.697  
 121492370.625    94494092.505    22727660.882 6  22727660.204 6  22727664.335 5
      7270.848        5655.091  
 125985819.498    98170790.0354   23974303.414 6  23974303.00843  23974307.39243
      6840.553        5330.290  
 128866954.235   100415833.8114   24522566.672 6  24522566.81242  24522571.43842
      6117.794        4767.079  
 126329745.443    98438781.7344   24039749.576 6  24039749.84143  24039755.21843
      7254.240        5652.665  
 11  5 30 12 32 50.0000000  0 16G26G28R 9R 8R10G15R 7G 8G27R18G 5R19
                                R 1G17G18G 9                        
 104135155.833    81144296.7824   19816261.870 8  19816261.55746  19816265.12946
      2875.488        2240.636  
 110380280.974    86010628.3434   21004669.871 8  21004669.19246  21004671.71346
      2817.787        2195.676  
 105050810.796    81706205.773    19672641.550 8  19672641.916 8  19672646.084 7
      2060.430        1602.563  
 107375945.976    83514645.741    20051701.300 8  20051700.662 8  20051700.572 7
      3687.190        2867.808  
 106721036.236    83005274.902    20020595.633 7  20020595.211 7  20020601.406 6
      5516.461        4290.579  
 111353260.168    86768792.2054   21189821.122 8  21189820.92046  21189823.77746
      5653.244        4405.115  
 113534211.803    88304411.115    21209146.518 7  21209144.520 7  21209143.938 6
       146.479         113.943  
 117197995.134    91323131.5404   22302036.709 7  22302036.19245  22302040.96145
      1013.352         789.623  
 118463780.353    92309459.0544   22542907.815 7  22542907.23645  22542911.60245
      5944.660        4632.211  
 117254608.231    91198044.803    21965737.074 7  21965737.045 7  21965742.304 6
      3391.533        2637.858  
 125123040.340    97498493.0584   23810124.643 7  23810124.77244  23810130.28744
       145.623         113.489  
 118994778.071    92551521.348    22244819.709 6  22244818.955 6  22244821.651 6
      6913.296        5377.013  
 121456017.976    94465818.248    22720859.180 6  22720859.663 6  22720864.002 5
      7270.204        5654.595  
 125951615.161    98144137.3134   23967795.307 6  23967794.33743  23967798.42043
      6841.225        5330.816  
 128836366.553   100391999.2554   24516746.369 6  24516745.59242  24516750.58242
      6117.371        4766.799  
 126293471.324    98410516.2014   24032846.592 6  24032847.00243  24032852.82743
      7255.389        5653.565  
 11  5 30 12 32 55.0000000  0 16G26G28R 9R 8R10G15R 7G 8G27R18G 5R19
                                R 1G17G18G 9                        
 104120781.972    81133096.3694   19813526.541 8  19813526.35446  19813529.80046
      2873.934        2239.424  
 110366194.653    85999651.9884   21001989.252 8  21001988.64246  21001991.22146
      2816.858        2194.955  
 105040509.782    81698193.875    19670713.733 8  19670713.272 8  19670716.929 7
      2060.029        1602.245  
 107357517.774    83500312.693    20048259.763 8  20048259.069 8  20048259.207 7
      3684.190        2865.479  
 106693455.221    82983823.006    20015422.472 8  20015421.438 7  20015426.997 6
      5516.040        4290.254  
 111324994.851    86746767.2894   21184442.423 7  21184442.27346  21184445.07246
      5652.837        4404.808  
 113533482.460    88303843.841    21209010.381 7  21209008.529 7  21209007.594 6
       145.592         113.237  
 117192927.050    91319182.3594   22301071.939 7  22301071.63945  22301076.45545
      1014.031         790.157  
 118434055.803    92286297.0664   22537251.362 7  22537250.77145  22537255.41245
      5945.343        4632.732  
 117237658.152    91184861.411    21962562.690 7  21962562.125 7  21962567.624 6
      3388.758        2635.698  
 125122310.157    97497924.0624   23809985.882 7  23809985.80144  23809991.14644
       146.604         114.238  
 118960215.042    92524638.992    22238358.075 6  22238357.732 6  22238360.624 6
      6911.971        5375.979  
 121419669.824    94437547.474    22714061.094 6  22714060.307 6  22714064.950 5
      7269.120        5653.753  
 125917406.637    98117481.3674   23961285.094 6  23961284.99143  23961289.13743
      6842.299        5331.644  
 128805781.110   100368166.4664   24510926.440 6  24510925.57842  24510930.16742
      6117.084        4766.571  
 126257191.179    98382245.9654   24025942.109 6  24025943.04643  24025948.50343
      7256.721        5654.593  
 11  5 30 12 33  0.0000000  0 16G26G28R 9R 8R10G15R 7G 8G27R18G 5R19
                                R 1G17G18G 9                        
 104106415.791    81121901.9384   19810793.052 8  19810792.69246  19810795.96946
      2872.536        2238.339  
 110352113.133    85988679.3744   20999309.589 8  20999309.06246  20999311.57546
      2815.937        2194.242  
 105030210.607    81690183.405    19668784.893 8  19668784.770 8  19668788.265 7
      2059.655        1601.955  
 107339104.564    83485991.308    20044820.811 8  20044820.426 8  20044820.726 7
      3681.184        2863.152  
 106665876.320    82962372.752    20010247.884 8  20010247.640 7  20010253.278 6
      5515.600        4289.909  
 111296732.441    86724744.6344   21179063.777 8  21179064.06246  21179066.96746
      5652.108        4404.234  
 113532757.148    88303279.697    21208874.844 7  21208873.116 7  21208872.036 6
       144.492         112.389  
 117187856.127    91315230.9944   22300107.140 7  22300106.74145  22300111.61245
      1014.510         790.541  
 118404327.970    92263132.5314   22531594.206 7  22531593.79045  22531598.45945
      5945.997        4633.238  
 117220722.317    91171689.098    21959389.556 7  21959388.792 7  21959394.930 7
      3385.655        2633.283  
 125121575.126    97497351.2934   23809845.880 7  23809845.81744  23809851.41144
       147.584         114.998  
 118925657.364    92497760.805    22231899.404 7  22231898.129 6  22231900.537 6
      6911.062        5375.273  
 121383326.060    94409280.108    22707261.870 6  22707260.807 6  22707265.708 5
      7268.411        5653.227  
 125883193.952    98090822.1644   23954774.268 6  23954774.41443  23954779.70343
      6842.766        5331.991  
 128775197.962   100344335.4444   24505106.288 6  24505105.57442  24505109.93542
      6116.273        4765.930  
 126220905.020    98353971.0554   24019037.546 6  24019038.16443  24019043.83443
      7257.795        5655.421  
 11  5 30 12 33  5.0000000  0 16G26G28R 9R 8R10G15R 7G 8G27R18G 5R19
                                R 1G17G18G 9                        
 104092057.393    81110713.5744   19808060.882 8  19808060.45246  19808063.66546
      2870.896        2237.063  
 110338036.560    85977710.6144   20996631.279 8  20996630.54246  20996632.86146
      2814.875        2193.419  
 105019913.425    81682174.488    19666856.546 8  19666856.555 8  19666859.993 8
      2059.194        1601.599  
 107320706.860    83471681.986    20041384.944 8  20041384.453 8  20041385.058 7
      3678.050        2860.713  
 106638299.684    82940924.266    20005075.586 8  20005074.405 7  20005080.286 6
      5515.162        4289.572  
 111268473.156    86702724.4134   21173686.509 8  21173686.42346  21173689.31346
      5651.613        4403.854  
 113532037.459    88302719.926    21208740.675 7  21208738.711 7  21208737.806 6
       143.636         111.723  
 117182782.617    91311277.5994   22299142.127 7  22299141.55245  22299146.29445
      1015.087         790.979  
 118374597.047    92239965.5784   22525936.945 7  22525936.11445  22525941.00845
      5946.460        4633.613  
 117203801.067    91158528.116    21956219.005 7  21956218.628 6  21956225.418 7
      3382.827        2631.102  
 125120835.413    97496774.8694   23809705.642 7  23809705.38744  23809710.64344
       148.422         115.645  
 118891105.146    92470886.879    22225439.767 7  22225439.168 7  22225441.304 6
      6909.891        5374.360  
 121346986.917    94381016.349    22700462.435 6  22700462.688 6  22700467.974 5
      7267.391        5652.422  
 125848977.248    98064159.8134   23948263.959 6  23948263.35043  23948268.27943
      6843.291        5332.450  
 128744617.264   100320506.3314   24499286.845 6  24499286.18442  24499290.59042
      6115.843        4765.584  
 126184612.932    98325691.5154   24012132.495 6  24012132.06743  24012137.79543
      7259.079        5656.433  
 11  5 30 12 33 10.0000000  0 16G26G28R 9R 8R10G15R 7G 8G27R18G 5R19
                                R 1G17G18G 9                        
 104077706.912    81099531.3824   19805330.279 8  19805329.82046  19805332.80446
      2869.325        2235.837  
 110323965.024    85966745.7804   20993953.390 8  20993952.85846  20993954.98346
      2813.778        2192.556  
 105009618.342    81674167.204    19664927.999 8  19664928.482 8  19664932.394 7
      2058.842        1601.320  
 107302324.394    83457384.515    20037951.927 8  20037951.747 8  20037952.099 7
      3674.972        2858.309  
 106610725.527    82919477.700    19999902.443 8  19999901.588 7  19999907.405 6
      5514.632        4289.165  
 111240217.039    86680706.6614   21168309.184 8  21168309.43146  21168312.28546
      5650.960        4403.351  
 113531321.870    88302163.351    21208606.203 7  21208604.856 7  21208604.267 6
       142.712         110.992  
 117177706.601    91307322.2394   22298176.141 7  22298175.69045  22298180.19845
      1015.493         791.308  
 118344863.029    92216796.2204   22520278.527 7  22520277.81745  22520282.56945
      5947.209        4634.188  
 117186894.134    91145378.284    21953051.982 7  21953051.667 6  21953057.462 6
      3379.945        2628.852  
 125120091.074    97496194.8544   23809563.342 7  23809563.61544  23809569.03544
       149.348         116.371  
 118856558.461    92444017.250    22218981.156 7  22218981.108 6  22218983.230 6
      6908.671        5373.418  
 121310652.406    94352756.192    22693666.540 6  22693665.929 6  22693670.652 5
      7266.415        5651.661  
 125814756.563    98037494.3664   23941752.185 6  23941751.48543  23941755.69043
      6844.665        5333.501  
 128714039.040   100296679.1474   24493467.780 6  24493467.56442  24493471.81742
      6115.324        4765.152  
 126148315.085    98297407.4954   24005224.979 6  24005224.75943  24005230.18943
      7260.118        5657.238  
 11  5 30 12 33 15.0000000  0 16G26G28R 9R 8R10G15R 7G 8G27R18G 5R19
                                R 1G17G18G 9                        
 105638787.262    82315957.6244   20102393.657 8  20102393.47146  20102396.58447
      2867.677        2234.545  
 111885321.376    87183387.0934   21291069.690 8  21291069.05046  21291071.22646
      2812.891        2191.862  
 106600202.556    82911288.256    19962793.740 8  19962793.632 8  19962797.654 7
      2058.361        1600.945  
 108889336.059    84691726.916    20334315.781 8  20334315.097 7  20334315.314 7
      3671.909        2855.927  
 108181221.919    84140974.895    20294522.864 8  20294522.558 7  20294529.001 6
      5514.045        4288.702  
 112787389.847    87886295.8594   21462726.571 8  21462726.56246  21462729.44246
      5650.351        4402.867  
 115135424.534    89549798.744    21508266.053 7  21508264.512 7  21508264.286 6
       141.466         110.029  
 118748049.059    92530965.7024   22597002.060 7  22597001.82545  22597006.57445
      1016.118         791.778  
 119890552.007    93421229.1954   22814413.347 7  22814412.62145  22814417.39745
      5947.834        4634.688  
 118770317.565    92376929.848    22249681.068 7  22249680.482 7  22249685.774 7
      3377.104        2626.637  
 126694762.286    98723211.3694   24109213.765 7  24109213.46444  24109219.22044
       150.374         117.176  
 120425712.029    93664470.047    22512319.215 7  22512317.923 6  22512319.963 6
      6907.879        5372.777  
 122876892.508    95570942.949    22986664.310 6  22986664.038 6  22986668.294 5
      7265.792        5651.188  
 127355958.897    99238431.2824   24235033.421 6  24235032.44843  24235037.60943
      6845.348        5334.019  
 130258889.546   101500458.7744   24787443.427 6  24787442.77642  24787447.29142
      6115.004        4764.976  
 127687438.773    99496724.6684   24298109.807 6  24298110.26443  24298115.46143
      7261.346        5658.224  
 11  5 30 12 33 20.0000000  0 16G26G28R 9R 8R10G15R 7G 8G27R18G 5R19
                                R 1G17G18G 9                        
 105624453.028    82304788.0944   20099666.082 8  20099665.76046  20099668.96146
      2865.965        2233.226  
 111871260.237    87172430.3584   21288394.028 8  21288393.28846  21288395.52846
      2811.613        2190.875  
 106589911.970    82903284.469    19960866.258 8  19960866.424 8  19960870.370 7
      2057.813        1600.526  
 108870984.847    84677453.756    20330889.449 8  20330888.170 8  20330888.422 7
      3668.449        2853.239  
 108153653.086    84119532.475    20289351.451 8  20289350.714 7  20289357.122 6
      5513.504        4288.277  
 112759140.485    87864283.3704   21457350.839 8  21457350.87346  21457353.92746
      5649.524        4402.224  
 115134719.946    89549250.718    21508134.915 7  21508133.229 7  21508132.415 6
       140.439         109.231  
 118742968.304    92527006.6654   22596035.557 7  22596035.02145  22596039.66845
      1016.301         791.924  
 119860812.317    93398055.4234   22808754.167 7  22808753.16245  22808758.17445
      5948.163        4634.943  
 118753440.111    92363802.926    22246519.664 7  22246518.998 7  22246523.844 6
      3373.969        2624.200  
 126694009.047    98722624.4094   24109069.509 6  24109070.01344  24109075.89744
       150.975         117.640  
 120391177.042    93637609.507    22505863.324 7  22505861.631 6  22505864.099 6
      6906.481        5371.708  
 122840567.896    95542690.493    22979868.753 6  22979868.450 6  22979873.307 5
      7264.302        5650.003  
 127321730.783    99211760.0264   24228519.688 6  24228519.67243  24228524.23043
      6845.882        5334.452  
 130228316.790   101476635.8584   24781625.308 6  24781625.15142  24781629.27742
      6114.135        4764.255  
 127651129.735    99468431.9184   24291200.920 6  24291201.18643  24291206.08743
      7262.292        5658.934  
 11  5 30 12 33 25.0000000  0 16G26G28R 9R 8R10G15R 7G 8G27R18G 5R19
                                R 1G17G18G 9                        
 105610127.054    82293624.9954   20096939.692 8  20096939.49446  20096942.70846
      2864.475        2232.076  
 111857204.483    87161477.8274   21285719.371 8  21285718.65046  21285720.79946
      2810.785        2190.217  
 106579623.912    82895282.643    19958939.304 8  19958939.298 7  19958943.720 7
      2057.564        1600.328  
 108852649.359    84663192.815    20327464.461 8  20327464.094 7  20327464.355 7
      3665.720        2851.127  
 108126087.076    84098092.236    20284179.491 8  20284178.956 7  20284185.985 6
      5513.078        4287.965  
 112730894.767    87842273.7174   21451975.976 8  21451975.89646  21451978.77246
      5649.018        4401.835  
 115134020.309    89548706.543    21508004.600 7  21508002.729 7  21508001.299 6
       139.410         108.437  
 118737885.365    92523045.9274   22595068.646 7  22595067.70145  22595072.44645
      1016.934         792.412  
 119831069.984    93374879.5844   22803094.116 7  22803093.44645  22803098.49445
      5948.787        4635.422  
 118736577.486    92350687.557    22243361.583 7  22243360.686 7  22243365.376 6
      3371.163        2622.018  
 126693251.635    98722034.1914   24108925.092 6  24108925.44744  24108931.90444
       152.191         118.593  
 120356648.171    93610753.729    22499408.533 7  22499406.678 6  22499409.502 6
      6905.280        5370.766  
 122804248.476    95514442.073    22973074.360 6  22973074.346 6  22973079.722 5
      7263.447        5649.350  
 127287499.222    99185086.1044   24222005.006 6  24222005.10443  24222010.44243
      6846.649        5335.067  
 130197746.950   101452815.2194   24775809.074 6  24775807.83442  24775812.58842
      6114.104        4764.231  
 127614815.333    99440134.9804   24284291.626 7  24284290.71943  24284295.96343
      7263.600        5659.930  
 11  5 30 12 33 30.0000000  0 16G26G28R 9R 8R10G15R 7G 8G27R18G 5R19
                                R 1G17G18G 9                        
 105595809.048    82282468.1084   20094215.004 8  20094214.81647  20094218.01347
      2862.661        2230.644  
 111843153.862    87150529.2964   21283045.513 8  21283044.97546  21283046.79346
      2809.527        2189.236  
 106569337.973    82887282.460    19957013.089 8  19957013.255 8  19957017.447 7
      2056.849        1599.766  
 108834329.237    84648943.829    20324044.415 8  20324043.085 8  20324043.365 7
      3662.341        2848.483  
 108098523.480    84076653.886    20279008.491 8  20279008.095 7  20279014.853 6
      5512.443        4287.450  
 112702652.382    87820266.6704   21446601.372 7  21446601.57146  21446604.34646
      5647.979        4401.022  
 115133325.648    89548166.244    21507874.098 7  21507872.948 7  21507871.750 6
       138.246         107.526  
 118732799.944    92519083.2664   22594100.810 7  22594100.03345  22594104.64545
      1017.304         792.709  
 119801324.718    93351701.4664   22797433.402 7  22797433.20145  22797438.08645
      5949.277        4635.812  
 118719729.382    92337583.468    22240204.532 7  22240204.100 7  22240209.323 7
      3368.254        2619.757  
 126692489.673    98721440.4254   24108780.237 6  24108780.60944  24108787.04144
       152.629         118.943  
 120322125.154    93583902.518    22492953.739 7  22492953.202 6  22492955.918 6
      6903.992        5369.777  
 122767933.790    95486197.334    22966281.355 6  22966281.052 6  22966285.725 5
      7262.231        5648.376  
 127253263.861    99158409.2344   24215490.735 6  24215490.45943  24215495.89143
      6847.206        5335.466  
 130167179.826   101428996.6964   24769991.622 6  24769991.22042  24769995.49242
      6113.040        4763.391  
 127578495.243    99411833.6314   24277380.377 7  24277379.09543  24277384.62143
      7264.461        5660.632  
 11  5 30 12 33 35.0000000  0 16G26G28R 9R 8R10G15R 7G 8G27R18G 5R19
                                R 1G17G18G 9                        
 105581499.819    82271318.0554   20091491.916 8  20091491.76846  20091495.07446
      2860.960        2229.315  
 111829109.071    87139585.2974   21280372.907 7  21280372.30246  21280374.17746
      2808.393        2188.362  
 106559055.020    82879284.608    19955087.998 8  19955087.967 8  19955091.841 7
      2056.370        1599.402  
 108816025.541    84634707.616    20320625.572 8  20320625.037 7  20320625.436 7
      3659.186        2846.032  
 108070963.185    84055218.103    20273838.983 8  20273838.385 7  20273844.590 6
      5511.810        4286.954  
 112674414.087    87798262.8074   21441227.677 8  21441227.88746  21441230.85646
      5647.333        4400.511  
 115132636.901    89547630.535    21507745.940 7  21507744.306 7  21507742.930 6
       137.341         106.820  
 118727712.843    92515119.2864   22593132.552 7  22593132.16745  22593136.57045
      1017.633         792.961  
 119771577.316    93328521.6734   22791773.244 7  22791772.65045  22791777.27845
      5949.825        4636.229  
 118702896.858    92324491.493    22237050.670 7  22237050.626 6  22237056.097 6
      3364.933        2617.173  
 126691723.878    98720843.6874   24108634.730 6  24108635.14644  24108641.18544
       153.602         119.699  
 120287608.705    93557056.392    22486501.276 7  22486500.486 6  22486502.803 6
      6902.734        5368.780  
 122731624.887    95457957.082    22959489.676 6  22959488.991 6  22959492.908 5
      7261.274        5647.682  
 127219025.565    99131730.0364   24208975.584 6  24208975.28243  24208980.43143
      6847.932        5336.070  
 130136616.113   101405180.8144   24764175.727 6  24764175.21542  24764179.80842
      6112.517        4763.014  
 127542170.289    99383528.4874   24270468.048 7  24270466.56343  24270472.16943
      7265.740        5661.595  
 11  5 30 12 33 40.0000000  0 16G26G28R 9R 8R10G15R 7G 8G27R18G 5R19
                                R 1G17G18G 9                        
 105567199.084    82260174.6284   20088770.701 8  20088770.48247  20088773.75547
      2859.334        2228.052  
 111815069.817    87128645.6174   21277701.345 7  21277700.66446  21277702.67146
      2807.314        2187.509  
 106548774.686    82871288.789    19953163.037 8  19953162.884 8  19953166.628 7
      2055.865        1599.009  
 108797737.742    84620483.772    20317211.261 8  20317210.298 8  20317209.876 7
      3655.976        2843.546  
 108043405.920    84033784.680    20268669.125 8  20268668.788 7  20268674.795 6
      5511.112        4286.429  
 112646179.569    87776261.8894   21435855.231 7  21435855.03246  21435858.00946
      5646.504        4399.872  
 115131953.390    89547098.916    21507617.410 7  21507616.268 7  21507615.939 6
       136.167         105.918  
 118722623.676    92511153.6844   22592164.324 7  22592163.63145  22592168.18145
      1017.970         793.225  
 119741827.458    93305339.9644   22786111.071 7  22786111.34845  22786116.05845
      5950.231        4636.551  
 118686079.348    92311411.204    22233899.627 7  22233899.637 7  22233905.686 7
      3362.030        2614.919  
 126690953.958    98720243.7194   24108488.136 6  24108488.41144  24108494.73644
       154.292         120.224  
 120253098.663    93530215.269    22480049.992 6  22480049.339 6  22480051.571 6
      6901.312        5367.685  
 122695321.301    95429720.979    22952698.484 6  22952697.874 6  22952700.755 5
      7260.027        5646.683  
 127184783.994    99105048.3044   24202459.372 6  24202459.05243  24202464.25143
      6848.776        5336.719  
 130106055.545   101381367.3964   24758360.735 6  24758359.90842  24758364.23742
      6111.892        4762.492  
 127505840.124    99355219.2704   24263554.230 6  24263553.95843  24263558.18743
      7266.813        5662.449  
 11  5 30 12 33 45.0000000  0 16G26G28R 9R 8R10G15R 7G 8G27R18G 5R19
                                R 1G17G18G 9                        
 105552907.277    82249038.1514   20086051.344 8  20086050.93747  20086054.18046
      2857.366        2226.519  
 111801036.573    87117710.6254   21275030.852 8  21275030.09346  21275032.22346
      2805.987        2186.485  
 106538497.369    82863295.328    19951238.458 8  19951238.405 8  19951242.123 7
      2055.098        1598.417  
 108779466.448    84606272.762    20313799.673 8  20313798.524 8  20313797.830 7
      3652.615        2840.919  
 108015852.170    84012353.987    20263500.371 8  20263499.746 7  20263505.684 6
      5510.353        4285.834  
 112617949.319    87754264.2894   21430482.893 8  21430483.03946  21430486.01046
      5645.632        4399.188  
 115131275.777    89546571.867    21507490.395 7  21507489.238 7  21507489.029 6
       134.758         104.817  
 118717532.955    92507186.8854   22591195.722 7  22591194.81745  22591199.79145
      1018.358         793.508  
 119712075.574    93282156.6834   22780450.056 7  22780449.58645  22780454.39645
      5950.569        4636.799  
 118669277.191    92298342.880    22230752.737 7  22230752.239 6  22230757.986 7
      3358.904        2612.482  
 126690180.310    98719640.8484   24108340.659 6  24108341.15344  24108347.50344
       155.347         121.060  
 120218595.373    93503379.385    22473598.259 6  22473598.985 6  22473601.467 6
      6900.105        5366.751  
 122659023.631    95401489.465    22945907.472 6  22945907.383 6  22945909.759 5
      7259.023        5645.907  
 127150539.595    99078364.3814   24195942.796 6  24195942.41843  24195947.64343
      6849.413        5337.212  
 130075498.673   101357556.8534   24752545.872 6  24752545.40142  24752549.58242
      6110.898        4761.720  
 127469505.260    99326906.4074   24256639.729 6  24256639.43543  24256644.14043
      7267.498        5662.976  
 11  5 30 12 33 50.0000000  0 16G26G28R 9R 8R10G15R 7G 8G27R18G 5R19
                                R 1G17G18G 9                        
 105538624.020    82237908.3384   20083333.042 8  20083332.86346  20083336.16346
      2855.780        2225.275  
 111787008.911    87106779.9824   21272361.318 8  21272360.70946  21272362.84246
      2805.023        2185.723  
 106528222.716    82855303.928    19949314.685 8  19949314.516 8  19949317.744 7
      2054.640        1598.045  
 108761210.861    84592073.980    20310389.016 8  20310389.098 8  20310388.860 7
      3649.493        2838.493  
 107988301.419    83990925.638    20258331.497 7  20258331.211 7  20258337.470 6
      5509.753        4285.354  
 112589722.970    87732269.7334   21425111.590 7  21425111.81946  21425114.60546
      5644.901        4398.615  
 115130603.557    89546049.021    21507365.988 7  21507364.023 7  21507363.679 6
       133.928         104.159  
 118712440.256    92503218.5454   22590226.845 7  22590225.90145  22590230.58645
      1018.804         793.870  
 119682321.323    93258971.5604   22774787.695 7  22774787.45545  22774792.40645
      5951.021        4637.142  
 118652490.307    92285286.426    22227607.719 7  22227607.701 6  22227613.457 7
      3355.933        2610.162  
 126689402.609    98719034.8214   24108192.730 6  24108193.18744  24108199.46244
       156.001         121.560  
 120184098.549    93476548.513    22467149.744 6  22467149.698 6  22467152.226 6
      6898.763        5365.680  
 122622731.365    95373262.150    22939118.206 6  22939118.192 6  22939121.365 5
      7257.876        5645.007  
 127116291.966    99051677.9524   24189424.362 6  24189424.78743  24189429.88343
      6849.783        5337.452  
 130044944.946   101333748.7794   24746731.067 6  24746730.80642  24746735.82442
      6110.494        4761.400  
 127433165.236    99298589.5224   24249724.502 6  24249723.97443  24249729.61243
      7268.346        5663.632  
 11  5 30 12 33 55.0000000  0 16G26G28R 9R 8R10G15R 7G 8G27R18G 5R19
                                R 1G17G18G 9                        
 105524349.740    82226785.5194   20080616.931 8  20080616.65446  20080619.86946
      2853.983        2223.882  
 111772987.369    87095854.1034   21269692.850 8  21269692.38846  21269694.75246
      2803.874        2184.845  
 106517951.263    82847315.025    19947391.005 8  19947390.989 8  19947394.516 8
      2054.094        1597.620  
 108742972.101    84577888.272    20306983.934 8  20306983.237 8  20306982.903 7
      3646.126        2835.870  
 107960754.212    83969500.035    20253163.978 8  20253163.358 7  20253169.777 6
      5509.135        4284.882  
 112561501.029    87710278.6144   21419741.482 8  21419741.39346  21419744.31246
      5643.948        4397.876  
 115129937.400    89545530.898    21507241.146 7  21507239.774 7  21507239.206 6
       132.693         103.204  
 118707346.104    92499249.0714   22589257.333 7  22589256.65645  22589261.35745
      1018.995         794.020  
 119652565.143    93235784.9344   22769124.936 7  22769125.03845  22769130.17045
      5951.541        4637.569  
 118635719.090    92272242.159    22224465.901 6  22224465.412 6  22224471.438 6
      3352.859        2607.781  
 126688621.293    98718425.9854   24108043.725 6  24108044.39944  24108050.76744
       156.585         122.002  
 120149608.623    93449723.047    22460702.791 6  22460701.713 6  22460704.628 6
      6897.147        5364.438  
 122586445.221    95345039.601    22932330.478 6  22932330.552 6  22932332.939 5
      7256.613        5644.026  
 127082041.700    99024989.4464   24182906.319 6  24182906.66843  24182912.28743
      6850.642        5338.158  
 130014394.994   101309943.6274   24740918.128 6  24740917.42942  24740921.85042
      6109.697        4760.811  
 127396820.644    99270269.0694   24242808.414 7  24242807.70543  24242813.21043
      7269.424        5664.488  
 11  5 30 12 34  0.0000000  0 16G26G28R 9R 8R10G15R 7G 8G27R18G 5R19
                                R 1G17G18G 9                        
 105510084.285    82215669.5784   20077902.319 8  20077902.05847  20077905.34147
      2852.302        2222.576  
 111758971.741    87084932.8324   21267025.672 8  21267025.17546  21267027.89546
      2802.512        2183.777  
 106507682.843    82839328.470    19945467.979 8  19945467.872 8  19945471.680 7
      2053.527        1597.192  
 108724749.523    84563715.152    20303580.835 8  20303580.189 8  20303579.650 7
      3642.918        2833.389  
 107933210.397    83948077.062    20247996.533 8  20247996.010 7  20248002.769 6
      5508.322        4284.261  
 112533283.297    87688290.7704   21414371.763 8  21414371.77846  21414374.54346
      5643.128        4397.233  
 115129276.713    89545017.019    21507118.166 7  21507116.632 7  21507115.927 6
       131.671         102.415  
 118702250.310    92495278.3144   22588287.507 7  22588286.84945  22588291.60245
      1019.262         794.228  
 119622806.922    93212596.7104   22763462.928 7  22763462.36045  22763467.25145
      5951.859        4637.818  
 118618963.272    92259209.854    22221326.971 6  22221326.768 6  22221332.352 6
      3349.720        2605.338  
 126687836.196    98717814.1994   24107894.717 6  24107894.90644  24107901.37444
       157.563         122.791  
 120115125.563    93422902.883    22454256.548 6  22454255.599 6  22454258.869 6
      6895.976        5363.554  
 122550164.861    95316821.561    22925543.827 6  22925542.970 6  22925546.406 5
      7255.479        5643.162  
 127047788.562    98998298.7264   24176387.983 6  24176387.88643  24176394.05843
      6851.035        5338.446  
 129983848.630   101286141.2764   24735105.975 6  24735104.80742  24735109.18942
      6108.885        4760.179  
 127360471.267    99241944.8874   24235891.123 6  24235890.44543  24235896.11743
      7270.351        5665.211  
 11  5 30 12 34  5.0000000  0 16G26G28R 9R 8R10G15R 7G 8G27R18G 5R19
                                R 1G17G18G 9                        
 105495827.801    82204560.6334   20075189.088 8  20075189.02246  20075192.47746
      2850.316        2221.027  
 111744962.045    87074016.1924   21264359.648 8  21264358.95646  21264361.84546
      2801.232        2182.772  
 106497417.440    82831344.263    19943545.267 8  19943545.214 8  19943549.056 7
      2052.738        1596.575  
 108706543.331    84549554.772    20300180.010 8  20300179.786 8  20300179.719 7
      3639.437        2830.662  
 107905669.990    83926656.752    20242829.878 7  20242829.376 7  20242836.143 6
      5507.701        4283.760  
 112505069.882    87666306.2944   21409003.068 8  21409002.89346  21409005.69846
      5642.205        4396.515  
 115128621.729    89544507.585    21506995.792 7  21506994.331 7  21506993.561 6
       130.411         101.440  
 118697152.956    92491306.3424   22587317.396 7  22587316.75945  22587321.51245
      1019.490         794.396  
 119593046.676    93189406.9144   22757799.563 7  22757799.21945  22757804.06545
      5952.330        4638.193  
 118602222.969    92246189.625    22218191.559 6  22218190.950 6  22218196.374 6
      3346.408        2602.752  
 126687047.354    98717199.5024   24107745.344 6  24107744.96644  24107751.13744
       157.990         123.116  
 120080649.351    93396088.063    22447810.481 6  22447810.162 6  22447813.616 6
      6894.455        5362.342  
 122513890.443    95288608.129    22918757.483 6  22918757.402 6  22918760.471 5
      7253.940        5641.954  
 127013532.681    98971605.8314   24169870.509 6  24169869.96243  24169875.40943
      6851.382        5338.764  
 129953305.837   101262341.6914   24729293.852 6  24729292.76642  24729296.82842
      6108.128        4759.520  
 127324117.193    99213617.0494   24228973.420 6  24228972.30043  24228978.04443
      7271.137        5665.790  
 11  5 30 12 34 10.0000000  0 16G26G28R 9R 8R10G15R 7G 8G27R18G 5R19
                                R 1G17G18G 9                        
 105481580.583    82193458.9044   20072477.998 8  20072477.92047  20072481.30846
      2848.531        2219.635  
 111730958.695    87063104.4894   21261695.028 8  21261694.34646  21261697.30646
      2800.010        2181.824  
 106487155.464    82823362.726    19941624.024 8  19941623.782 8  19941627.501 7
      2052.117        1596.086  
 108688353.875    84535407.424    20296782.909 8  20296782.771 8  20296783.100 7
      3636.344        2828.274  
 107878133.473    83905239.466    20237664.368 8  20237663.798 7  20237670.206 6
      5506.943        4283.175  
 112476861.161    87644325.4784   21403635.178 8  21403635.00646  21403637.88746
      5641.231        4395.774  
 115127973.072    89544003.065    21506874.203 7  21506872.982 7  21506872.373 6
       128.980         100.312  
 118692054.392    92487333.4314   22586347.212 7  22586346.52545  22586351.24545
      1019.859         794.703  
 119563284.839    93166215.8744   22752136.471 7  22752135.76045  22752140.40645
      5952.641        4638.410  
 118585498.505    92233181.710    22215057.686 6  22215057.973 6  22215063.012 6
      3343.310        2600.351  
 126686255.141    98716582.1694   24107594.536 7  24107594.54244  24107600.41244
       158.807         123.738  
 120046180.364    93369278.850    22441368.215 6  22441367.161 6  22441370.945 6
      6893.093        5361.292  
 122477622.353    95260399.627    22911973.295 7  22911972.750 6  22911976.507 5
      7253.055        5641.262  
 126979274.454    98944911.1134   24163350.878 6  24163350.70343  24163356.06843
      6851.834        5339.134  
 129922767.103   101238545.2864   24723482.190 6  24723481.93442  24723485.28442
      6107.334        4758.981  
 127287758.752    99185285.8204   24222054.422 6  24222053.45843  24222059.06743
      7272.062        5666.523  
 11  5 30 12 34 15.0000000  0 16G26G28R 9R 8R10G15R 7G 8G27R18G 5R19
                                R 1G17G18G 9                        
 105467342.538    82182364.3204   20069768.644 8  20069768.48047  20069771.92646
      2846.781        2218.275  
 111716961.602    87052197.6614   21259031.395 8  21259030.72346  21259033.77946
      2798.893        2180.962  
 106476896.746    82815383.715    19939702.932 8  19939702.681 8  19939706.348 7
      2051.502        1595.615  
 108670181.262    84521273.166    20293390.504 8  20293389.675 8  20293389.626 7
      3632.900        2825.596  
 107850600.705    83883825.096    20232498.720 7  20232498.707 7  20232505.200 6
      5506.207        4282.611  
 112448657.080    87622348.2714   21398267.960 8  21398268.06046  21398270.68346
      5640.394        4395.122  
 115127330.643    89543503.384    21506754.678 7  21506752.778 7  21506752.427 6
       127.899          99.464  
 118686954.534    92483359.5044   22585376.455 7  22585376.02045  22585380.65345
      1020.107         794.881  
 119533521.300    93143023.5154   22746472.571 7  22746471.93845  22746476.48345
      5952.792        4638.535  
 118568789.965    92220186.167    22211928.267 7  22211927.951 6  22211933.008 6
      3339.931        2597.730  
 126685459.463    98715962.1374   24107442.638 6  24107442.87344  24107448.91344
       159.508         124.287  
 120011718.574    93342475.243    22434925.303 6  22434924.961 6  22434928.482 6
      6891.671        5360.195  
 122441360.527    95232196.010    22905189.388 6  22905188.653 6  22905192.178 5
      7251.715        5640.228  
 126945013.705    98918214.4544   24156830.631 6  24156830.55043  24156836.55143
      6852.422        5339.519  
 129892232.360   101214751.9714   24717671.989 6  24717671.46342  24717675.30542
      6106.263        4758.149  
 127251395.957    99156951.1774   24215134.655 6  24215133.94243  24215139.20743
      7272.871        5667.182  
 11  5 30 12 34 20.0000000  0 16G26G28R 9R 8R10G15R 7G 8G27R18G 5R19
                                R 1G17G18G 9                        
 105453113.748    82171276.9464   20067060.933 8  20067060.83046  20067064.13346
      2844.830        2216.747  
 111702970.851    87041295.7734   21256368.986 8  21256368.39046  21256371.36646
      2797.476        2179.835  
 106466641.431    82807407.360    19937782.073 8  19937781.944 7  19937786.545 8
      2050.681        1594.965  
 108652025.413    84507151.959    20289999.645 8  20289999.064 8  20289999.182 7
      3629.318        2822.805  
 107823071.877    83862413.791    20227335.464 8  20227334.737 7  20227340.831 6
      5505.284        4281.873  
 112420457.713    87600374.7394   21392902.200 8  21392901.95146  21392904.50346
      5639.331        4394.271  
 115126694.058    89543008.251    21506634.631 7  21506633.220 7  21506633.096 6
       126.600          98.459  
 118681853.458    92479384.6414   22584405.975 7  22584405.35345  22584410.14645
      1020.393         795.100  
 119503756.128    93119829.8824   22740808.489 7  22740807.87845  22740812.54545
      5953.208        4638.844  
 118552097.278    92207202.963    22208801.222 6  22208800.838 6  22208805.955 7
      3336.866        2595.336  
 126684660.419    98715339.4854   24107290.878 6  24107290.91944  24107296.99444
       160.183         124.825  
 119977264.153    93315677.384    22428485.132 7  22428484.281 6  22428487.568 6
      6889.978        5358.854  
 122405105.172    95203997.412    22898406.426 6  22898405.809 6  22898409.989 5
      7250.243        5639.066  
 126910750.685    98891516.0264   24150311.869 6  24150310.95143  24150316.43843
      6852.528        5339.623  
 129861701.606   101190961.7964   24711860.888 6  24711860.98642  24711865.63942
      6105.634        4757.628  
 127215028.791    99128613.1404   24208213.583 6  24208213.41843  24208219.00843
      7273.661        5667.787  
 11  5 30 12 34 25.0000000  0 16G26G28R 9R 8R10G15R 7G 8G27R18G 5R19
                                R 1G17G18G 9                        
 105438894.034    82160196.6514   20064355.388 8  20064355.05946  20064358.14946
      2843.111        2215.414  
 111688986.191    87030398.6324   21253707.987 8  21253707.29146  21253710.19346
      2796.318        2178.951  
 106456389.285    82799433.466    19935861.934 8  19935861.902 8  19935866.211 7
      2050.133        1594.554  
 108633886.159    84493043.648    20286612.493 8  20286611.917 8  20286612.209 7
      3626.135        2820.333  
 107795546.624    83841005.263    20222171.501 8  20222171.098 7  20222177.316 6
      5504.623        4281.383  
 112392262.830    87578404.7024   21387536.624 8  21387536.65246  21387539.21946
      5638.438        4393.593  
 115126063.067    89542517.476    21506517.266 7  21506515.550 7  21506515.437 6
       125.589          97.708  
 118676750.912    92475408.6234   22583435.286 7  22583434.55145  22583439.23545
      1020.693         795.340  
 119473989.104    93096634.8104   22735144.025 7  22735143.29645  22735148.11045
      5953.439        4639.050  
 118535420.343    92194232.004    22205677.702 7  22205677.342 7  22205681.851 6
      3333.771        2592.936  
 126683857.703    98714713.9744   24107137.952 6  24107138.16144  24107144.31144
       160.738         125.249  
 119942816.753    93288884.972    22422045.410 7  22422044.773 6  22422048.035 6
      6888.640        5357.832  
 122368855.902    95175803.547    22891624.924 6  22891624.993 6  22891629.442 5
      7249.165        5638.225  
 126876485.027    98864815.5594   24143791.174 6  24143790.47943  24143795.84043
      6852.800        5339.862  
 129831174.764   101167174.6574   24706052.126 6  24706051.71443  24706056.62843
      6104.889        4757.055  
 127178657.079    99100271.5564   24201292.135 6  24201291.82243  24201297.74743
      7274.743        5668.630  
 11  5 30 12 34 30.0000000  0 17G26G28R 9R 8R10G15R 7G 8G27R18G 5R19
                                R 1R16G17G18G 9                     
 105424683.329    82149123.3724   20061650.925 8  20061650.69847  20061653.93646
      2841.218        2213.932  
 111675007.657    87019506.2634   21251047.966 8  21251047.27346  21251050.25646
      2795.063        2177.975  
 106446140.359    82791462.071    19933942.148 8  19933942.318 8  19933946.906 7
      2049.512        1594.063  
 108615763.496    84478948.247    20283228.276 8  20283227.633 8  20283227.896 7
      3622.897        2817.802  
 107768024.897    83819599.476    20217008.402 8  20217007.894 7  20217014.336 6
      5504.077        4280.946  
 112364072.448    87556438.1714   21382172.031 8  21382172.27846  21382174.85146
      5637.723        4393.022  
 115125437.995    89542031.292    21506400.574 7  21506398.910 7  21506398.484 6
       124.442          96.767  
 118671646.956    92471431.5084   22582464.284 7  22582463.29445  22582467.92045
      1020.923         795.523  
 119444220.256    93073438.3094   22729479.438 7  22729478.46545  22729483.30045
      5953.884        4639.385  
 118518759.091    92181273.248    22202555.595 7  22202555.839 6  22202560.600 6
      3330.526        2590.400  
 126683051.296    98714085.5834   24106984.747 6  24106985.01244  24106991.01044
       161.595         125.892  
 119908376.516    93262098.134    22415607.633 7  22415606.859 6  22415610.292 6
      6887.262        5356.751  
 122332612.859    95147614.521    22884845.314 6  22884845.326 6  22884849.490 5
      7247.843        5637.203  
 125997696.333                    23587035.765                                  
       194.247                  
 126842216.839    98838113.0704   24137270.280 6  24137270.00943  24137275.10443
      6854.362        5341.064  
 129800651.755   101143390.4934   24700243.700 6  24700243.41043  24700248.13343
      6104.221        4756.533  
 127142280.849    99071926.4484   24194370.431 6  24194369.95043  24194375.50443
      7275.541        5669.247  
 11  5 30 12 34 35.0000000  0 17G26G28R 9R 8R10G15R 7G 8G27R18G 5R19
                                R 1R16G17G18G 9                     
 105410482.055    82138057.4424   20058948.527 8  20058948.25046  20058951.51046
      2839.412        2212.539  
 111661035.515    87008618.8734   21248389.311 8  21248388.56046  21248391.46046
      2793.855        2177.032  
 106435894.869    82783493.352    19932024.187 8  19932023.975 8  19932028.039 7
      2048.944        1593.622  
 108597657.628    84464865.900    20279846.691 8  20279846.502 8  20279846.826 7
      3619.574        2815.241  
 107740507.168    83798196.803    20211846.227 8  20211845.774 7  20211851.804 6
      5503.214        4280.279  
 112335886.937    87534475.4374   21376808.650 8  21376808.66246  21376811.21846
      5636.781        4392.299  
 115124819.064    89541549.891    21506285.227 7  21506283.918 7  21506282.990 6
       123.260          95.873  
 118666541.850    92467453.4914   22581492.907 7  22581491.82744  22581496.49244
      1021.183         795.714  
 119414449.897    93050240.6294   22723814.102 7  22723813.30345  22723818.19945
      5954.366        4639.786  
 118502113.602    92168326.753    22199437.457 6  22199437.265 6  22199442.512 6
      3327.475        2588.042  
 126682241.571    98713454.6114   24106830.304 6  24106830.90444  24106836.69944
       162.607         126.729  
 119873943.826    93235317.159    22409171.662 7  22409170.276 6  22409173.334 6
      6885.990        5355.779  
 122296376.284    95119430.536    22878067.223 6  22878066.522 6  22878070.454 5
      7246.805        5636.412  
 125996722.694    97997478.168    23586851.520 4  23586852.450    23586862.746  
       195.259         151.874  
 126807946.422    98811408.8624   24130749.302 6  24130748.73643  24130753.75843
      6854.481        5341.124  
 129770132.929   101119609.6064   24694436.465 6  24694436.06843  24694440.80443
      6103.370        4755.914  
 127105900.414    99043578.0624   24187446.734 6  24187446.95643  24187452.45443
      7276.617        5670.117  
 11  5 30 12 34 40.0000000  0 17G26G28R 9R 8R10G15R 7G 8G27R18G 5R19
                                R 1R16G17G18G 9                     
 105396290.325    82126998.9514   20056247.950 8  20056247.67946  20056250.98247
      2837.415        2210.979  
 111647069.891    86997736.5654   21245731.547 8  21245730.99746  21245733.82746
      2792.458        2175.942  
 106425652.997    82775527.454    19930106.341 8  19930106.141 8  19930109.685 7
      2048.076        1592.950  
 108579568.713    84450796.744    20276468.814 8  20276468.470 8  20276468.649 7
      3616.085        2812.512  
 107712993.405    83776797.217    20206684.347 8  20206684.065 7  20206690.278 6
      5502.357        4279.610  
 112307706.373    87512516.5554   21371446.436 8  21371446.12946  21371448.58646
      5635.695        4391.453  
 115124206.265    89541073.262    21506171.257 7  21506169.178 7  21506168.281 6
       121.954          94.855  
 118661435.810    92463474.7464   22580520.857 6  22580520.05044  22580525.08644
      1021.361         795.856  
 119384678.140    93027041.8694   22718148.662 7  22718148.14545  22718152.84345
      5954.615        4639.965  
 118485484.340    92155392.883    22196322.422 7  22196322.025 6  22196327.581 7
      3324.327        2585.589  
 126681428.634    98712821.1194   24106675.985 6  24106675.96344  24106681.99744
       162.793         126.853  
 119839518.715    93208542.089    22402736.548 7  22402735.370 6  22402737.737 6
      6884.404        5354.539  
 122260146.503    95091251.821    22871289.253 7  22871289.305 6  22871293.790 5
      7245.220        5635.182  
 125995743.188    97996716.359    23586669.208 5  23586668.456    23586676.538  
       196.664         152.932  
 126773673.996    98784703.0994   24124227.091 6  24124227.09143  24124231.78343
      6854.492        5341.149  
 129739618.384   101095832.0544   24688630.017 6  24688629.00443  24688633.37043
      6102.578        4755.250  
 127069515.896    99015226.5014   24180522.170 6  24180522.95743  24180528.70343
      7277.212        5670.535  
 11  5 30 12 34 45.0000000  0 17G26G28R 9R 8R10G15R 7G 8G27R18G 5R19
                                R 1R16G17G18G 9                     
 105382108.223    82115947.9584   20053549.247 8  20053548.99846  20053552.16046
      2835.586        2209.545  
 111633110.957    86986859.4764   21243075.022 8  21243074.53846  21243077.54646
      2791.318        2175.055  
 106415414.829    82767564.437    19928188.952 8  19928188.892 8  19928192.255 7
      2047.382        1592.403  
 108561496.984    84436740.957    20273094.153 8  20273093.574 8  20273093.964 7
      3612.740        2809.908  
 107685483.899    83755400.935    20201524.109 8  20201523.222 7  20201529.520 6
      5501.557        4278.982  
 112279530.935    87490561.6724   21366084.583 7  21366084.50946  21366087.07446
      5634.620        4390.604  
 115123600.229    89540601.895    21506056.832 7  21506055.637 7  21506055.224 6
       120.626          93.813  
 118656328.859    92459495.2964   22579549.148 6  22579548.11044  22579552.93144
      1021.630         796.079  
 119354905.153    93003842.1374   22712483.000 7  22712482.60945  22712487.22845
      5954.812        4640.109  
 118468871.420    92142471.713    22193209.508 6  22193209.431 6  22193215.558 7
      3321.058        2583.041  
 126680612.578    98712185.2114   24106521.141 6  24106520.46844  24106526.85544
       163.601         127.494  
 119805101.485    93181773.134    22396302.178 7  22396300.999 6  22396303.618 6
      6882.606        5353.122  
 122223923.359    95063078.274    22864512.505 7  22864512.363 6  22864517.627 5
      7244.150        5634.322  
 125994758.270    97995950.248    23586482.263 5  23586484.406 4  23586493.943  
       197.693         153.757  
 126739399.592    98757995.8214   24117705.191 6  24117704.67243  24117710.04243
      6855.067        5341.570  
 129709108.375   101072058.0344   24682824.230 6  24682823.05643  24682827.86643
      6101.764        4754.636  
 127033127.460    98986871.8814   24173597.733 6  24173598.67243  24173604.41243
      7278.175        5671.289  
 11  5 30 12 34 50.0000000  0 17G26G28R 9R 8R10G15R 7G 8G27R18G 5R19
                                R 1R16G17G18G 9                     
 105367935.633    82104904.3814   20050852.087 8  20050851.91247  20050855.15946
      2833.693        2208.072  
 111619158.553    86975987.4674   21240420.091 8  21240419.44546  21240422.44446
      2789.815        2173.883  
 106405180.255    82759604.212    19926272.942 8  19926272.416 8  19926275.828 7
      2046.512        1591.732  
 108543442.243    84422698.380    20269722.640 8  20269722.024 8  20269722.383 7
      3609.182        2807.138  
 107657978.613    83734007.938    20196363.893 8  20196363.296 7  20196369.493 6
      5500.661        4278.304  
 112251360.497    87468610.6804   21360723.970 8  21360723.93946  21360726.58746
      5633.593        4389.815  
 115123000.106    89540135.122    21505945.075 7  21505943.766 7  21505943.317 6
       119.399          92.869  
 118651220.924    92455515.0584   22578576.719 7  22578575.99444  22578580.97344
      1021.790         796.206  
 119325130.802    92980641.3504   22706817.186 7  22706816.83045  22706821.21345
      5955.011        4640.273  
 118452274.461    92129562.982    22190099.858 6  22190100.255 6  22190106.232 7
      3317.851        2580.540  
 126679793.307    98711546.7924   24106364.274 6  24106364.48644  24106371.22144
       164.043         127.814  
 119770691.826    93155010.095    22389869.094 7  22389868.636 6  22389870.908 6
      6881.157        5351.987  
 122187707.015    95034910.022    22857738.305 6  22857737.413 6  22857742.320 5
      7242.556        5633.088  
 125993767.563    97995179.698    23586298.919 5  23586298.167 5  23586307.204  
       198.695         154.501  
 126705123.257    98731286.9784   24111182.588 6  24111182.14943  24111187.00543
      6855.319        5341.778  
 129678602.779   101048287.4284   24677019.375 6  24677017.86943  24677023.01243
      6100.634        4753.734  
 126996734.965    98958514.1044   24166673.280 6  24166673.32343  24166678.74043
      7278.843        5671.812  
 11  5 30 12 34 55.0000000  0 17G26G28R 9R 8R10G15R 7G 8G27R18G 5R19
                                R 1R16G17G18G 9                     
 105353772.616    82093868.2624   20048157.148 8  20048156.90347  20048160.10847
      2831.629        2206.465  
 111605212.751    86965120.6074   21237766.389 8  21237765.79446  21237768.74046
      2788.626        2172.966  
 106394949.341    82751646.834    19924356.867 8  19924356.735 8  19924359.939 7
      2045.842        1591.214  
 108525404.788    84408669.247    20266354.880 8  20266354.016 8  20266354.126 7
      3605.880        2804.586  
 107630477.503    83712618.187    20191205.123 8  20191204.328 7  20191210.427 6
      5499.870        4277.677  
 112223195.133    87446663.6504   21355364.111 8  21355364.13946  21355366.76546
      5632.669        4389.093  
 115122406.227    89539673.204    21505834.691 7  21505833.100 7  21505832.335 6
       118.145          91.896  
 118646112.009    92451534.0804   22577604.390 6  22577604.05644  22577608.50944
      1021.688         796.119  
 119295355.128    92957439.5324   22701150.904 7  22701150.52645  22701155.08045
      5955.308        4640.507  
 118435693.742    92116666.876    22186995.184 6  22186993.738 6  22187000.237 6
      3314.604        2578.016  
 126678970.859    98710905.8904   24106208.221 6  24106208.34844  24106214.56144
       164.874         128.460  
 119736290.068    93128253.180    22383437.884 6  22383437.315 6  22383440.217 6
      6879.566        5350.758  
 122151497.507    95006747.078    22850965.264 7  22850964.320 6  22850968.504 5
      7241.170        5632.031  
 125992771.149    97994404.779    23586112.556 5  23586112.070 5  23586121.533 4
       199.656         155.276  
 126670844.889    98704576.5814   24104658.809 6  24104659.15643  24104663.90643
      6855.750        5342.159  
 129648101.634   101024520.3124   24671215.441 6  24671213.84443  24671218.80243
      6099.704        4753.027  
 126960338.510    98930153.2384   24159747.644 6  24159747.75743  24159752.67943
      7279.591        5672.412  
 11  5 30 12 35  0.0000000  0 17G26G28R 9R 8R10G15R 7G 8G27R18G 5R19
                                R 1R16G17G18G 9                     
 105339619.753    82082840.0544   20045463.808 8  20045463.62146  20045466.94346
      2829.637        2204.905  
 111591274.151    86954259.3564   21235114.233 8  21235113.46646  21235116.27146
      2786.983        2171.677  
 106384722.712    82743692.793    19922441.449 8  19922441.382 8  19922445.300 7
      2044.839        1590.422  
 108507384.987    84394653.846    20262989.378 8  20262988.707 8  20262989.046 7
      3602.231        2801.721  
 107602981.104    83691232.104    20186046.688 8  20186046.229 7  20186052.720 6
      5498.895        4276.912  
 112195035.464    87424721.0484   21350005.590 8  21350005.55846  21350008.20246
      5631.294        4388.012  
 115121819.259    89539216.664    21505725.166 7  21505723.493 7  21505722.726 6
       116.840          90.880  
 118641002.740    92447552.8154   22576632.189 6  22576631.87744  22576636.39244
      1021.794         796.199  
 119265578.779    92934237.1864   22695483.845 7  22695483.97145  22695488.79645
      5955.271        4640.458  
 118419129.830    92103783.835    22183891.157 6  22183891.053 6  22183896.794 6
      3311.152        2575.334  
 126678145.801    98710262.9654   24106052.115 6  24106051.39144  24106057.66844
       165.014         128.594  
 119701896.597    93101502.742    22377007.880 6  22377007.943 6  22377010.138 6
      6877.774        5349.373  
 122115295.416    94978589.912    22844192.300 7  22844191.749 6  22844195.499 5
      7239.636        5630.831  
 125991769.766    97993625.963    23585924.009 5  23585923.419 4  23585934.794 4
       201.299         156.574  
 126636565.289    98677865.2274   24098135.992 6  24098136.17143  24098140.88543
      6855.968        5342.288  
 129617605.535   101000757.1324   24665412.234 6  24665410.56843  24665415.61543
      6098.801        4752.314  
 126923938.693    98901789.7434   24152820.897 6  24152821.22943  24152826.33843
      7280.403        5673.050  
 11  5 30 12 35  5.0000000  0 17G26G28R 9R 8R10G15R 7G 8G27R18G 5R19
                                R 1R16G17G18G 9                     
 105325477.198    82071819.8824   20042772.578 8  20042772.44846  20042775.86546
      2827.534        2203.278  
 111577342.753    86943403.7144   21232463.359 8  21232462.45946  21232465.22246
      2785.656        2170.645  
 106374500.361    82735742.086    19920527.371 8  19920527.125 8  19920531.054 7
      2043.974        1589.771  
 108489382.999    84380652.297    20259627.975 8  20259627.052 8  20259627.250 7
      3598.679        2798.975  
 107575489.449    83669849.703    20180889.951 8  20180889.163 7  20180895.436 6
      5497.861        4276.121  
 112166881.529    87402782.9214   21344648.264 8  21344648.11246  21344650.65146
      5630.146        4387.139  
 115121239.229    89538765.521    21505616.264 7  21505615.145 7  21505614.102 6
       115.376          89.739  
 118635893.176    92443571.3254   22575659.856 6  22575659.58544  22575664.18444
      1022.009         796.369  
 119235801.765    92911034.3264   22689817.782 7  22689817.58445  22689822.46345
      5955.339        4640.533  
 118402582.735    92090913.874    22180791.567 6  22180791.575 6  22180797.025 6
      3307.906        2572.830  
 126677318.172    98709618.0344   24105894.818 6  24105893.97644  24105900.40344
       165.724         129.154  
 119667511.647    93074758.892    22370578.134 6  22370578.968 6  22370582.343 5
      6876.334        5348.274  
 122079100.892    94950438.629    22837421.523 6  22837420.696 6  22837424.989 5
      7238.021        5629.576  
 125990763.429    97992843.158    23585734.369 4  23585735.798 4  23585745.384 4
       201.545         156.772  
 126602284.415    98651152.8634   24091612.962 6  24091612.74243  24091617.22743
      6856.385        5342.647  
 129587114.552   100976997.9244   24659610.125 6  24659608.49643  24659612.77443
      6097.638        4751.408  
 126887535.495    98873423.6274   24145892.935 6  24145894.15843  24145899.14143
      7280.896        5673.419  
 11  5 30 12 35 10.0000000  0 17G26G28R 9R 8R10G15R 7G 8G27R18G 5R19
                                R 1R16G17G18G 9                     
 105311344.812    82060807.6304   20040083.310 8  20040083.11046  20040086.45646
      2825.497        2201.683  
 111563418.624    86932553.7454   21229813.344 8  21229812.80946  21229815.52346
      2784.148        2169.468  
 106364282.407    82727794.786    19918613.638 8  19918613.335 8  19918617.543 7
      2043.283        1589.218  
 108471398.718    84366664.527    20256269.091 8  20256268.578 8  20256268.646 7
      3595.019        2796.115  
 107548002.747    83648471.163    20175732.793 8  20175732.428 7  20175739.165 6
      5496.902        4275.366  
 112138733.377    87380849.2964   21339291.662 8  21339291.71446  21339294.44646
      5629.127        4386.330  
 115120666.130    89538319.773    21505509.089 7  21505508.113 7  21505507.001 6
       114.134          88.768  
 118630783.322    92439589.6064   22574688.064 6  22574687.08644  22574691.76644
      1022.099         796.443  
 119206024.152    92887830.9894   22684151.716 7  22684151.30145  22684155.81745
      5955.583        4640.711  
 118386052.655    92078057.151    22177695.293 6  22177694.493 6  22177700.628 6
      3304.389        2570.078  
 126676487.973    98708971.1044   24105736.297 6  24105736.08844  24105742.06644
       166.371         129.653  
 119633135.237    93048021.701    22364153.406 6  22364152.463 6  22364155.524 5
      6874.227        5346.615  
 122042913.885    94922293.186    22830652.291 7  22830651.349 6  22830655.131 5
      7236.703        5628.546  
 125989752.090    97992056.531    23585546.685 5  23585545.957 4  23585556.393 4
       203.013         157.908  
 126568002.324    98624439.5674   24085088.327 6  24085088.55144  24085093.98644
      6856.618        5342.796  
 129556628.717   100953242.7264   24653808.796 6  24653807.24143  24653811.94843
      6096.699        4750.694  
 126851129.009    98845054.9584   24138965.808 6  24138965.96843  24138971.08143
      7281.770        5674.099  
 11  5 30 12 35 15.0000000  0 17G26G28R 9R 8R10G15R 7G 8G27R18G 5R19
                                R 1R16G17G18G 9                     
 105297222.550    82049803.2634   20037396.018 8  20037395.71847  20037399.07146
      2823.512        2200.145  
 111549501.659    86921709.3544   21227165.107 8  21227164.53246  21227167.35246
      2782.680        2168.323  
 106354068.561    82719850.674    19916700.257 8  19916700.436 8  19916704.820 7
      2042.382        1588.515  
 108453432.127    84352690.508    20252914.221 8  20252913.822 8  20252913.471 7
      3591.692        2793.542  
 107520520.784    83627096.308    20170577.064 8  20170576.509 7  20170583.259 6
      5496.030        4274.693  
 112110590.857    87358920.0634   21333936.376 8  21333936.29846  21333938.99046
      5627.984        4385.451  
 115120099.561    89537879.096    21505403.794 7  21505402.146 7  21505401.506 6
       112.657          87.613  
 118625672.957    92435607.4934   22573714.852 6  22573714.50044  22573719.34744
      1022.136         796.475  
 119176245.738    92864627.0394   22678485.135 7  22678484.54345  22678489.07545
      5955.763        4640.847  
 118369539.188    92065213.334    22174601.665 6  22174601.024 6  22174606.779 6
      3300.893        2567.369  
 126675655.026    98708322.0354   24105578.207 6  24105577.67344  24105583.50144
       166.872         130.051  
 119598767.194    93021291.011    22357728.275 6  22357727.438 6  22357731.038 5
      6872.763        5345.489  
 122006734.293    94894153.512    22823884.040 7  22823883.417 6  22823887.070 5
      7235.354        5627.504  
 125988735.528    97991265.857    23585357.046 5  23585356.288 4  23585366.549 4
       204.020         158.679  
 126533718.811    98597725.1564   24078564.149 6  24078564.26244  24078569.66544
      6856.678        5342.841  
 129526147.864   100929491.4294   24648007.465 6  24648006.82143  24648011.10043
      6095.708        4749.887  
 126814719.101    98816683.6134   24132037.555 7  24132037.28943  24132042.32543
      7282.475        5674.650  
 11  5 30 12 35 20.0000000  0 17G26G28R 9R 8R10G15R 7G 8G27R18G 5R19
                                R 1R16G17G18G 9                     
 105283110.531    82038806.8864   20034710.495 8  20034710.16947  20034713.63246
      2821.454        2198.529  
 111535591.951    86910870.6264   21224518.205 8  21224517.65746  21224520.41946
      2781.268        2167.218  
 106343859.067    82711909.958    19914788.524 8  19914788.338 8  19914792.679 8
      2041.447        1587.790  
 108435483.301    84338730.314    20249562.767 8  20249562.102 8  20249561.347 7
      3588.031        2790.698  
 107493043.777    83605725.300    20165421.493 7  20165421.199 7  20165428.366 6
      5494.987        4273.877  
 112082454.233    87336995.4234   21328582.129 8  21328582.20946  21328584.81046
      5626.795        4384.518  
 115119539.953    89537443.836    21505299.989 7  21505297.644 7  21505297.292 6
       111.253          86.528  
 118620562.368    92431625.2054   22572742.996 7  22572741.97144  22572746.89744
      1022.236         796.555  
 119146466.767    92841422.6524   22672818.412 7  22672817.96945  22672822.43445
      5955.917        4640.982  
 118353042.771    92052382.781    22171512.192 6  22171510.844 6  22171515.959 6
      3297.678        2564.869  
 126674819.555    98707670.9894   24105417.663 6  24105418.63344  24105424.95544
       167.377         130.430  
 119564407.655    92994566.969    22351305.189 6  22351304.260 5  22351307.327 5
      6871.256        5344.293  
 121970562.324    94866019.773    22817117.797 7  22817117.048 6  22817120.623 5
      7233.822        5626.313  
 125987714.146    97990471.496    23585165.037 5  23585165.619 4  23585174.082 4
       205.016         159.428  
 126499434.146    98571009.8544   24072040.166 6  24072040.13144  24072045.12644
      6857.277        5343.312  
 129495672.222   100905744.1764   24642208.165 6  24642207.58843  24642212.23543
      6094.765        4749.184  
 126778305.928    98788309.7224   24125108.629 6  24125108.40643  24125113.52943
      7283.119        5675.151  
 11  5 30 12 35 25.0000000  0 17G26G28R 9R 8R10G15R 7G 8G27R18G 5R19
                                R 1R16G17G18G 9                     
 105269008.438    82027818.2424   20032026.741 8  20032026.66946  20032030.05246
      2819.430        2196.958  
 111521689.151    86900037.2734   21221872.751 8  21221872.08346  21221874.73846
      2780.081        2166.293  
 106333653.634    82703972.391    19912877.479 8  19912877.387 8  19912881.901 7
      2040.869        1587.340  
 108417552.067    84324783.795    20246213.678 8  20246213.361 8  20246212.917 7
      3584.462        2787.910  
 107465571.268    83584357.795    20160268.514 8  20160268.057 7  20160274.510 6
      5494.094        4273.185  
 112054323.146    87315075.0994   21323229.021 8  21323229.03446  21323231.71846
      5625.769        4383.712  
 115118987.109    89537013.830    21505196.559 7  21505194.538 7  21505193.876 6
       109.965          85.530  
 118615451.244    92427642.4964   22571770.415 7  22571769.48744  22571774.37444
      1022.330         796.613  
 119116686.930    92818217.5894   22667151.586 7  22667150.98545  22667155.52545
      5956.097        4641.104  
 118336562.971    92039565.136    22168424.718 6  22168423.848 6  22168429.012 6
      3294.297        2562.229  
 126673981.269    98707017.7534   24105259.377 6  24105259.25844  24105265.43544
       167.933         130.882  
 119530056.556    92967849.481    22344884.489 6  22344883.507 5  22344885.946 5
      6869.247        5342.746  
 121934397.782    94837891.800    22810352.849 7  22810351.658 7  22810355.294 5
      7232.229        5625.075  
 125986687.362    97989672.921    23584973.753 5  23584973.603 4  23584983.051 4
       205.280         159.618  
 126465148.069    98544293.4544   24065515.839 6  24065515.52043  24065521.14943
      6857.475        5343.472  
 129465201.495   100882000.7744   24636410.069 6  24636408.95743  24636413.42043
      6093.896        4748.491  
 126741889.242    98759933.0884   24118178.999 7  24118178.37543  24118183.47143
      7283.813        5675.690  
 11  5 30 12 35 30.0000000  0 17G26G28R 9R 8R10G15R 7G 8G27R18G 5R19
                                R 1R16G17G18G 9                     
 105254916.464    82016837.4834   20029345.469 8  20029345.11846  20029348.52246
      2817.362        2195.351  
 111507793.359    86889209.3804   21219228.572 8  21219227.84746  21219230.41246
      2778.498        2165.068  
 106323452.265    82696037.987    19910967.300 8  19910967.061 8  19910971.558 8
      2039.949        1586.625  
 108399638.298    84310850.858    20242868.587 8  20242867.900 8  20242867.462 7
      3580.955        2785.178  
 107438103.512    83562993.987    20155116.143 8  20155115.471 7  20155121.740 6
      5493.074        4272.391  
 112026197.632    87293159.1184   21317876.987 8  21317876.92446  21317879.60346
      5624.526        4382.758  
 115118440.869    89536588.973    21505093.506 7  21505091.728 7  21505091.738 6
       108.543          84.419  
 118610339.607    92423659.3924   22570797.514 7  22570796.73844  22570802.01644
      1022.394         796.680  
 119086906.249    92795011.8754   22661484.376 7  22661483.80545  22661488.35245
      5956.170        4641.165  
 118320099.711    92026760.371    22165340.015 7  22165340.078 6  22165345.476 6
      3291.116        2559.764  
 126673140.130    98706362.2874   24105099.285 6  24105099.68444  24105105.28444
       168.480         131.281  
 119495713.808    92941138.489    22338464.145 5  22338463.850 5  22338466.204 5
      6867.919        5341.710  
 121898240.612    94809769.548    22803587.030 7  22803587.146 7  22803591.266 5
      7230.561        5623.763  
 125985655.462                    23584777.936 5  23584779.870 4                
       207.280                  
 126430860.599    98517575.9664   24058990.737 6  24058990.92744  24058996.88544
      6857.655        5343.619  
 129434735.752   100858261.2454   24630612.615 6  24630611.63943  24630616.28243
      6092.672        4747.552  
 126705469.048    98731553.7454   24111248.036 6  24111247.41343  24111252.73243
      7284.361        5676.138  
 11  5 30 12 35 35.0000000  0 17G26G28R 9R 8R10G15R 7G 8G27R18G 5R19
                                R 1R16G17G18G 9                     
 105240834.561    82005864.5664   20026665.903 8  20026665.51847  20026668.79047
      2815.348        2193.786  
 111493904.598    86878386.9744   21216585.613 8  21216585.00046  21216587.59146
      2777.004        2163.903  
 106313255.032    82688106.807    19909057.494 8  19909057.490 8  19909061.687 7
      2038.864        1585.784  
 108381742.056    84296931.559    20239526.310 8  20239525.726 8  20239525.531 7
      3577.359        2782.394  
 107410640.278    83541633.700    20149963.787 8  20149963.498 7  20149969.874 6
      5492.175        4271.691  
 111998077.744    87271247.5204   21312526.094 8  21312525.86346  21312528.44446
      5623.348        4381.831  
 115117901.126    89536169.160    21504992.759 7  21504990.990 7  21504990.979 6
       107.249          83.422  
 118605227.511    92419675.9424   22569823.972 7  22569823.76544  22569829.01344
      1022.285         796.604  
 119057124.813    92771805.5634   22655817.238 7  22655816.68845  22655821.24745
      5956.377        4641.339  
 118303653.178    92013968.626    22162259.104 7  22162259.025 6  22162264.821 6
      3287.657        2557.077  
 126672296.207    98705704.6694   24104938.242 6  24104939.07144  24104944.74844
       168.977         131.673  
 119461379.550    92914434.063    22332044.631 6  22332045.467 6  22332048.050 5
      6866.068        5340.273  
 121862090.954    94781653.162    22796825.542 7  22796824.898 6  22796828.866 5
      7229.062        5622.599  
 125984618.270    97988065.630    23584585.696 5  23584585.745 4  23584595.619 4
       207.727         161.609  
 126396571.795    98490857.4324   24052466.143 6  24052465.78944  24052471.79044
      6857.612        5343.577  
 129404275.012   100834525.6224   24624816.113 6  24624815.54843  24624819.90043
      6091.619        4746.708  
 126669045.437    98703171.7204   24104316.058 6  24104315.96843  24104321.93943
      7285.084        5676.702  
 11  5 30 12 35 40.0000000  0 17G26G28R 9R 8R10G15R 7G 8G27R18G 5R19
                                R 1R16G17G18G 9                     
 105226762.836    81994899.5834   20023988.001 8  20023987.94447  20023990.98946
      2813.339        2192.209  
 111480022.980    86867570.1234   21213944.043 8  21213943.50446  21213946.07146
      2775.655        2162.854  
 106303061.971    82680178.864    19907148.874 8  19907148.716 8  19907152.780 7
      2038.240        1585.303  
 108363863.638    84283026.130    20236187.625 8  20236187.066 8  20236186.750 7
      3573.836        2779.655  
 107383181.915    83520277.197    20144812.090 8  20144811.971 7  20144818.628 6
      5491.281        4270.995  
 111969963.712    87249340.4794   21307176.047 8  21307175.99446  21307178.46346
      5622.160        4380.909  
 115117368.088    89535754.570    21504893.402 7  21504891.598 7  21504891.330 6
       105.924          82.394  
 118600115.113    92415692.2334   22568851.489 6  22568850.76044  22568856.09544
      1022.329         796.614  
 119027342.748    92748598.7604   22650150.192 7  22650149.30345  22650153.67945
      5956.470        4641.401  
 118287223.336    92001189.854    22159181.806 7  22159181.046 6  22159186.569 6
      3284.226        2554.396  
 126671449.664    98705045.0024   24104777.227 6  24104777.93844  24104783.50044
       169.650         132.187  
 119427053.861    92887736.297    22325628.512 6  22325627.767 6  22325630.909 5
      6864.129        5338.739  
 121825948.856    94753542.637    22790064.432 7  22790063.731 6  22790067.664 5
      7227.603        5621.465  
 125983576.102    97987255.045    23584389.393 4  23584390.423 4  23584397.681 4
       208.620         162.290  
 126362281.872    98464138.0124   24045941.451 6  24045941.16844  24045946.70344
      6858.178        5344.022  
 129373819.471   100810794.0474   24619019.906 6  24619019.81843  24619023.79243
      6090.452        4745.812  
 126632618.521    98674787.1204   24097384.343 6  24097384.33143  24097389.91943
      7285.724        5677.196  
 11  5 30 12 35 45.0000000  0 17G26G28R 9R 8R10G15R 7G 8G27R18G 5R19
                                R 1R16G17G18G 9                     
 105212701.175    81983942.4434   20021312.225 8  20021312.07846  20021315.21546
      2811.301        2190.623  
 111466148.376    86856758.7404   21211303.846 7  21211303.18546  21211305.84646
      2774.193        2161.707  
 106292873.030    82672254.137    19905240.269 8  19905240.427 8  19905244.590 7
      2037.377        1584.626  
 108346002.661    84269134.256    20232850.953 8  20232851.048 8  20232851.362 7
      3570.420        2776.986  
 107355728.147    83498924.275    20139661.979 8  20139661.777 7  20139668.583 6
      5490.302        4270.237  
 111941855.218    87227437.7584   21301826.660 8  21301827.03346  21301829.56246
      5621.056        4380.050  
 115116841.580    89535345.054    21504794.861 7  21504793.481 7  21504792.840 6
       104.675          81.424  
 118595002.131    92411708.0814   22567878.790 7  22567878.12844  22567883.21844
      1022.490         796.738  
 118997559.822    92725391.2904   22644482.340 7  22644481.93745  22644486.04945
      5956.599        4641.510  
 118270810.068    91988423.975    22156106.118 7  22156106.132 6  22156112.092 6
      3280.899        2551.821  
 126670600.231    98704383.0734   24104615.483 7  24104616.43144  24104621.99244
       170.211         132.628  
 119392736.567    92861045.075    22319214.012 6  22319213.497 5  22319215.726 5
      6862.649        5337.598  
 121789814.316    94725438.003    22783303.934 7  22783303.651 6  22783308.086 5
      7226.055        5620.266  
 125982528.670    97986440.428    23584195.191 4  23584194.404 4  23584202.873 4
       209.726         163.049  
 126327990.533    98437417.5104   24039416.019 6  24039415.69544  24039421.69344
      6858.336        5344.169  
 129343368.847   100787066.2934   24613224.754 6  24613225.25843  24613228.79543
      6089.511        4745.058  
 126596188.128    98646399.8224   24090451.798 6  24090451.58543  24090457.44643
      7286.386        5677.686  
 11  5 30 12 35 50.0000000  0 17G26G28R 9R 8R10G15R 7G 8G27R18G 5R19
                                R 1R16G17G18G 9                     
 105198650.009    81972993.4814   20018638.411 8  20018638.18046  20018641.51147
      2809.015        2188.847  
 111452281.201    86845953.1524   21208665.047 8  21208664.34646  21208666.81346
      2772.809        2160.633  
 106282688.627    82664332.931    19903333.090 8  19903333.065 8  19903337.497 7
      2036.300        1583.787  
 108328159.853    84255256.513    20229520.083 8  20229519.258 8  20229519.352 7
      3566.698        2774.122  
 107328279.591    83477575.396    20134512.719 8  20134512.551 7  20134519.194 6
      5489.138        4269.334  
 111913752.857    87205539.8204   21296479.066 8  21296479.38346  21296482.01246
      5619.787        4379.059  
 115116322.047    89534940.958    21504697.047 7  21504695.773 7  21504695.512 6
       103.228          80.290  
 118589889.013    92407723.8364   22566905.580 6  22566904.90044  22566910.20544
      1022.532         796.767  
 118967776.512    92702183.5184   22638815.131 7  22638814.43745  22638818.56345
      5956.695        4641.574  
 118254414.273    91975671.694    22153035.005 7  22153034.292 6  22153040.382 6
      3277.323        2549.031  
 126669748.399    98703719.2844   24104453.582 7  24104454.44144  24104459.81444
       170.603         132.941  
 119358428.216    92834360.843    22312800.923 6  22312799.908 5  22312801.938 5
      6860.829        5336.186  
 121753687.731    94697339.559    22776546.288 7  22776545.783 6  22776549.645 5
      7224.616        5619.162  
 125981476.492    97985622.052    23583997.963 4  23583997.294 4  23584005.987 4
       211.112         164.219  
 126293698.366    98410696.3524   24032891.264 7  24032890.57944  24032895.69344
      6858.359        5344.178  
 129312923.656   100763342.7654   24607431.424 6  24607431.59143  24607435.49143
      6088.426        4744.249  
 126559754.724    98618010.1614   24083518.874 6  24083518.66443  24083524.26543
      7287.079        5678.239  
 11  5 30 12 35 55.0000000  0 17G26G28R 9R 8R10G15R 7G 8G27R18G 5R19
                                R 1R16G17G18G 9                     
 105184609.164    81962052.5594   20015966.369 8  20015966.29446  20015969.47546
      2807.080        2187.330  
 111438421.292    86835153.2204   21206027.724 8  21206027.00146  21206029.43046
      2771.364        2159.506  
 106272508.526    82656415.077    19901426.908 8  19901426.878 8  19901430.998 7
      2035.524        1583.191  
 108310334.949    84241392.698    20226191.538 8  20226190.510 7  20226191.012 7
      3563.209        2771.379  
 107300835.918    83456230.321    20129364.843 8  20129364.402 7  20129370.844 6
      5488.313        4268.695  
 111885656.440    87183646.5074   21291132.656 8  21291132.74546  21291135.46246
      5618.708        4378.218  
 115115809.259    89534542.118    21504601.381 7  21504600.196 7  21504600.265 6
       101.917          79.258  
 118584775.698    92403739.4174   22565932.935 6  22565931.97544  22565937.14444
      1022.551         796.814  
 118937992.682    92678975.3494   22633147.297 7  22633146.57845  22633151.04945
      5956.762        4641.619  
 118238035.302    91962932.494    22149966.472 7  22149965.920 6  22149971.988 6
      3274.157        2546.565  
 126668893.960    98703053.4754   24104290.832 6  24104291.70744  24104297.16344
       171.088         133.311  
 119324128.736    92807683.489    22306388.248 6  22306387.451 5  22306390.120 5
      6858.738        5334.560  
 121717568.950    94669247.190    22769789.255 6  22769788.513 6  22769793.774 5
      7222.891        5617.806  
 125980419.366                    23583798.674 4  23583799.541 4                
       212.194                  
 126259405.173    98383974.4164   24026365.531 7  24026365.18644  24026369.62444
      6858.480        5344.274  
 129282483.774   100739623.3904   24601639.896 6  24601639.08943  24601642.86843
      6087.498        4743.478  
 126523318.205    98589618.0774   24076585.422 6  24076584.97143  24076590.78043
      7287.632        5678.662  
 11  5 30 12 36  0.0000000  0 17G26G28R 9R 8R10G15R 7G 8G27R18G 5R19
                                R 1R16G17G18G 9                     
 105170578.414    81951119.5054   20013296.360 8  20013296.35446  20013299.54847
      2805.106        2185.801  
 111424568.470    86824358.8194   21203391.491 8  21203390.89946  21203393.24446
      2769.840        2158.310  
 106262332.554    82648500.428    19899521.450 8  19899521.435 8  19899525.454 7
      2034.796        1582.625  
 108292527.735    84227542.640    20222866.534 8  20222865.375 8  20222865.809 7
      3559.491        2768.497  
 107273397.035    83434888.969    20124217.866 8  20124217.126 7  20124223.004 6
      5487.251        4267.862  
 111857565.728    87161757.6404   21285787.224 8  21285787.39746  21285789.99546
      5617.656        4377.395  
 115115303.045    89534148.382    21504507.338 7  21504505.442 7  21504505.674 6
       100.532          78.189  
 118579661.870    92399754.6144   22564960.015 7  22564959.11244  22564963.99344
      1022.932         797.086  
 118908208.124    92655766.6034   22627479.690 7  22627478.73445  22627483.17545
      5956.985        4641.792  
 118221672.975    91950206.243    22146901.013 7  22146900.770 6  22146906.408 6
      3270.711        2543.882  
 126668036.744    98702385.4914   24104127.601 6  24104128.74144  24104134.09544
       171.617         133.740  
 119289837.723    92781012.710    22299978.222 6  22299976.816 6  22299979.897 5
      6857.494        5333.649  
 121681457.683    94641160.668    22763033.780 7  22763033.212 6  22763038.011 5
      7221.579        5616.782  
 125979357.098                    23583599.471 4  23583600.523 4                
       212.979                  
 126225110.751    98357251.5194   24019840.101 6  24019839.63444  24019843.39544
      6858.901        5344.594  
 129252048.970   100715907.9624   24595848.639 6  24595848.01443  24595851.45143
      6086.624        4742.797  
 126486878.272    98561223.3344   24069651.122 6  24069650.52043  24069656.62643
      7288.170        5679.111  
 11  5 30 12 36  5.0000000  0 16G26G28R 9R 8R10G15R 7G 8G27R18G 5R19
                                R 1G17G18G 9                        
 105156557.941    81940194.4594   20010628.655 8  20010628.37847  20010631.51547
      2802.850        2184.037  
 111410722.834    86813570.0094   21200756.639 7  21200756.01846  21200758.43146
      2768.337        2157.141  
 106252160.864    82640589.111    19897616.624 8  19897616.639 8  19897620.841 7
      2033.816        1581.858  
 108274738.149    84213706.300    20219543.616 8  20219542.686 7  20219543.584 7
      3556.020        2765.786  
 107245963.094    83413551.465    20119071.381 8  20119070.765 7  20119076.883 6
      5486.260        4267.087  
 111829480.918    87139873.3734   21280442.902 8  21280442.94746  21280445.40346
      5616.208        4376.262  
 115114803.575    89533759.884    21504414.513 7  21504412.639 7  21504412.153 6
        99.152          77.117  
 118574547.746    92395769.5784   22563986.313 6  22563985.95044  22563990.81644
      1022.704         796.917  
 118878422.983    92632557.4124   22621811.682 7  22621810.87245  22621815.37845
      5956.847        4641.703  
 118205327.586    91937493.169    22143839.132 7  22143838.632 6  22143844.392 6
      3267.194        2541.138  
 126667176.818    98701715.4054   24103963.849 6  24103965.01844  24103970.38644
       172.124         134.114  
 119255555.534    92754348.782    22293569.680 6  22293568.845 6  22293571.219 5
      6855.619        5332.139  
 121645354.348    94613080.319    22756280.548 7  22756279.928 6  22756284.112 5
      7219.836        5615.411  
 126190815.272    98330527.8024   24013313.335 6  24013313.32844  24013317.74944
      6859.083        5344.729  
 129221619.491   100692196.6824   24590058.355 6  24590057.28543  24590061.10843
      6085.281        4741.778  
 126450435.140    98532826.0974   24062717.002 7  24062716.42043  24062721.70243
      7288.637        5679.438  
 11  5 30 12 36 10.0000000  0 16G26G28R 9R 8R10G15R 7G 8G27R18G 5R19
                                R 1G17G18G 9                        
 105142548.016    81929277.6354   20007962.349 8  20007962.19846  20007965.44746
      2801.057        2182.646  
 111396884.686    86802787.0444   21198123.086 8  21198122.56446  21198125.23846
      2766.897        2156.026  
 106241993.707    82632681.319    19895712.943 8  19895712.702 8  19895716.829 7
      2032.962        1581.194  
 108256966.876    84199884.189    20216224.517 8  20216224.214 8  20216225.026 7
      3552.489        2763.051  
 107218534.307    83392217.964    20113925.380 8  20113924.894 7  20113930.895 6
      5485.328        4266.373  
 111801402.339    87117993.9624   21275099.617 8  21275099.73946  21275102.29546
      5615.133        4375.431  
 115114311.040    89533376.796    21504322.622 7  21504321.056 7  21504320.202 6
        97.882          76.132  
 118569433.623    92391784.5464   22563013.524 7  22563012.57044  22563017.47644
      1022.776         796.979  
 118848637.550    92609347.9944   22616143.637 7  22616142.87845  22616147.25545
      5957.015        4641.832  
 118188999.533    91924793.563    22140780.185 7  22140780.105 6  22140785.619 6
      3263.875        2538.571  
 126666314.491    98701043.4394   24103799.519 7  24103800.76544  24103806.19544
       172.730         134.595  
 119221282.418    92727691.916    22287162.906 6  22287161.948 6  22287164.188 5
      6853.879        5330.788  
 121609259.070    94585006.220    22749527.807 7  22749527.611 6  22749531.399 5
      7218.220        5614.187  
 126156519.100    98303803.5204   24006786.302 6  24006786.66744  24006790.94844
      6859.316        5344.946  
 129191195.603   100668489.7664   24584268.358 6  24584268.01243  24584271.46643
      6084.029        4740.801  
 126413989.074    98504426.5874   24055781.741 7  24055780.54343  24055785.88943
      7289.523        5680.158  
 11  5 30 12 36 15.0000000  0 16G26G28R 9R 8R10G15R 7G 8G27R18G 5R19
                                R 1G17G18G 9                        
 105128548.065    81918368.5824   20005298.488 8  20005298.06246  20005301.37347
      2799.151        2181.162  
 111383053.480    86792009.4784   21195491.159 8  21195490.54246  21195493.17346
      2765.532        2154.972  
 106231830.505    82624776.604    19893809.894 8  19893809.792 8  19893813.501 7
      2032.288        1580.672  
 108239213.017    84186075.637    20212909.735 8  20212909.255 8  20212909.607 7
      3548.933        2760.287  
 107191110.093    83370888.019    20108780.850 7  20108779.913 7  20108786.102 6
      5484.305        4265.573  
 111773329.397    87096118.9474   21269757.334 8  21269757.54546  21269760.33646
      5614.037        4374.579  
 115113824.954    89532998.725    21504231.044 7  21504229.838 7  21504229.240 6
        96.554          75.100  
 118564318.886    92387799.0314   22562040.264 6  22562039.35944  22562043.84344
      1022.998         797.143  
 118818851.227    92586137.8764   22610475.481 7  22610474.95545  22610479.10145
      5957.324        4642.055  
 118172687.775    91912106.633    22137725.040 7  22137724.336 6  22137730.287 6
      3260.931        2536.288  
 126665449.152    98700369.1294   24103635.507 7  24103636.27944  24103641.38044
       173.390         135.110  
 119187017.807    92701041.694    22280757.451 6  22280756.474 5  22280758.973 6
      6852.395        5329.651  
 121573171.168    94556937.862    22742777.818 7  22742776.203 7  22742780.324 5
      7217.022        5613.249  
 126122221.545    98277078.1924   24000259.255 6  24000259.35544  24000264.12744
      6859.757        5345.263  
 129160776.680   100644786.7224   24578480.229 6  24578479.38443  24578483.18043
      6083.328        4740.269  
 126377539.491    98476024.3234   24048845.902 6  24048844.67943  24048850.20143
      7290.483        5680.909  
 11  5 30 12 36 20.0000000  0 16G26G28R 9R 8R10G15R 7G 8G27R18G 5R19
                                R 1G17G18G 9                        
 105114558.351    81907467.5054   20002636.308 8  20002636.02147  20002639.22546
      2796.785        2179.310  
 111369229.400    86781237.4614   21192860.526 8  21192859.90846  21192862.49546
      2764.073        2153.817  
 106221671.574    82616875.219    19891907.382 8  19891907.409 8  19891911.198 8
      2031.356        1579.938  
 108221476.996    84172280.957    20209596.935 8  20209597.078 8  20209597.435 7
      3545.370        2757.494  
 107163690.810    83349561.913    20103636.888 8  20103636.274 7  20103642.629 6
      5483.302        4264.788  
 111745262.357    87074248.5314   21264416.415 8  21264416.56746  21264419.46046
      5612.641        4373.472  
 115113345.551    89532625.838    21504141.152 7  21504140.205 7  21504140.265 6
        95.281          74.131  
 118559203.786    92383813.2474   22561066.923 6  22561066.19244  22561070.60444
      1023.044         797.160  
 118789064.300    92562927.2924   22604806.980 7  22604806.46145  22604810.89945
      5957.225        4641.971  
 118156392.973    91899432.898    22134672.356 7  22134671.947 6  22134677.285 6
      3257.159        2533.348  
 126664581.019    98699692.6374   24103470.165 7  24103470.86444  24103475.85244
       173.864         135.500  
 119152761.985    92674398.314    22274353.264 6  22274352.781 5  22274354.736 6
      6849.916        5327.715  
 121537091.264    94528875.726    22736028.154 7  22736027.302 7  22736031.385 5
      7215.129        5611.778  
 126087922.945    98250352.0204   23993732.856 6  23993732.82244  23993737.13543
      6859.635        5345.170  
 129130363.086   100621087.8244   24572692.779 6  24572691.87643  24572695.30043
      6082.108        4739.313  
 126341086.714    98447619.5744   24041909.023 6  24041907.76543  24041913.27543
      7290.785        5681.125  
 11  5 30 12 36 25.0000000  0 16G26G28R 9R 8R10G15R 7G 8G27R18G 5R19
                                R 1G17G18G 9                        
 105100579.126    81896574.6024   19999976.695 8  19999976.03046  19999979.11546
      2794.899        2177.846  
 111355412.794    86770471.2784   21190231.630 8  21190230.80146  21190233.34846
      2762.667        2152.732  
 106211517.077    82608977.275    19890006.043 8  19890005.839 8  19890009.488 7
      2030.439        1579.235  
 108203759.027    84158500.311    20206289.310 8  20206288.783 8  20206288.733 7
      3541.897        2754.809  
 107136276.688    83328239.819    20098494.679 8  20098493.651 7  20098499.663 6
      5482.321        4264.025  
 111717201.545    87052382.9674   21259076.721 8  21259076.85346  21259079.49646
      5611.557        4372.648  
 115112873.099    89532258.366    21504053.292 7  21504052.210 7  21504051.818 6
        93.925          73.069  
 118554088.711    92379827.4664   22560093.190 6  22560092.73844  22560097.18544
      1022.969         797.122  
 118759277.086    92539716.4824   22599138.522 7  22599137.99245  22599142.68745
      5957.465        4642.208  
 118140115.215    91886772.420    22131622.542 7  22131622.259 6  22131628.174 6
      3253.841        2530.767  
 126663710.458    98699014.2764   24103305.343 7  24103305.50544  24103309.92344
       174.324         135.838  
 119118515.322    92647762.024    22267951.943 6  22267950.666 6  22267952.869 6
      6848.494        5326.618  
 121501019.420    94500819.858    22729279.290 7  22729279.137 6  22729283.224 5
      7213.502        5610.505  
 126053623.607    98223625.2864   23987205.794 6  23987205.47244  23987210.25644
      6859.954        5345.410  
 129099955.141   100597393.3234   24566906.534 6  24566905.10943  24566909.55543
      6081.036        4738.458  
 126304631.036    98419212.5684   24034971.663 7  24034970.73943  24034975.82643
      7291.442        5681.639  
 11  5 30 12 36 30.0000000  0 16G26G28R 9R 8R10G15R 7G 8G27R18G 5R19
                                R 1G17G18G 9                        
 105086610.334    81885689.8284   19997317.978 8  19997317.71046  19997320.97146
      2792.698        2176.135  
 111341603.537    86759710.8194   21187603.929 8  21187603.03046  21187605.48946
      2761.079        2151.498  
 106201367.069    82601082.821    19888104.643 8  19888104.753 8  19888108.619 7
      2029.555        1578.547  
 108186059.045    84144733.658    20202984.044 8  20202983.453 8  20202983.322 7
      3538.127        2751.874  
 107108867.704    83306921.725    20093351.871 8  20093351.759 7  20093357.741 6
      5481.170        4263.137  
 111689146.855    87030522.1724   21253738.265 8  21253738.15446  21253740.95246
      5610.324        4371.688  
 115112407.265    89531896.037    21503966.194 7  21503964.973 7  21503964.911 6
        92.410          71.892  
 118548973.435    92375841.5134   22559119.610 6  22559119.11844  22559123.59544
      1023.151         797.288  
 118729489.484    92516505.3724   22593469.848 7  22593469.66445  22593474.12445
      5957.539        4642.250  
 118123854.740    91874125.385    22128576.374 7  22128576.118 6  22128581.989 6
      3250.539        2528.195  
 126662837.318    98698333.8854   24103138.631 6  24103139.28644  24103143.74344
       174.878         136.258  
 119084277.590    92621132.709    22261551.170 6  22261550.285 6  22261552.297 5
      6846.709        5325.215  
 121464955.719    94472770.322    22722532.692 7  22722532.374 6  22722537.056 5
      7211.681        5609.092  
 126019323.473    98196897.9244   23980677.882 6  23980677.92744  23980683.43843
      6860.119        5345.559  
 129069552.674   100573703.0964   24561120.574 6  24561119.93843  24561123.47643
      6079.763        4737.494  
 126268172.358    98390803.2024   24028033.722 6  24028033.14943  24028037.70743
      7292.020        5682.082  
 11  5 30 12 36 35.0000000  0 16G26G28R 9R 8R10G15R 7G 8G27R18G 5R19
                                R 1G17G18G 9                        
 105072652.067    81874813.2564   19994661.778 8  19994661.50646  19994664.75546
      2790.539        2174.447  
 111327801.739    86748956.1684   21184977.570 8  21184976.77746  21184979.20346
      2759.698        2150.416  
 106191221.573    82593191.878    19886204.238 8  19886204.412 8  19886208.543 7
      2028.570        1577.782  
 108168377.227    84130981.133    20199682.342 8  20199681.519 8  20199681.604 7
      3534.542        2749.093  
 107081463.894    83285607.660    20088211.347 8  20088210.671 7  20088217.067 6
      5480.258        4262.426  
 111661098.396    87008666.2264   21248400.608 8  21248400.74246  21248403.47346
      5609.058        4370.699  
 115111948.232    89531539.000    21503880.401 7  21503879.313 7  21503879.155 6
        90.983          70.773  
 118543858.074    92371855.5244   22558146.424 6  22558145.63444  22558150.35244
      1022.956         797.100  
 118699701.592    92493294.0344   22587801.519 7  22587801.19945  22587805.60345
      5957.540        4642.242  
 118107611.097    91861491.432    22125533.932 6  22125533.283 6  22125538.563 6
      3247.030        2525.476  
 126661961.748    98697651.6174   24102972.086 7  24102972.29844  24102977.46344
       175.295         136.597  
 119050049.076    92594510.566    22255154.191 6  22255151.815 6  22255153.574 5
      6845.051        5323.936  
 121428900.071    94444727.050    22715787.785 7  22715787.438 6  22715791.823 5
      7210.277        5607.990  
 125985022.682    98170170.0514   23974151.124 6  23974150.72744  23974156.30643
      6860.029        5345.455  
 129039155.751   100550017.1904   24555336.448 6  24555335.76143  24555339.91843
      6078.964        4736.837  
 126231710.755    98362391.5774   24021095.632 7  24021094.38743  24021099.17943
      7292.649        5682.612  
 11  5 30 12 36 40.0000000  0 16G26G28R 9R 8R10G15R 7G 8G27R18G 5R19
                                R 1G17G18G 9                        
 105058704.402    81863944.9454   19992007.474 8  19992007.36946  19992010.53546
      2788.506        2172.863  
 111314007.501    86738207.4084   21182352.373 8  21182351.62346  21182354.19646
      2758.174        2149.238  
 106181080.722    82585304.541    19884304.858 8  19884305.119 8  19884309.184 7
      2027.711        1577.116  
 108150713.478    84117242.657    20196382.862 8  20196382.659 8  20196382.994 7
      3531.016        2746.351  
 107054065.493    83264297.789    20083071.335 8  20083070.945 7  20083077.136 6
      5479.144        4261.559  
 111633056.333    86986815.2744   21243064.575 8  21243064.49546  21243067.09846
      5607.770        4369.691  
 115111496.348    89531187.536    21503796.323 7  21503795.220 7  21503794.870 6
        89.561          69.646  
 118538742.802    92367869.6114   22557172.724 6  22557172.19344  22557176.86144
      1023.096         797.197  
 118669913.552    92470082.5704   22582133.389 7  22582132.88645  22582137.19545
      5957.610        4642.280  
 118091384.718    91848870.913    22122493.433 7  22122493.691 6  22122498.647 6
      3243.466        2522.718  
 126661083.793    98696967.4764   24102805.008 6  24102805.33344  24102810.08644
       175.763         136.979  
 119015829.929    92567895.644    22248756.331 6  22248754.698 5  22248757.164 6
      6843.284        5322.569  
 121392852.876    94416690.338    22709044.174 7  22709044.142 6  22709048.079 5
      7208.755        5606.820  
 125950721.324    98143441.7374   23967623.033 6  23967622.78944  23967628.84443
      6860.314        5345.708  
 129008764.637   100526335.8104   24549553.127 6  24549552.06043  24549556.58943
      6077.497        4735.752  
 126195246.377    98333977.7854   24014155.734 6  24014155.45943  24014160.74143
      7293.263        5683.067  
 11  5 30 12 36 45.0000000  0 16G26G28R 9R 8R10G15R 7G 8G27R18G 5R19
                                R 1G17G18G 9                        
 105044767.211    81853084.7904   19989355.505 8  19989355.17046  19989358.29446
      2786.369        2171.197  
 111300220.649    86727464.4044   21179728.721 8  21179728.31446  21179730.59646
      2756.588        2147.998  
 106170944.297    82577420.658    19882406.787 8  19882406.884 8  19882410.884 7
      2026.750        1576.361  
 108133067.743    84103518.199    20193088.078 8  20193087.647 8  20193088.009 7
      3527.347        2743.494  
 107026672.166    83242991.868    20077933.191 8  20077932.137 7  20077938.158 6
      5478.062        4260.715  
 111605020.472    86964969.1554   21237729.731 8  21237729.42346  21237732.08546
      5606.401        4368.623  
 115111051.315    89530841.379    21503713.201 7  21503712.073 7  21503711.640 6
        88.381          68.734  
 118533627.455    92363883.5984   22556199.304 6  22556198.63344  22556203.53244
      1023.061         797.199  
 118640125.179    92446870.8574   22576464.518 7  22576464.27945  22576468.63945
      5957.649        4642.318  
 118075175.713    91836263.893    22119457.537 7  22119457.040 6  22119461.942 6
      3240.002        2520.000  
 126660203.340    98696281.3924   24102637.943 6  24102637.87144  24102642.89844
       176.394         137.458  
 118981619.969    92541287.954    22242359.353 6  22242358.830 5  22242361.495 5
      6841.090        5320.828  
 121356813.805    94388659.962    22702302.838 7  22702302.468 6  22702306.175 5
      7206.834        5605.331  
 125916419.258    98116712.8794   23961095.863 6  23961095.59943  23961101.72743
      6860.306        5345.670  
 128978379.041   100502658.7284   24543770.768 6  24543770.07643  24543774.12443
      6076.288        4734.755  
 126158779.076    98305561.7184   24007216.353 6  24007215.90043  24007221.20143
      7293.552        5683.317  
 11  5 30 12 36 50.0000000  0 16G26G28R 9R 8R10G15R 7G 8G27R18G 5R19
                                R 1G17G18G 9                        
 105030841.021    81842233.2124   19986705.081 8  19986704.94046  19986708.32246
      2784.251        2169.530  
 111286441.669    86716727.5414   21177106.576 8  21177106.07846  21177108.58646
      2755.101        2146.824  
 106160812.811    82569540.610    19880510.026 8  19880509.904 8  19880513.875 7
      2025.827        1575.635  
 108115440.521    84089808.136    20189796.853 8  20189796.038 8  20189796.067 7
      3523.548        2740.537  
 106999284.514    83221690.368    20072795.452 8  20072794.512 7  20072800.280 6
      5477.154        4259.999  
 111576991.295    86943128.2404   21232395.583 8  21232395.76946  21232398.36446
      5605.169        4367.654  
 115110613.420    89530500.790    21503631.073 7  21503629.797 7  21503629.771 6
        86.868          67.551  
 118528512.455    92359897.8724   22555226.326 6  22555225.61143  22555230.03843
      1023.149         797.268  
 118610336.948    92423659.2624   22570795.932 7  22570795.68045  22570800.05045
      5957.736        4642.389  
 118058984.055    91823670.375    22116424.413 7  22116423.793 7  22116429.184 6
      3236.579        2517.341  
 126659320.793    98695593.6734   24102469.869 6  24102469.81944  24102475.16044
       176.885         137.839  
 118947419.612    92514687.689    22235966.733 5  22235965.256 5  22235967.995 6
      6839.488        5319.579  
 121320783.449    94360636.365    22695562.512 7  22695562.145 6  22695566.344 5
      7205.473        5604.258  
 125882116.985    98089983.8264   23954569.174 6  23954568.73343  23954573.87543
      6860.333        5345.704  
 128947999.570   100478986.4194   24537990.103 6  24537989.12043  24537993.12643
      6075.409        4734.112  
 126122309.277    98277143.6964   24000275.505 6  24000275.86843  24000281.33543
      7294.357        5683.913  
 11  5 30 12 36 55.0000000  0 16G26G28R 9R 8R10G15R 7G 8G27R18G 5R19
                                R 1G17G18G 9                        
 105016925.802    81831390.1834   19984057.397 8  19984057.04946  19984060.25146
      2782.038        2167.823  
 111272670.535    86705996.7874   21174485.938 8  21174485.55446  21174487.93146
      2753.560        2145.629  
 106150686.285    82561664.419    19878614.239 8  19878613.941 8  19878617.954 7
      2024.775        1574.825  
 108097831.904    84076112.550    20186508.022 8  20186507.902 8  20186507.422 7
      3519.974        2737.749  
 106971902.493    83200393.243    20067657.991 8  20067657.538 7  20067663.488 6
      5475.929        4259.057  
 111548968.865    86921292.5794   21227063.245 8  21227063.23146  21227065.91046
      5603.917        4366.688  
 115110182.766    89530165.819    21503550.600 7  21503549.080 7  21503549.490 6
        85.554          66.544  
 118523397.824    92355912.4584   22554252.638 6  22554251.95344  22554256.63044
      1022.848         797.017  
 118580548.876    92400447.7754   22565127.165 7  22565127.48645  22565131.53945
      5957.703        4642.370  
 118042810.111    91811090.639    22113394.501 7  22113394.121 6  22113399.785 6
      3232.960        2514.516  
 126658436.118    98694904.2974   24102301.024 6  24102301.34844  24102307.30744
       177.329         138.180  
 118913229.066    92488095.050    22229573.453 5  22229573.327 5  22229577.113 6
      6837.097        5317.752  
 121284761.788    94332619.534    22688823.355 6  22688823.021 6  22688828.019 5
      7203.496        5602.703  
 125847814.529    98063254.6644   23948040.843 6  23948041.09543  23948046.28243
      6860.769        5346.054  
 128917626.185   100455318.8554   24532211.134 6  24532209.03143  24532213.21643
      6074.207        4733.148  
 126085837.038    98248723.7804   23993335.365 6  23993335.50743  23993340.81043
      7294.684        5684.145  
 11  5 30 12 37  0.0000000  0 16G26G28R 9R 8R10G15R 7G 8G27R18G 5R19
                                R 1G17G18G 9                        
 105003021.674    81820555.7964   19981411.694 8  19981411.24646  19981414.40846
      2779.695        2166.010  
 111258907.393    86695272.2614   21171866.611 8  21171866.26946  21171868.89446
      2751.638        2144.146  
 106140564.710    82553792.085    19876718.843 8  19876718.607 8  19876722.521 7
      2023.735        1574.023  
 108080241.935    84062431.464    20183223.587 8  20183223.152 8  20183222.722 7
      3515.991        2734.663  
 106944526.194    83179100.565    20062521.806 7  20062521.612 7  20062527.653 6
      5474.586        4258.022  
 111520953.215    86899462.2074   21221731.978 8  21221732.03546  21221734.81446
      5602.233        4365.379  
 115109759.415    89529836.534    21503472.437 7  21503470.518 7  21503470.295 6
        83.810          65.200  
 118518283.712    92351927.4254   22553279.508 6  22553278.98043  22553283.48543
      1022.710         796.889  
 118550761.072    92377236.4984   22559459.012 7  22559459.10345  22559463.11245
      5957.417        4642.162  
 118026653.811    91798524.635    22110368.340 7  22110367.649 7  22110373.348 6
      3229.528        2511.849  
 126657549.497    98694213.4044   24102132.425 6  24102132.83244  24102138.32544
       177.416         138.249  
 118879048.355    92461510.044    22223182.946 5  22223182.405 5  22223187.458 6
      6834.751        5315.949  
 121248749.005    94304609.602    22682087.368 7  22682086.394 6  22682091.764 5
      7201.570        5601.213  
 125813511.978    98036525.4314   23941512.898 6  23941512.89743  23941519.02743
      6860.441        5345.788  
 128887259.001   100431656.1184   24526432.163 6  24526430.22143  24526434.73443
      6072.660        4731.956  
 126049362.483    98220302.0474   23986395.726 6  23986394.93943  23986400.05543
      7295.007        5684.422  
 11  5 30 12 37  5.0000000  0 16G26G28R 9R 8R10G15R 7G 8G27R18G 5R19
                                R 1G17G18G 9                        
 104989128.892    81809730.2494   19978767.603 8  19978767.53046  19978770.79346
      2777.522        2164.306  
 111245152.500    86684554.1604   21169249.155 8  21169248.71646  21169251.52546
      2750.281        2143.076  
 106130448.467    82545923.894    19874823.595 8  19874823.978 8  19874827.960 8
      2022.721        1573.219  
 108062670.763    84048764.993    20179941.970 8  20179941.685 8  20179941.305 7
      3512.309        2731.795  
 106917155.973    83157812.613    20057387.251 8  20057386.944 8  20057393.160 6
      5473.469        4257.142  
 111492944.701    86877637.3914   21216402.238 8  21216402.22646  21216404.85346
      5601.070        4364.471  
 115109343.681    89529513.172    21503394.998 7  21503393.191 7  21503392.711 6
        82.550          64.208  
 118513170.338    92347942.9824   22552307.079 6  22552305.98643  22552310.80343
      1022.805         796.988  
 118520973.845    92354025.6774   22553791.649 7  22553790.83845  22553794.78245
      5957.404        4642.129  
 118010515.792    91785972.828    22107344.418 7  22107344.313 6  22107350.603 7
      3225.900        2509.022  
 126656661.140    98693521.1574   24101963.169 7  24101963.48044  24101969.49544
       177.810         138.570  
 118844877.741    92434932.918    22216797.526 5  22216795.246 5  22216799.397 6
      6833.102        5314.625  
 121212745.369    94276606.791    22675351.921 7  22675351.285 7  22675356.405 5
      7199.883        5599.911  
 125779209.708    98009796.3974   23934985.418 6  23934985.85243  23934991.30643
      6860.564        5345.910  
 128856898.351   100407998.4744   24520654.501 6  24520653.22443  24520657.23243
      6071.412        4730.984  
 126012885.890    98191878.7494   23979454.859 6  23979453.25043  23979458.70343
      7295.651        5684.917  
 11  5 30 12 37 10.0000000  0 16G26G28R 9R 8R10G15R 7G 8G27R18G 5R19
                                R 1G17G18G 9                        
 104975247.178    81798913.3294   19976126.184 8  19976125.87546  19976129.30946
      2775.196        2162.496  
 111231405.546    86673842.2484   21166633.351 8  21166632.81246  21166635.61046
      2748.601        2141.770  
 106120337.338    82538059.684    19872930.191 8  19872930.392 8  19872934.403 7
      2021.700        1572.429  
 108045118.492    84035113.226    20176663.582 8  20176663.611 8  20176663.638 7
      3508.649        2728.953  
 106889791.621    83136529.231    20052254.039 8  20052253.577 7  20052259.745 6
      5472.205        4256.163  
 111464943.081    86855817.9484   21211073.344 8  21211073.60746  21211076.29046
      5599.726        4363.428  
 115108935.201    89529195.456    21503317.847 7  21503316.470 7  21503316.318 6
        80.926          62.927  
 118508057.420    92343958.8824   22551334.096 6  22551333.16243  22551338.11543
      1022.568         796.799  
 118491186.885    92330815.0684   22548122.990 7  22548122.41845  22548126.59645
      5957.480        4642.195  
 117994395.183    91773434.578    22104324.753 7  22104324.306 7  22104330.812 7
      3222.168        2506.135  
 126655770.801    98692827.3634   24101794.462 6  24101794.24744  24101800.29044
       178.259         138.903  
 118810716.994    92408363.457    22210409.882 5  22210409.209 5  22210413.787 6
      6831.036        5313.031  
 121176750.557    94248610.840    22668618.741 7  22668617.613 6  22668622.530 5
      7198.377        5598.755  
 125744907.404    97983067.3584   23928459.022 6  23928458.53144  23928463.61643
      6860.442        5345.817  
 128826543.952   100384345.6914   24514877.994 6  24514877.17143  24514881.23543
      6070.340        4730.160  
 125976407.038    98163453.6794   23972511.602 6  23972511.33143  23972516.68343
      7296.037        5685.226  
 11  5 30 12 37 15.0000000  0 16G26G28R 9R 8R10G15R 7G 8G27R18G 5R19
                                R 1G17G18G 9                        
 104961376.977    81788105.3814   19973486.602 8  19973486.29846  19973489.89346
      2772.890        2160.692  
 111217667.017    86663136.8994   21164019.228 8  21164018.42446  21164021.21346
      2746.877        2140.415  
 106110231.688    82530199.731    19871037.723 8  19871037.781 8  19871041.868 7
      2020.611        1571.582  
 108027585.156    84021476.191    20173389.869 8  20173389.462 8  20173389.443 7
      3504.810        2725.959  
 106862433.497    83115250.698    20047121.917 8  20047121.265 7  20047127.486 6
      5470.960        4255.190  
 111436948.759    86834004.1924   21205746.522 8  21205746.51146  21205749.17346
      5598.103        4362.148  
 115108534.588    89528883.858    21503243.741 7  21503241.952 7  21503241.381 6
        79.193          61.591  
 118502945.429    92339975.5164   22550360.768 6  22550360.39243  22550365.34643
      1022.264         796.561  
 118461400.683    92307605.0464   22542454.458 7  22542454.24845  22542458.41245
      5957.102        4641.883  
 117978292.925    91760910.598    22101307.953 7  22101307.760 7  22101314.132 7
      3218.758        2503.473  
 126654878.933    98692132.3724   24101624.431 6  24101624.46344  24101630.49444
       178.465         139.052  
 118776566.603    92381802.048    22204025.057 5  22204025.511 5  22204029.697 6
      6829.015        5311.440  
 121140765.197    94220622.230    22661886.069 7  22661885.893 7  22661890.136 5
      7196.113        5596.992  
 125710605.536    97956338.6524   23921930.371 6  23921930.34443  23921936.27243
      6860.263        5345.642  
 128796196.263   100360698.1524   24509102.145 6  24509101.23943  24509106.03443
      6068.757        4728.896  
 125939926.323    98135027.1574   23965569.998 6  23965569.31843  23965574.22443
      7296.348        5685.465  
 11  5 30 12 37 20.0000000  0 16G26G28R 9R 8R10G15R 7G 8G27R18G 5R19
                                R 1G17G18G 9                        
 104947518.475    81777306.5484   19970849.527 8  19970849.18946  19970852.63946
      2770.471        2158.802  
 111203937.059    86652438.2344   21161406.274 8  21161405.74146  21161408.46846
      2745.124        2139.052  
 106100131.654    82522344.143    19869146.354 8  19869146.215 8  19869150.293 7
      2019.354        1570.610  
 108010071.144    84007854.185    20170118.926 8  20170118.914 8  20170118.958 7
      3500.789        2722.838  
 106835081.697    83093977.078    20041990.537 8  20041990.036 7  20041996.448 6
      5469.741        4254.237  
 111408961.934    86812196.2794   21200420.551 8  21200420.71146  21200423.54846
      5596.307        4360.753  
 115108141.864    89528578.394    21503169.927 7  21503168.414 7  21503168.187 6
        77.706          60.440  
 118497834.492    92335992.9594   22549388.525 6  22549387.42443  22549392.93643
      1021.997         796.374  
 118431615.384    92284395.7294   22536786.630 7  22536786.33045  22536790.38445
      5956.880        4641.720  
 117962208.671    91748400.642    22098295.394 7  22098294.689 7  22098300.865 7
      3214.736        2500.327  
 126653985.591    98691436.2394   24101454.727 7  24101454.71844  24101460.90644
       178.721         139.255  
 118742426.721    92355248.818    22197645.765 5  22197644.439 5  22197647.579 6
      6826.651        5309.611  
 121104789.293    94192640.980    22655156.027 7  22655155.691 7  22655159.934 5
      7194.131        5595.443  
 125676304.262    97929610.3944   23915403.176 6  23915403.09643  23915409.03143
      6860.271        5345.638  
 128765855.428   100337055.9484   24503329.252 6  24503328.32143  24503332.67343
      6067.444        4727.855  
 125903443.901    98106599.3134   23958627.332 6  23958626.47443  23958632.12343
      7296.623        5685.669  
 11  5 30 12 37 25.0000000  0 16G26G28R 9R 8R10G15R 7G 8G27R18G 5R19
                                R 1G17G18G 9                        
 104933671.294    81766516.5294   19968213.909 8  19968214.06846  19968217.67946
      2768.189        2157.030  
 111190215.311    86641745.9604   21158795.314 8  21158794.64346  21158797.22646
      2743.481        2137.772  
 106090036.955    82514492.703    19867255.448 8  19867255.472 7  19867259.732 7
      2018.426        1569.895  
 107992575.917    83994246.782    20166852.458 8  20166851.899 8  20166851.750 7
      3497.115        2719.979  
 106807735.919    83072708.147    20036860.834 8  20036860.180 7  20036866.604 6
      5468.496        4253.267  
 111380982.219    86790393.9094   21195096.557 8  21195096.38046  21195099.05046
      5595.142        4359.837  
 115107756.631    89528278.760    21503097.927 7  21503096.263 7  21503096.094 6
        76.177          59.236  
 118492724.290    92332010.9714   22548415.263 6  22548414.97743  22548420.35543
      1022.027         796.384  
 118401830.589    92261186.8074   22531118.775 7  22531118.48045  22531122.55745
      5956.821        4641.686  
 117946142.520    91735904.745    22095285.342 7  22095284.788 7  22095291.008 6
      3211.439        2497.785  
 126653090.499    98690738.7334   24101284.240 6  24101284.65144  24101290.59244
       179.002         139.482  
 118708297.109    92328703.573    22191264.445 6  22191264.278 5  22191267.616 6
      6824.740        5308.133  
 121068822.636    94164666.919    22648427.205 7  22648427.034 6  22648431.116 5
      7192.168        5593.902  
 125642003.265    97902882.3334   23908876.960 6  23908876.60644  23908881.78844
      6860.179        5345.610  
 128735521.151   100313418.8524   24497557.112 6  24497555.65543  24497560.54143
      6066.104        4726.831  
 125866959.435    98078169.8644   23951684.976 6  23951683.94643  23951689.49243
      7297.086        5686.025  
 11  5 30 12 37 30.0000000  0 16G26G28R 9R 8R10G15R 7G 8G27R18G 5R19
                                R 1G17G18G 9                        
 104919835.649    81755735.4984   19965581.382 8  19965581.21646  19965584.80746
      2765.875        2155.230  
 111176502.044    86631060.2944   21156185.406 8  21156184.97546  21156187.83246
      2741.749        2136.427  
 106079947.770    82506645.558    19865366.011 8  19865366.050 8  19865370.077 7
      2017.234        1568.963  
 107975099.916    83980654.337    20163588.792 8  20163587.982 8  20163588.230 7
      3493.283        2716.995  
 106780396.530    83051444.174    20031731.287 8  20031731.002 7  20031737.523 6
      5467.343        4252.375  
 111353009.911    86768597.3044   21189773.497 8  21189773.43346  21189776.06446
      5593.726        4358.753  
 115107379.118    89527985.126    21503027.693 7  21503026.064 7  21503025.955 6
        74.637          58.046  
 118487614.998    92328029.7144   22547443.021 6  22547442.95143  22547447.59643
      1021.990         796.359  
 118372046.635    92237978.5304   22525450.899 7  22525450.75645  22525454.81545
      5956.539        4641.454  
 117930094.528    91723422.959    22092278.947 7  22092278.680 7  22092284.256 6
      3207.771        2494.937  
 126652193.809    98690039.9994   24101113.624 6  24101114.03944  24101120.20944
       179.580         139.945  
 118674177.934    92302166.431    22184887.942 6  22184885.563 5  22184889.223 6
      6822.946        5306.738  
 121032865.454    94136700.225    22641701.338 7  22641700.565 6  22641704.386 5
      7190.326        5592.486  
 125607702.753    97876154.6714   23902349.968 6  23902349.67744  23902354.75844
      6860.260        5345.641  
 128705193.654   100289787.0474   24491785.540 6  24491784.47843  24491789.42843
      6064.894        4725.887  
 125830473.168    98049739.0314   23944741.354 6  23944740.53343  23944746.38443
      7297.486        5686.336  
 11  5 30 12 37 35.0000000  0 16G26G28R 9R 8R10G15R 7G 8G27R18G 5R19
                                R 1G17G18G 9                        
 104906011.381    81744963.3364   19962950.931 8  19962950.61646  19962954.24646
      2763.813        2153.617  
 111162797.010    86620381.0464   21153577.726 8  21153577.05346  21153579.85846
      2740.118        2135.154  
 106069863.812    82498802.480    19863477.553 8  19863477.973 8  19863481.790 7
      2016.206        1568.158  
 107957642.889    83967076.650    20160327.875 8  20160328.061 8  20160328.237 7
      3489.500        2714.057  
 106753063.085    83030184.837    20026604.847 8  20026603.712 7  20026609.892 6
      5466.141        4251.438  
 111325044.790    86746806.3024   21184451.264 8  21184451.70746  21184454.50846
      5592.201        4357.552  
 115107009.123    89527697.335    21502958.563 7  21502956.509 7  21502956.830 6
        73.306          57.018  
 118482506.404    92324048.9834   22546471.584 6  22546471.04043  22546475.76043
      1021.924         796.291  
 118342263.217    92214770.6784   22519783.576 7  22519782.99245  22519787.32345
      5956.471        4641.409  
 117914064.553    91710955.197    22089276.401 7  22089275.532 7  22089281.212 6
      3204.171        2492.127  
 126651295.309    98689339.8354   24100943.007 7  24100943.07144  24100949.13844
       180.094         140.348  
 118640069.000    92275637.263    22178508.361 6  22178509.236 5  22178513.119 6
      6820.746        5305.031  
 120996917.480    94108740.702    22634976.287 7  22634975.854 6  22634980.058 5
      7188.540        5591.072  
 125573402.547    97849427.2584   23895822.529 6  23895822.51044  23895827.46244
      6859.902        5345.371  
 128674872.756   100266160.3804   24486015.578 6  24486014.10943  24486019.22743
      6063.421        4724.733  
 125793984.896    98021306.6304   23937798.473 6  23937797.49443  23937802.93143
      7297.728        5686.545  
 11  5 30 12 37 40.0000000  0 16G26G28R 9R 8R10G15R 7G 8G27R18G 5R19
                                R 1G17G18G 9                        
 104892198.763    81734200.2564   19960322.398 8  19960322.15746  19960325.66147
      2761.487        2151.807  
 111149100.542    86609708.4704   21150970.902 8  21150970.54546  21150973.45446
      2738.461        2133.849  
 106059785.497    82490963.793    19861590.633 8  19861590.593 8  19861594.405 7
      2015.095        1567.295  
 107940205.124    83953513.934    20157072.459 8  20157071.555 7  20157071.832 7
      3485.600        2711.025  
 106725736.152    83008930.560    20021478.365 8  20021477.664 7  20021483.279 6
      5464.786        4250.381  
 111297087.257    86725021.2164   21179131.168 8  21179131.60046  21179134.35846
      5590.766        4356.431  
 115106647.035    89527415.700    21502890.981 7  21502888.914 7  21502889.183 6
        71.532          55.619  
 118477398.990    92320069.1804   22545499.821 6  22545499.25143  22545503.92243
      1021.125         795.687  
 118312480.739    92191563.5574   22514116.455 7  22514115.60245  22514120.11345
      5956.440        4641.376  
 117898052.849    91698501.657    22086276.522 7  22086276.342 7  22086281.504 6
      3200.391        2489.172  
 126650395.413    98688638.6034   24100770.921 6  24100771.81044  24100778.09744
       180.044         140.284  
 118605970.684    92249116.360    22172135.500 5  22172134.665 5  22172138.799 6
      6818.760        5303.454  
 120960979.139    94080788.677    22628253.879 7  22628252.623 6  22628256.879 5
      7186.705        5589.654  
 125539103.064    97822700.4044   23889296.480 7  23889296.11344  23889300.77944
      6859.572        5345.115  
 128644558.769   100242539.1084   24480246.845 6  24480245.82143  24480250.83943
      6062.251        4723.804  
 125757494.986    97992872.9434   23930854.195 6  23930854.12443  23930859.34843
      7298.089        5686.822  
 11  5 30 12 37 45.0000000  0 16G26G28R 9R 8R10G15R 7G 8G27R18G 5R19
                                R 1G17G18G 9                        
 104878397.690    81723446.1734   19957696.398 8  19957696.01846  19957699.34646
      2759.186        2150.014  
 111135412.419    86599042.3984   21148366.326 8  21148365.78846  21148368.73746
      2736.937        2132.683  
 106049712.553    82483129.280    19859704.742 8  19859704.451 8  19859708.130 7
      2014.140        1566.550  
 107922786.482    83939966.100    20153820.019 8  20153819.074 7  20153818.940 7
      3481.863        2708.111  
 106698415.508    82987681.175    20016352.432 8  20016352.117 7  20016358.295 6
      5463.719        4249.557  
 111269137.070    86703241.8534   21173812.950 8  21173812.91646  21173815.66946
      5589.436        4355.405  
 115106292.606    89527140.013    21502824.445 7  21502822.927 7  21502823.032 6
        70.326          54.696  
 118472292.341    92316089.9824   22544528.228 6  22544527.36443  22544532.26943
      1021.216         795.748  
 118282698.971    92168356.9924   22508449.070 7  22508448.28345  22508452.63545
      5956.307        4641.263  
 117882059.403    91686062.308    22083281.308 7  22083280.484 7  22083285.688 6
      3197.056        2486.615  
 126649493.861    98687936.0574   24100600.429 7  24100600.37844  24100606.34044
       180.661         140.770  
 118571882.867    92222603.606    22165762.987 5  22165762.396 5  22165766.346 6
      6816.536        5301.744  
 120925050.301    94052844.031    22621531.901 7  22621531.856 7  22621535.222 5
      7184.953        5588.300  
 125504804.019    97795973.8974   23882768.947 6  23882768.55844  23882773.39044
      6859.837        5345.319  
 128614251.547   100218923.1064   24474478.998 6  24474478.53343  24474483.02543
      6060.817        4722.692  
 125721003.248    97964437.8244   23923909.696 6  23923909.64643  23923915.06943
      7298.502        5687.147  
 11  5 30 12 37 50.0000000  0 16G26G28R 9R 8R10G15R 7G 8G27R18G 5R19
                                R 1G17G18G 9                        
 104864607.812    81712700.8114   19955072.257 8  19955072.04346  19955075.21446
      2756.803        2148.169  
 111121732.322    86588382.5854   21145763.201 8  21145762.45946  21145765.45246
      2735.120        2131.260  
 106039644.779    82475298.788    19857819.485 8  19857819.148 8  19857822.924 7
      2012.821        1565.526  
 107905386.683    83926432.924    20150570.984 8  20150570.008 8  20150569.634 7
      3478.003        2705.118  
 106671100.796    82966436.400    20011228.059 8  20011227.862 7  20011234.350 6
      5462.335        4248.477  
 111241193.971    86681468.0064   21168495.359 8  21168495.61446  21168498.20146
      5587.916        4354.231  
 115105945.383    89526869.933    21502759.194 7  21502757.960 7  21502757.789 6
        68.558          53.326  
 118467186.337    92312111.2674   22543556.669 6  22543556.03143  22543560.64843
      1021.219         795.778  
 118252917.671    92145150.7914   22502781.488 7  22502781.07645  22502785.38645
      5956.200        4641.205  
 117866083.590    91673636.668    22080288.120 7  22080287.348 7  22080292.988 6
      3193.282        2483.673  
 126648590.338    98687231.9904   24100429.108 6  24100428.46644  24100434.38044
       180.982         141.015  
 118537805.306    92196098.819    22159393.567 6  22159392.892 6  22159396.202 6
      6814.565        5300.211  
 120889130.645    94024906.536    22614812.611 7  22614812.722 7  22614815.922 5
      7182.895        5586.696  
 125470505.252    97769247.5794   23876242.321 6  23876241.93644  23876246.52944
      6859.656        5345.180  
 128583950.792   100195312.1354   24468713.608 6  24468712.66943  24468717.07343
      6059.500        4721.654  
 125684509.379    97936001.0564   23916963.910 6  23916965.06443  23916970.33543
      7298.866        5687.423  
 11  5 30 12 37 55.0000000  0 16G26G28R 9R 8R10G15R 7G 8G27R18G 5R19
                                R 1G17G18G 9                        
 104850830.277    81701965.0664   19952450.746 8  19952450.36546  19952453.43346
      2754.342        2146.229  
 111108061.358    86577729.8834   21143161.590 8  21143161.00246  21143164.14046
      2733.430        2129.939  
 106029583.250    82467473.147    19855935.314 8  19855935.241 8  19855938.814 7
      2011.656        1564.621  
 107888006.609    83912915.086    20147325.655 8  20147324.599 8  20147324.010 7
      3474.164        2702.130  
 106643793.045    82945197.040    20006105.314 8  20006104.654 7  20006111.376 6
      5460.910        4247.379  
 111213259.043    86659700.5304   21163179.271 8  21163179.56946  21163182.38046
      5586.330        4352.980  
 115105606.536    89526606.370    21502696.216 7  21502694.704 7  21502694.416 6
        67.050          52.148  
 118462082.023    92308133.8724   22542585.006 5  22542584.62843  22542589.15243
      1020.626         795.272  
 118223137.896    92121945.7794   22497114.573 7  22497114.25545  22497118.55345
      5955.768        4640.857  
 117850126.970    91661225.942    22077298.734 7  22077298.226 7  22077303.576 6
      3189.606        2480.812  
 126647685.921    98686527.2234   24100256.448 7  24100256.64644  24100262.05144
       181.049         141.072  
 118503738.929    92169602.760    22153025.384 6  22153024.695 6  22153027.410 6
      6812.350        5298.473  
 120853221.198    93996976.974    22608095.758 7  22608095.114 6  22608098.650 5
      7181.162        5585.333  
 125436207.772    97742522.2904   23869715.395 6  23869715.48444  23869719.95244
      6859.557        5345.120  
 128553657.562   100171707.0344   24462947.792 6  24462947.86243  24462952.59443
      6058.042        4720.519  
 125648014.456    97907563.4684   23910020.746 6  23910020.55543  23910025.70643
      7299.272        5687.749  
 11  5 30 12 38  0.0000000  0 16G26G28R 9R 8R10G15R 7G 8G27R18G 5R19
                                R 1G17G18G 9                        
 104837064.806    81691238.7254   19949831.024 8  19949830.81346  19949833.92546
      2751.988        2144.403  
 111094399.385    86567084.1864   21140561.941 8  21140561.33546  21140564.30846
      2731.573        2128.500  
 106019527.683    82459652.153    19854052.259 8  19854052.138 8  19854055.947 7
      2010.621        1563.822  
 107870646.247    83899412.580    20144083.592 8  20144082.685 8  20144082.033 7
      3470.021        2698.906  
 106616492.141    82923963.000    20000983.343 8  20000982.978 7  20000989.796 6
      5459.505        4246.284  
 111185332.103    86637939.2794   21157865.408 8  21157865.24546  21157867.99246
      5584.632        4351.649  
 115105275.897    89526349.194    21502634.581 7  21502632.770 7  21502632.869 6
        65.266          50.787  
 118456979.120    92304157.5934   22541613.348 5  22541613.27643  22541618.34443
      1020.354         795.063  
 118193359.494    92098741.8284   22491448.148 7  22491447.67845  22491451.90345
      5955.518        4640.657  
 117834188.816    91648829.597    22074312.921 7  22074312.207 7  22074317.539 6
      3185.905        2477.927  
 126646780.378    98685821.5864   24100084.777 7  24100084.44744  24100089.81844
       181.342         141.301  
 118469683.786    92143115.440    22146659.643 6  22146658.409 6  22146661.200 6
      6809.883        5296.544  
 120817321.995    93969055.385    22601379.816 7  22601379.498 7  22601382.949 5
      7178.951        5583.625  
 125401911.438    97715797.8874   23863189.191 6  23863189.34644  23863193.48144
      6859.072        5344.740  
 128523371.750   100148107.7094   24457185.416 6  24457184.89543  24457189.12843
      6056.584        4719.390  
 125611518.358    97879124.9584   23903075.588 6  23903075.49643  23903080.78743
      7299.414        5687.855  
 11  5 30 12 38  5.0000000  0 16G26G28R 9R 8R10G15R 7G 8G27R18G 5R19
                                R 1G17G18G 9                        
 104823312.157    81680522.3704   19947214.048 8  19947213.88246  19947216.84046
      2749.144        2142.194  
 111080747.111    86556446.0494   21137963.987 8  21137963.30246  21137966.40546
      2729.404        2126.810  
 106009478.976    82451836.494    19852170.213 8  19852170.388 8  19852174.107 7
      2009.005        1562.566  
 107853306.602    83885926.194    20140844.972 8  20140844.547 8  20140844.065 7
      3465.743        2695.577  
 106589198.955    82902734.964    19995863.265 8  19995862.705 7  19995869.598 6
      5457.780        4244.937  
 111157413.897    86616184.8294   21152552.748 8  21152552.69546  21152555.55246
      5582.751        4350.193  
 115104954.414    89526099.138    21502574.779 7  21502573.040 7  21502572.655 6
        63.249          49.197  
 118451878.503    92300183.0934   22540642.551 6  22540642.50343  22540647.64043
      1019.875         794.732  
 118163583.158    92075539.4944   22485781.532 7  22485781.44045  22485785.57645
      5954.874        4640.167  
 117818270.223    91636448.469    22071330.919 7  22071330.661 7  22071335.482 6
      3181.679        2474.640  
 126645874.492    98685115.6864   24099912.182 7  24099911.73244  24099917.48244
       181.094         141.115  
 118435640.489    92116637.305    22140294.281 6  22140293.963 6  22140296.742 5
      6807.469        5294.699  
 120781433.659    93941142.243    22594665.603 7  22594665.585 7  22594668.964 5
      7176.379        5581.631  
 125367616.967    97689074.9534   23856662.462 6  23856662.97144  23856667.52944
      6858.656        5344.412  
 128493094.028   100124514.6924   24451423.413 6  24451423.19343  24451427.84743
      6054.720        4717.940  
 125575021.792    97850686.0864   23896130.831 6  23896130.19343  23896135.53643
      7299.381        5687.843  
 11  5 30 12 38 10.0000000  0 16G26G28R 9R 8R10G15R 7G 8G27R18G 5R19
                                R 1G17G18G 9                        
 104809573.172    81669816.6704   19944599.763 8  19944599.41046  19944602.46346
      2746.422        2140.072  
 111067105.215    86545816.0024   21135368.075 8  21135367.49346  21135370.42946
      2727.337        2125.203  
 105999437.739    82444026.640    19850289.737 8  19850289.886 8  19850293.943 7
      2007.496        1561.388  
 107835987.959    83872456.133    20137610.813 8  20137610.194 8  20137610.175 7
      3461.623        2692.377  
 106561914.056    82881513.382    19990744.662 8  19990744.204 7  19990750.736 6
      5456.144        4243.673  
 111129505.230    86594437.8244   21147241.937 8  21147241.84646  21147244.60546
      5580.826        4348.696  
 115104642.239    89525856.324    21502516.876 7  21502514.992 7  21502514.168 6
        61.495          47.825  
 118446780.787    92296210.8384   22539672.895 6  22539672.69243  22539677.55443
      1019.252         794.215  
 118133809.679    92052339.3844   22480115.836 7  22480115.72645  22480119.79845
      5954.411        4639.801  
 117802371.823    91624083.034    22068352.514 7  22068351.749 7  22068357.010 6
      3177.810        2471.634  
 126644968.962    98684410.0404   24099740.195 7  24099739.72844  24099745.04244
       181.054         141.115  
 118401609.861    92090169.062    22133932.943 6  22133932.292 6  22133935.048 5
      6804.801        5292.631  
 120745557.012    93913238.188    22587955.094 7  22587954.472 7  22587957.564 5
      7174.063        5579.816  
 125333325.224    97662354.1344   23850137.209 6  23850137.54944  23850141.75644
      6857.850        5343.773  
 128462825.255   100100928.6344   24445663.473 6  24445663.50143  24445667.29243
      6053.010        4716.635  
 125538525.506    97822247.4454   23889186.119 6  23889185.47743  23889190.40643
      7299.279        5687.723  
 11  5 30 12 38 15.0000000  0 16G26G28R 9R 8R10G15R 7G 8G27R18G 5R19
                                R 1G17G18G 9                        
 104795847.381    81659121.2444   19941987.943 8  19941987.47846  19941990.58546
      2743.830        2138.049  
 111053473.433    86535193.8354   21132773.764 8  21132773.37846  21132776.33546
      2725.332        2123.630  
 105989403.738    82436222.414    19848410.811 8  19848410.600 8  19848414.887 7
      2006.080        1560.285  
 107818690.238    83859002.346    20134380.366 8  20134379.660 8  20134379.921 7
      3457.457        2689.139  
 106534637.200    82860298.050    19985627.590 8  19985627.332 7  19985633.717 6
      5454.563        4242.443  
 111101605.761    86572697.9824   21141932.793 8  21141932.81646  21141935.46246
      5578.995        4347.273  
 115104339.293    89525620.689    21502459.588 7  21502458.464 7  21502458.352 6
        59.676          46.411  
 118441685.690    92292240.6144   22538703.691 6  22538702.99543  22538708.10443
      1018.974         794.012  
 118104038.738    92029141.2604   22474450.384 7  22474450.41245  22474454.77045
      5953.859        4639.374  
 117786493.340    91611733.106    22065377.906 7  22065377.708 7  22065383.041 6
      3173.725        2468.461  
 126644063.466    98683704.4364   24099567.382 6  24099567.18844  24099572.90044
       181.035         141.089  
 118367591.726    92063710.494    22127574.010 6  22127572.982 6  22127575.850 5
      6802.521        5290.866  
 120709691.788    93885343.021    22581244.802 7  22581244.742 6  22581248.050 5
      7171.965        5578.200  
 125299035.844    97635635.1534   23843611.476 6  23843611.77944  23843616.49044
      6857.611        5343.588  
 128432565.078   100077349.2804   24439905.046 6  24439904.96943  24439909.07943
      6051.226        4715.239  
 125502029.207    97793808.7704   23882240.655 6  23882239.95343  23882245.40243
      7299.449        5687.884  
 11  5 30 12 38 20.0000000  0 16G26G28R 9R 8R10G15R 7G 8G27R18G 5R19
                                R 1G17G18G 9                        
 104782134.836    81648436.1394   19939378.580 8  19939378.24846  19939381.15346
      2741.303        2136.086  
 111039851.657    86524579.4574   21130182.063 8  21130181.30246  21130184.15946
      2723.519        2122.230  
 105979376.781    82428423.665    19846533.092 8  19846533.032 8  19846537.052 7
      2004.769        1559.268  
 107801413.354    83845564.768    20131153.485 8  20131153.166 8  20131153.935 7
      3453.292        2685.886  
 106507368.327    82839088.924    19980512.129 8  19980511.665 7  19980517.968 6
      5453.101        4241.314  
 111073715.399    86550965.2324   21136625.369 8  21136625.39946  21136628.19246
      5577.146        4345.829  
 115104045.785    89525392.402    21502404.363 7  21502403.263 7  21502403.363 6
        58.012          45.116  
 118436593.176    92288272.4194   22537735.496 6  22537734.45743  22537738.97043
      1018.165         793.404  
 118074270.254    92005945.0434   22468785.859 7  22468785.55645  22468790.09945
      5953.563        4639.146  
 117770634.621    91599398.542    22062407.321 7  22062406.502 7  22062412.238 6
      3169.823        2465.411  
 126643157.877    98682998.7674   24099394.699 6  24099395.09044  24099400.68944
       181.072         141.118  
 118333585.874    92037261.515    22121217.454 6  22121216.091 6  22121218.646 5
      6800.176        5289.022  
 120673837.875    93857456.658    22574537.362 7  22574537.454 6  22574540.738 5
      7169.800        5576.519  
 125264748.745    97608917.9594   23837086.755 6  23837086.96244  23837091.71544
      6857.074        5343.168  
 128402313.401   100053776.5534   24434149.122 6  24434148.47843  24434152.69543
      6049.579        4713.937  
 125465532.843    97765370.0634   23875295.634 6  23875294.95943  23875300.58443
      7299.284        5687.758  
 11  5 30 12 38 25.0000000  0 16G26G28R 9R 8R10G15R 7G 8G27R18G 5R19
                                R 1G17G18G 9                        
 104768435.326    81637761.1914   19936771.617 8  19936771.17946  19936774.29146
      2738.635        2134.007  
 111026239.780    86513972.8004   21127591.908 8  21127591.26546  21127594.00946
      2721.557        2120.692  
 105969356.866    82420630.394    19844656.910 8  19844656.796 8  19844660.581 7
      2003.407        1558.206  
 107784157.189    83832143.302    20127931.361 8  20127930.659 8  20127931.530 7
      3449.183        2682.691  
 106480107.437    82817886.020    19975398.391 8  19975397.866 7  19975403.465 6
      5451.484        4240.042  
 111045834.087    86529239.5364   21131319.759 8  21131319.86246  21131322.56046
      5575.485        4344.544  
 115103761.554    89525171.320    21502351.174 7  21502349.902 7  21502350.419 6
        55.970          43.533  
 118431503.122    92284306.1284   22536766.928 6  22536765.93943  22536770.63743
      1017.737         793.062  
 118044504.147    91982750.6784   22463122.018 7  22463121.24145  22463125.72545
      5952.980        4638.683  
 117754795.635    91587079.318    22059440.080 7  22059439.504 7  22059445.115 6
      3165.933        2462.400  
 126642252.186    98682293.0194   24099222.440 7  24099222.64244  24099228.26144
       181.208         141.213  
 118299592.298    92010822.056    22114861.288 6  22114861.189 6  22114863.021 5
      6797.208        5286.714  
 120637995.183    93829579.010    22567832.640 7  22567832.223 6  22567835.456 5
      7167.322        5574.562  
 125230463.916    97582202.5104   23830563.255 7  23830563.02344  23830568.00944
      6856.794        5342.969  
 128372070.222   100030210.4344   24428394.324 6  24428393.46943  24428397.37743
      6047.925        4712.664  
 125429036.287    97736931.2014   23868352.128 7  23868350.62343  23868355.32143
      7299.421        5687.882  
 11  5 30 12 38 30.0000000  0 16G26G28R 9R 8R10G15R 7G 8G27R18G 5R19
                                R 1G17G18G 9                        
 104754748.400    81627096.0554   19934167.123 8  19934166.64846  19934169.59346
      2736.160        2132.072  
 111012637.131    86503373.3294   21125003.703 8  21125002.86446  21125005.62346
      2719.627        2119.189  
 105959343.355    82412842.113    19842781.841 8  19842781.642 8  19842785.383 7
      2002.034        1557.139  
 107766920.963    83818737.347    20124712.691 8  20124712.051 8  20124712.722 7
      3445.168        2679.573  
 106452853.747    82796688.714    19970286.276 8  19970285.275 7  19970290.735 6
      5450.098        4238.958  
 111017961.210    86507520.4114   21126015.585 8  21126015.78946  21126018.45346
      5573.640        4343.088  
 115103485.535    89524956.625    21502300.572 7  21502298.962 7  21502298.303 6
        54.296          42.236  
 118426414.895    92280341.2894   22535798.221 6  22535797.94343  22535802.30843
      1017.255         792.665  
 118014739.764    91959557.6574   22457458.814 7  22457457.30145  22457461.65045
      5952.645        4638.411  
 117738975.745    91574774.964    22056476.005 7  22056475.881 6  22056481.080 6
      3162.054        2459.351  
 126641345.689    98681586.6334   24099050.108 6  24099050.27044  24099055.83144
       181.434         141.389  
 118265610.260    91984391.598    22108508.377 6  22108508.851 6  22108510.220 5
      6795.053        5285.026  
 120602163.173    93801709.674    22561127.584 6  22561128.658 6  22561132.160 5
      7165.201        5572.932  
 125196180.688    97555488.3184   23824039.260 6  23824039.25544  23824044.49044
      6856.441        5342.693  
 128341834.851   100006650.4054   24422639.987 6  24422639.47543  24422643.62743
      6046.507        4711.526  
 125392538.964    97708491.7404   23861405.982 6  23861405.62843  23861410.03943
      7299.421        5687.847  
 11  5 30 12 38 35.0000000  0 16G26G28R 9R 8R10G15R 7G 8G27R18G 5R19
                                R 1G17G18G 9                        
 104741073.755    81616440.4864   19931564.971 8  19931564.49946  19931567.46746
      2733.608        2130.075  
 110999043.640    86492780.9974   21122417.250 8  21122416.27846  21122418.80446
      2717.816        2117.782  
 105949335.987    82405058.601    19840907.171 8  19840907.380 8  19840911.349 7
      2000.796        1556.177  
 107749704.803    83805347.002    20121497.604 8  20121497.094 8  20121497.444 7
      3441.198        2676.492  
 106425607.091    82775496.873    19965173.968 8  19965173.555 7  19965179.982 6
      5448.523        4237.743  
 110990096.578    86485807.7174   21120712.925 8  21120713.26346  21120716.06046
      5572.042        4341.853  
 115103217.851    89524748.409    21502250.067 7  21502248.952 7  21502248.630 6
        52.539          40.880  
 118421328.350    92276377.7284   22534830.988 6  22534830.19443  22534834.43243
      1017.227         792.679  
 117984976.976    91936365.8794   22451794.568 7  22451793.68445  22451797.96445
      5952.353        4638.216  
 117723174.946    91562485.447    22053515.005 7  22053515.591 6  22053520.916 6
      3158.241        2456.424  
 126640438.209    98680879.4744   24098877.533 7  24098877.42344  24098883.33644
       181.647         141.546  
 118231639.795    91957970.170    22102158.434 6  22102157.498 6  22102159.359 5
      6792.850        5283.322  
 120566341.647    93773848.491    22554427.556 7  22554427.330 6  22554431.086 5
      7163.372        5571.505  
 125161898.890    97528775.2354   23817515.248 6  23817515.57944  23817520.79444
      6856.080        5342.428  
 128311607.180    99983096.3844   24416888.654 6  24416887.15143  24416891.26443
      6044.633        4710.123  
 125356040.652    97680051.5104   23854460.957 7  23854460.32243  23854464.72643
      7299.646        5688.019  
 11  5 30 12 38 40.0000000  0 16G26G28R 9R 8R10G15R 7G 8G27R18G 5R19
                                R 1G17G18G 9                        
 104727411.834    81605794.8274   19928964.895 8  19928964.71946  19928967.59946
      2731.198        2128.208  
 110985459.725    86482196.1284   21119832.144 8  21119831.47346  21119833.90446
      2715.867        2116.257  
 105939335.259    82397280.254    19839035.058 8  19839034.673 8  19839038.397 7
      1999.514        1555.174  
 107732508.874    83791972.391    20118286.808 8  20118286.097 7  20118286.387 7
      3437.225        2673.400  
 106398368.027    82754310.932    19960063.906 8  19960063.424 7  19960070.428 6
      5447.035        4236.591  
 110962240.677    86464101.8184   21115412.635 8  21115412.45946  21115415.23646
      5570.422        4340.594  
 115102959.058    89524547.114    21502202.234 7  21502200.805 7  21502200.163 6
        51.040          39.693  
 118416243.882    92272415.8124   22533862.859 6  22533862.54443  22533866.94543
      1016.691         792.217  
 117955216.207    91913175.6784   22446130.624 7  22446130.36745  22446134.62145
      5951.829        4637.797  
 117707393.213    91550210.758    22050558.633 7  22050559.010 6  22050564.200 6
      3154.410        2453.418  
 126639530.203    98680171.9114   24098704.949 7  24098704.54744  24098710.46644
       181.834         141.701  
 118197681.343    91931558.058    22095810.281 6  22095809.850 6  22095811.691 5
      6790.652        5281.606  
 120530531.021    93745995.798    22547729.716 7  22547728.857 6  22547732.628 5
      7161.047        5569.692  
 125127619.004    97502063.6474   23810992.262 6  23810992.27644  23810997.64044
      6855.935        5342.283  
 128281387.640    99959548.6984   24411137.834 6  24411136.87543  24411141.05243
      6043.156        4708.958  
 125319541.885    97651610.9164   23847514.905 6  23847514.62443  23847519.28543
      7299.822        5688.190  
 11  5 30 12 38 45.0000000  0 16G26G28R 9R 8R10G15R 7G 8G27R18G 5R19
                                R 1G17G18G 9                        
 104713762.450    81595158.9444   19926367.527 8  19926367.23746  19926370.15347
      2728.610        2126.186  
 110971885.209    86471618.5864   21117248.910 8  21117248.33946  21117250.71746
      2713.993        2114.797  
 105929340.948    82389506.901    19837163.367 8  19837162.982 8  19837166.630 7
      1998.188        1554.155  
 107715333.278    83778613.594    20115078.522 8  20115078.396 7  20115079.051 7
      3433.029        2670.129  
 106371136.244    82733130.658    19954955.565 8  19954954.836 7  19954962.052 6
      5445.544        4235.416  
 110934393.319    86442402.5814   21110113.205 8  21110113.28946  21110116.05746
      5568.540        4339.120  
 115102708.585    89524352.294    21502155.044 7  21502154.106 7  21502153.195 6
        49.090          38.183  
 118411161.298    92268455.3494   22532895.141 5  22532894.87643  22532899.07743
      1016.291         791.916  
 117925457.276    91889986.9034   22440467.339 7  22440467.42145  22440471.77445
      5951.603        4637.607  
 117691630.727    91537951.048    22047606.698 7  22047606.424 6  22047611.558 6
      3150.458        2450.361  
 126638621.461    98679463.7824   24098531.565 7  24098531.68144  24098537.39844
       181.722         141.588  
 118163734.644    91905155.090    22089464.502 6  22089463.948 6  22089466.279 6
      6788.106        5279.640  
 120494731.187    93718151.494    22541033.108 7  22541031.885 6  22541035.725 5
      7158.909        5568.042  
 125093340.865    97475353.4264   23804469.525 6  23804469.60244  23804474.82944
      6855.542        5341.960  
 128251176.054    99936007.2054   24405389.042 6  24405387.73743  24405391.95943
      6041.485        4707.659  
 125283042.394    97623169.7634   23840569.111 7  23840569.20043  23840573.42143
      7299.984        5688.298  
 11  5 30 12 38 50.0000000  0 16G26G28R 9R 8R10G15R 7G 8G27R18G 5R19
                                R 1G17G18G 9                        
 104700125.285    81584532.5814   19923772.249 8  19923772.06046  19923774.99546
      2726.179        2124.298  
 110958319.714    86461048.0754   21114667.656 8  21114667.07646  21114669.24846
      2712.189        2113.383  
 105919352.795    82381738.330    19835292.116 8  19835292.369 8  19835296.344 7
      1996.927        1553.161  
 107698177.455    83765270.175    20111875.381 8  20111874.702 8  20111875.428 7
      3429.219        2667.173  
 106343911.493    82711955.855    19949848.440 8  19949847.737 7  19949854.455 6
      5444.121        4234.311  
 110906554.121    86420709.6974   21104815.358 7  21104815.56846  21104818.44446
      5567.125        4338.017  
 115102466.203    89524163.766    21502109.972 7  21502108.991 7  21502108.203 6
        47.668          37.081  
 118406080.306    92264496.1114   22531928.406 6  22531927.82243  22531932.36043
      1015.918         791.607  
 117895699.841    91866799.2984   22434804.818 7  22434804.51845  22434809.29145
      5951.439        4637.492  
 117675887.297    91525706.165    22044656.498 6  22044656.836 6  22044662.672 6
      3146.736        2447.455  
 126637711.601    98678754.7814   24098358.687 7  24098358.71644  24098364.36344
       182.118         141.918  
 118129799.425    91878761.019    22083120.635 6  22083119.800 6  22083122.967 6
      6785.824        5277.848  
 120458941.892    93690315.380    22534338.059 7  22534337.192 6  22534340.768 5
      7156.744        5566.347  
 125059064.152    97448644.3054   23797947.266 6  23797946.96844  23797952.51444
      6855.188        5341.703  
 128220972.063    99912471.6384   24399641.044 6  24399640.06043  24399644.40043
      6040.092        4706.577  
 125246541.828    97594727.7754   23833622.924 6  23833622.82943  23833627.78243
      7300.452        5688.688  
 11  5 30 12 38 55.0000000  0 16G26G28R 9R 8R10G15R 7G 8G27R18G 5R19
                                R 1G17G18G 9                        
 104686500.488    81573915.8524   19921179.426 8  19921179.33946  19921182.32847
      2723.610        2122.280  
 110944763.330    86450484.6614   21112087.905 8  21112087.37946  21112089.57446
      2710.364        2111.976  
 105909370.826    82373974.577    19833423.156 8  19833423.231 8  19833427.028 7
      1995.708        1552.212  
 107681041.546    83751942.241    20108675.354 8  20108675.031 8  20108675.531 7
      3425.133        2663.997  
 106316693.896    82690786.610    19944742.542 8  19944741.955 7  19944748.347 6
      5442.559        4233.104  
 110878723.324    86399023.3644   21099519.108 8  21099519.60246  21099522.33546
      5565.207        4336.518  
 115102231.952    89523981.566    21502065.846 7  21502065.059 7  21502064.503 6
        45.879          35.690  
 118401001.035    92260538.2504   22530962.371 6  22530961.61242  22530965.72743
      1015.278         791.153  
 117865944.044    91843612.9644   22429143.128 7  22429142.37045  22429146.74445
      5950.826        4637.010  
 117660162.554    91513475.796    22041711.274 7  22041711.195 6  22041716.864 6
      3142.748        2444.356  
 126636800.784    98678045.0324   24098184.644 6  24098185.28744  24098190.97544
       182.297         142.048  
 118095875.821    91852376.017    22076780.700 6  22076778.407 6  22076781.249 6
      6783.506        5276.060  
 120423163.120    93662487.460    22527644.374 7  22527643.383 6  22527647.612 5
      7154.542        5564.641  
 125024788.987    97421936.4164   23791424.714 6  23791424.54644  23791429.99744
      6854.679        5341.286  
 128190775.842    99888942.1274   24393894.316 6  24393893.95743  24393898.41543
      6038.578        4705.371  
 125210040.391    97566285.1114   23826676.160 6  23826676.51243  23826681.48043
      7300.354        5688.583  
 11  5 30 12 39  0.0000000  0 16G26G28R 9R 8R10G15R 7G 8G27R18G 5R19
                                R 1G17G18G 9                        
 104672887.981    81563308.6994   19918589.353 8  19918589.12446  19918591.98946
      2721.263        2120.455  
 110931216.023    86439928.3184   21109509.878 8  21109509.32146  21109511.47246
      2708.521        2110.542  
 105899395.042    82366215.623    19831554.324 8  19831554.574 8  19831558.985 7
      1994.503        1551.282  
 107663925.434    83738629.712    20105479.339 8  20105478.588 8  20105478.945 7
      3421.249        2660.971  
 106289483.338    82669622.849    19939637.498 8  19939637.121 7  19939643.197 6
      5441.404        4232.209  
 110850900.809    86377343.4804   21094225.223 8  21094225.24446  21094227.83046
      5563.635        4335.294  
 115102005.870    89523805.698    21502024.051 7  21502022.895 7  21502022.556 6
        44.269          34.435  
 118395923.335    92256581.5894   22529995.856 5  22529994.70742  22529999.60443
      1015.591         791.352  
 117836189.797    91820427.8424   22423480.913 7  22423480.27245  22423484.68945
      5950.679        4636.877  
 117644456.882    91501260.274    22038769.734 6  22038768.547 6  22038774.644 6
      3139.196        2441.603  
 126635888.886    98677334.4394   24098011.286 6  24098011.62944  24098017.39544
       182.462         142.167  
 118061963.807    91826000.003    22070439.428 6  22070438.537 5  22070441.567 6
      6781.222        5274.273  
 120387394.954    93634667.790    22520951.979 7  22520952.131 6  22520955.944 5
      7152.592        5563.123  
 124990515.367    97395229.7124   23784902.532 7  23784902.18044  23784907.48944
      6854.476        5341.151  
 128160587.320    99865418.6094   24388148.944 6  24388148.61343  24388153.73743
      6036.874        4704.035  
 125173537.963    97537841.6764   23819729.831 6  23819730.49143  23819735.26743
      7300.505        5688.662  
 11  5 30 12 39  5.0000000  0 16G26G28R 9R 8R10G15R 7G 8G27R18G 5R19
                                R 1G17G18G 9                        
 104659287.740    81552711.1114   19916001.282 8  19916001.03346  19916003.90546
      2718.909        2118.632  
 110917677.785    86429379.0444   21106933.677 8  21106933.03246  21106935.18346
      2706.693        2109.122  
 105889425.349    82358461.418    19829687.895 8  19829687.601 8  19829691.702 7
      1993.284        1550.335  
 107646829.299    83725332.720    20102285.932 8  20102285.753 8  20102286.347 7
      3417.284        2657.901  
 106262279.872    82648464.605    19934534.490 8  19934533.947 7  19934539.745 6
      5439.878        4231.015  
 110823086.603    86355670.0734   21088932.273 8  21088932.33746  21088935.06346
      5562.012        4334.042  
 115101787.953    89523636.198    21501983.651 7  21501982.049 7  21501981.553 6
        42.766          33.265  
 118390847.308    92252626.2434   22529029.809 5  22529028.92942  22529033.90742
      1014.798         790.753  
 117806437.117    91797243.9454   22417819.057 7  22417818.62345  22417822.82145
      5950.457        4636.728  
 117628769.991    91489059.356    22035831.236 6  22035830.304 6  22035835.980 6
      3135.565        2438.785  
 126634975.886    98676622.9664   24097837.355 6  24097837.84244  24097843.49744
       182.807         142.470  
 118028063.392    91799632.995    22064101.036 6  22064101.087 5  22064104.235 6
      6779.130        5272.661  
 120351637.281    93606856.276    22514263.352 7  22514262.815 6  22514266.463 5
      7150.526        5561.517  
 124956243.234    97368524.1774   23778381.569 6  23778380.73744  23778385.63444
      6854.151        5340.886  
 128130406.477    99841901.0844   24382406.349 6  24382405.52743  24382410.35343
      6035.648        4703.086  
 125137034.671    97509397.5404   23812783.838 6  23812784.39043  23812789.10643
      7300.724        5688.854  
 11  5 30 12 39 10.0000000  0 16G26G28R 9R 8R10G15R 7G 8G27R18G 5R19
                                R 1G17G18G 9                        
 104645699.861    81542123.1504   19913415.902 8  19913415.52246  19913418.14046
      2716.394        2116.669  
 110904148.690    86418836.8904   21104359.075 8  21104358.47946  21104360.58746
      2705.038        2107.828  
 105879461.961    82350712.109    19827821.980 8  19827822.107 8  19827825.671 7
      1992.143        1549.450  
 107629752.982    83712051.140    20099097.650 8  20099097.248 8  20099097.534 7
      3413.306        2654.797  
 106235083.668    82627312.002    19929432.531 8  19929431.989 7  19929437.550 6
      5438.526        4229.955  
 110795280.857    86334003.2644   21083640.954 8  21083641.02446  21083643.77246
      5560.407        4332.787  
 115101578.210    89523473.059    21501945.206 7  21501943.534 7  21501942.670 6
        41.375          32.196  
 118385772.974    92248672.2094   22528065.140 6  22528063.41742  22528067.94642
      1014.667         790.677  
 117776686.111    91774061.3484   22412157.902 7  22412157.23645  22412161.23045
      5950.105        4636.451  
 117613102.188    91476873.277    22032895.729 6  22032895.051 6  22032900.954 6
      3131.837        2435.883  
 126634061.948    98675910.7904   24097663.207 6  24097663.95744  24097669.40844
       182.869         142.489  
 117994174.767    91773275.200    22057766.914 6  22057765.570 6  22057769.081 6
      6776.533        5270.637  
 120315890.397    93579053.152    22507575.764 6  22507575.245 6  22507579.152 5
      7148.366        5559.845  
 124921972.779    97341819.9454   23771858.248 6  23771858.89344  23771864.71044
      6853.851        5340.648  
 128100233.472    99818389.6514   24376664.836 6  24376664.11143  24376668.24343
      6033.831        4701.675  
 125100530.505    97480952.7634   23805837.663 6  23805837.66343  23805842.78143
      7300.766        5688.912  
 11  5 30 12 39 15.0000000  0 16G26G28R 9R 8R10G15R 7G 8G27R18G 5R19
                                R 1G17G18G 9                        
 104632124.385    81531544.8514   19910832.754 8  19910832.24046  19910834.88946
      2713.732        2114.590  
 110890628.841    86408301.9404   21101786.298 8  21101785.68346  21101787.89646
      2702.929        2106.173  
 105869504.775    82342967.622    19825957.925 8  19825957.600 8  19825961.237 7
      1990.572        1548.215  
 107612696.877    83698785.281    20095912.559 8  20095912.164 8  20095912.447 7
      3409.185        2651.587  
 106207894.669    82606165.005    19924332.534 8  19924331.677 7  19924336.717 6
      5436.914        4228.703  
 110767483.585    86312343.0564   21078351.536 7  21078351.25146  21078354.08146
      5558.448        4331.253  
 115101376.807    89523316.396    21501906.867 7  21501904.960 7  21501904.672 6
        39.401          30.648  
 118380700.429    92244719.5644   22527099.337 6  22527098.11643  22527103.27442
      1014.099         790.187  
 117746936.875    91750880.1304   22406496.488 7  22406496.12045  22406500.39745
      5949.456        4635.931  
 117597453.336    91464701.962    22029964.491 6  22029963.273 6  22029969.588 7
      3127.700        2432.655  
 126633147.087    98675197.8914   24097490.105 7  24097489.87444  24097495.24844
       182.784         142.414  
 117960297.856    91746926.492    22051433.541 6  22051432.496 6  22051436.395 6
      6773.996        5268.649  
 120280154.208    93551258.351    22500890.806 7  22500890.450 6  22500893.995 5
      7146.201        5558.131  
 124887704.023    97315117.0334   23765338.919 6  23765338.41544  23765343.56244
      6853.455        5340.357  
 128070068.357    99794884.3764   24370924.462 6  24370923.41143  24370928.45343
      6032.400        4700.568  
 125064025.559    97452507.3664   23798891.615 6  23798891.00643  23798896.29443
      7300.984        5689.062  
 11  5 30 12 39 20.0000000  0 16G26G28R 9R 8R10G15R 7G 8G27R18G 5R19
                                R 1G17G18G 9                        
 104618561.351    81520976.2494   19908251.924 8  19908251.32946  19908253.96046
      2711.421        2112.795  
 110877118.151    86397774.1324   21099215.100 8  21099214.50446  21099216.88146
      2701.254        2104.888  
 105859553.868    82335228.035    19824094.306 8  19824094.348 8  19824097.682 7
      1989.603        1547.475  
 107595660.745    83685534.951    20092731.274 8  20092730.820 8  20092730.950 7
      3405.398        2648.649  
 106180712.850    82585023.594    19919233.249 8  19919232.452 7  19919238.179 6
      5435.667        4227.739  
 110739694.753    86290689.4194   21073063.565 7  21073063.35546  21073066.02646
      5556.955        4330.096  
 115101183.507    89523166.047    21501870.436 7  21501868.670 7  21501868.601 6
        37.879          29.458  
 118375629.502    92240768.1984   22526134.095 6  22526133.27343  22526138.58442
      1014.151         790.260  
 117717189.271    91727700.1894   22400835.866 7  22400835.43045  22400839.54945
      5949.357        4635.853  
 117581823.673    91452545.576    22027035.548 6  22027034.953 6  22027041.578 7
      3123.963        2429.744  
 126632231.222    98674484.2064   24097316.105 7  24097315.82744  24097321.15944
       183.337         142.873  
 117926432.740    91720586.986    22045103.200 6  22045102.302 6  22045105.643 6
      6771.742        5266.901  
 120244428.860    93523471.976    22494207.692 7  22494207.434 6  22494210.899 5
      7143.967        5556.431  
 124853436.940    97288415.4244   23758817.696 7  23758817.55444  23758822.61944
      6853.378        5340.309  
 128039911.078    99771385.2034   24365184.187 6  24365184.39043  24365190.09343
      6030.788        4699.290  
 125027519.814    97424061.3544   23791945.696 6  23791944.11043  23791949.57243
      7301.163        5689.222  
 11  5 30 12 39 25.0000000  0 16G26G28R 9R 8R10G15R 7G 8G27R18G 5R19
                                R 1G17G18G 9                        
 104605010.602    81510417.2244   19905672.919 8  19905672.60046  19905675.46146
      2708.860        2110.800  
 110863616.568    86387253.4144   21096646.016 8  21096645.24446  21096647.69146
      2699.475        2103.479  
 105849609.058    82327493.189    19822232.354 8  19822232.254 8  19822235.451 7
      1988.282        1546.436  
 107578644.598    83672300.168    20089553.985 8  20089553.275 8  20089553.106 7
      3401.206        2645.364  
 106153538.170    82563887.733    19914134.595 8  19914134.203 7  19914140.463 6
      5434.172        4226.575  
 110711914.362    86269042.3674   21067776.931 8  21067776.85946  21067779.56946
      5555.186        4328.721  
 115100998.328    89523022.010    21501836.543 7  21501834.577 7  21501833.796 6
        36.141          28.110  
 118370560.362    92236818.2094   22525168.662 6  22525168.08243  22525173.97243
      1013.236         789.541  
 117687443.351    91704521.5554   22395175.587 7  22395174.99445  22395179.12945
      5948.993        4635.576  
 117566212.901    91440403.859    22024111.586 6  22024111.121 6  22024117.337 7
      3120.174        2426.808  
 126631314.290    98673769.6914   24097141.115 6  24097141.26244  24097146.88844
       183.478         142.970  
 117892579.323    91694256.571    22038775.825 6  22038774.191 6  22038777.295 6
      6769.533        5265.180  
 120208714.135    93495693.863    22487527.820 7  22487526.918 6  22487529.507 5
      7142.078        5554.946  
 124819171.525    97261715.1214   23752297.171 6  23752296.83044  23752302.37944
      6852.949        5339.956  
 128009761.670    99747892.1854   24359448.149 6  24359447.22743  24359452.39443
      6029.191        4698.079  
 124991013.192    97395614.6374   23784999.103 6  23784997.54443  23785002.94943
      7301.442        5689.438  
 11  5 30 12 39 30.0000000  0 16G26G28R 9R 8R10G15R 7G 8G27R18G 5R19
                                R 1G17G18G 9                        
 104591472.548    81499868.0914   19903096.685 8  19903096.44746  19903099.23946
      2706.403        2108.870  
 110850124.375    86376740.0164   21094078.385 8  21094077.89546  21094080.12246
      2697.454        2101.921  
 105839670.765    82319763.413    19820371.358 8  19820371.194 8  19820374.516 7
      1987.074        1545.504  
 107561648.634    83659081.081    20086380.023 7  20086379.302 8  20086379.480 7
      3397.147        2642.223  
 106126370.952    82542757.678    19909037.880 8  19909037.750 7  19909044.188 6
      5432.685        4225.415  
 110684142.666    86247402.0854   21062492.287 8  21062492.00246  21062494.79046
      5553.476        4327.375  
 115100821.437    89522884.411    21501802.983 7  21501801.833 7  21501800.401 6
        34.596          26.899  
 118365493.108    92232869.6624   22524205.041 6  22524203.82443  22524209.62043
      1013.324         789.589  
 117657699.346    91681344.4084   22389515.555 7  22389515.07145  22389519.06245
      5948.646        4635.287  
 117550621.186    91428276.970    22021190.375 6  22021190.362 6  22021196.517 7
      3116.250        2423.738  
 126630396.608    98673054.5994   24096966.704 7  24096966.65044  24096972.24544
       183.606         143.069  
 117858738.006    91667935.559    22032450.261 6  22032448.331 6  22032451.020 6
      6767.276        5263.429  
 120173010.520    93467924.390    22480847.386 7  22480847.617 6  22480850.569 5
      7139.637        5553.047  
 124784908.094    97235016.3554   23745776.980 6  23745777.04144  23745781.92444
      6852.430        5339.554  
 127979620.336    99724405.4354   24353712.222 6  24353711.54043  24353716.63743
      6027.482        4696.746  
 124954506.003    97367167.4904   23778051.000 6  23778050.28743  23778055.86843
      7301.755        5689.708  
 11  5 30 12 39 35.0000000  0 16G26G28R 9R 8R10G15R 7G 8G27R18G 5R19
                                R 1G17G18G 9                        
 104577946.881    81489328.6094   19900522.576 8  19900522.43746  19900525.25646
      2703.963        2106.995  
 110836641.304    86366233.7244   21091512.670 8  21091512.07846  21091514.38846
      2695.820        2100.624  
 105829738.763    82312038.521    19818510.784 8  19818510.660 8  19818514.866 8
      1985.764        1544.481  
 107544672.632    83645877.522    20083209.652 8  20083209.090 8  20083209.300 7
      3393.184        2639.137  
 106099210.905    82521633.198    19903943.630 8  19903942.977 7  19903949.265 6
      5431.289        4224.343  
 110656379.434    86225768.4014   21057209.342 8  21057208.95146  21057211.70546
      5551.819        4326.083  
 115100652.775    89522753.217    21501771.191 7  21501770.250 7  21501768.932 6
        33.039          25.706  
 118360427.604    92228922.4984   22523241.494 6  22523240.17943  22523246.02743
      1012.936         789.313  
 117627957.030    91658168.5834   22383855.674 7  22383855.29145  22383859.28945
      5948.459        4635.161  
 117535048.544    91416164.933    22018273.676 6  22018273.421 6  22018279.630 7
      3112.829        2421.095  
 126629477.872    98672338.6814   24096791.246 6  24096792.03144  24096797.37444
       183.918         143.297  
 117824908.520    91641623.717    22026125.383 6  22026124.525 6  22026126.972 6
      6764.701        5261.440  
 120137317.684    93440163.298    22474170.533 7  22474170.114 6  22474173.414 5
      7137.462        5551.369  
 124750646.330    97208318.8754   23739257.093 6  23739256.88144  23739262.13944
      6852.218        5339.381  
 127949486.923    99700924.8664   24347978.357 6  24347977.18443  24347982.90543
      6025.752        4695.426  
 124917998.005    97338719.7164   23771103.038 6  23771102.70843  23771108.14343
      7301.857        5689.724  
 11  5 30 12 39 40.0000000  0 16G26G28R 9R 8R10G15R 7G 8G27R18G 5R19
                                R 1G17G18G 9                        
 104564433.717    81478798.8654   19897951.105 8  19897950.87346  19897953.73146
      2701.258        2104.862  
 110823167.494    86355734.6554   21088948.626 8  21088948.03846  21088950.35746
      2693.768        2099.040  
 105819813.040    82304318.508    19816651.493 8  19816651.385 7  19816656.320 7
      1984.452        1543.459  
 107527716.566    83632689.473    20080043.010 8  20080042.372 8  20080042.863 7
      3389.135        2635.986  
 106072058.182    82500514.421    19898850.048 8  19898849.172 7  19898855.446 6
      5429.761        4223.146  
 110628624.834    86204141.4414   21051927.396 8  21051927.39246  21051930.18446
      5550.087        4324.738  
 115100492.522    89522628.570    21501741.648 7  21501740.193 7  21501738.915 6
        31.094          24.187  
 118355363.869    92224976.7494   22522278.093 6  22522276.69243  22522282.18143
      1012.620         789.051  
 117598216.544    91634994.1844   22378196.144 7  22378195.85045  22378199.71645
      5947.909        4634.718  
 117519495.008    91404067.726    22015360.246 6  22015359.428 6  22015365.667 7
      3108.894        2418.021  
 126628558.255    98671622.0704   24096616.794 6  24096617.21144  24096622.76844
       184.072         143.423  
 117791091.095    91615321.263    22019802.532 6  22019802.482 6  22019805.191 6
      6762.146        5259.450  
 120101635.825    93412410.752    22467496.076 7  22467495.381 6  22467498.901 5
      7135.233        5549.622  
 124716386.497    97181622.9224   23732737.543 7  23732737.44844  23732742.81144
      6851.457        5338.776  
 127919361.573    99677450.5664   24342245.009 6  24342244.82643  24342249.85343
      6024.219        4694.176  
 124881489.346    97310271.4254   23764155.027 6  23764155.56243  23764160.48843
      7301.944        5689.810  
 11  5 30 12 39 45.0000000  0 16G26G28R 9R 8R10G15R 7G 8G27R18G 5R19
                                R 1G17G18G 9                        
 104550933.257    81468279.0254   19895381.940 8  19895381.75446  19895384.58646
      2698.707        2102.887  
 110809703.139    86345242.9474   21086386.748 8  21086385.81246  21086388.30946
      2691.825        2097.533  
 105809893.803    82296603.535    19814793.370 8  19814793.655 7  19814798.841 7
      1983.100        1542.406  
 107510781.080    83619517.422    20076880.608 8  20076879.981 8  20076880.251 7
      3384.970        2632.750  
 106044913.065    82479401.548    19893757.321 8  19893756.735 7  19893762.893 6
      5428.230        4221.963  
 110600879.061    86182521.3614   21046647.715 8  21046647.54846  21046650.37246
      5548.140        4323.230  
 115100340.767    89522510.523    21501713.271 7  21501711.907 7  21501710.857 6
        29.523          22.983  
 118350302.196    92221032.5764   22521314.743 6  22521313.86643  22521318.64543
      1011.987         788.544  
 117568478.087    91611821.3614   22372537.111 7  22372536.77245  22372540.97545
      5947.364        4634.302  
 117503960.771    91391985.535    22012450.432 6  22012449.698 6  22012455.345 7
      3105.110        2415.086  
 126627637.914    98670904.8894   24096442.564 7  24096442.01744  24096447.68644
       184.017         143.402  
 117757285.699    91589028.207    22013483.618 6  22013482.814 6  22013485.166 6
      6759.667        5257.521  
 120065965.109    93384666.874    22460822.569 7  22460822.680 6  22460825.901 5
      7133.056        5547.916  
 124682128.757    97154928.5714   23726218.859 6  23726218.26844  23726223.52944
      6851.189        5338.586  
 127889244.439    99653982.6794   24336515.844 6  24336514.06543  24336518.66343
      6022.632        4692.969  
 124844980.245    97281822.7954   23757207.915 6  23757208.55143  23757213.20443
      7301.771        5689.703  
 11  5 30 12 39 50.0000000  0 16G26G28R 9R 8R10G15R 7G 8G27R18G 5R19
                                R 1G17G18G 9                        
 104537445.777    81457769.3004   19892815.593 8  19892815.14146  19892818.10546
      2696.130        2100.878  
 110796248.477    86334758.7894   21083826.061 8  21083825.34546  21083827.94046
      2689.910        2096.028  
 105799981.366    82288893.853    19812937.725 8  19812937.606 7  19812942.358 8
      1981.752        1541.370  
 107493866.008    83606361.255    20073721.733 8  20073721.082 7  20073721.678 7
      3380.961        2629.642  
 106017775.740    82458294.748    19888666.333 8  19888665.727 7  19888671.836 6
      5426.638        4220.719  
 110573142.379    86160908.3644   21041369.274 8  21041369.39146  21041372.23346
      5546.433        4321.890  
 115100197.246    89522398.884    21501686.011 7  21501685.244 7  21501684.102 6
        27.834          21.637  
 118345242.728    92217090.1174   22520351.613 5  22520351.02043  22520356.04643
      1011.698         788.342  
 117538741.890    91588650.3024   22366878.426 7  22366878.18345  22366882.28145
      5946.936        4633.980  
 117488446.015    91379918.509    22009543.839 6  22009543.144 6  22009548.899 7
      3101.083        2411.959  
 126626717.040    98670187.3114   24096266.685 7  24096266.97544  24096272.49544
       184.131         143.473  
 117723492.965    91562744.966    22007166.180 6  22007165.541 6  22007167.760 6
      6757.258        5255.648  
 120030305.859    93356931.918    22454152.170 7  22454151.548 6  22454154.909 5
      7130.809        5546.180  
 124647873.293    97128236.0384   23719699.767 6  23719699.67144  23719705.07544
      6850.867        5338.341  
 127859135.797    99630521.4074   24330786.095 6  24330784.56443  24330789.54943
      6020.773        4691.497  
 124808470.941    97253373.9804   23750260.641 7  23750260.77043  23750265.83743
      7301.817        5689.747  
 11  5 30 12 39 55.0000000  0 16G26G28R 9R 8R10G15R 7G 8G27R18G 5R19
                                R 1G17G18G 9                        
 104523970.961    81447269.4394   19890251.252 8  19890250.99446  19890253.99746
      2693.784        2099.051  
 110782803.215    86324281.9644   21081267.766 8  21081266.99246  21081269.36846
      2688.210        2094.719  
 105790075.524    82281189.301    19811082.783 8  19811082.732 8  19811087.193 7
      1980.601        1540.471  
 107476971.264    83593220.899    20070566.633 8  20070566.156 8  20070566.627 7
      3376.900        2626.488  
 105990645.943    82437193.799    19883577.064 8  19883575.929 7  19883582.412 6
      5425.253        4219.645  
 110545414.504    86139302.2284   21036092.615 8  21036092.86746  21036095.87046
      5544.717        4320.553  
 115100062.195    89522293.828    21501660.658 7  21501659.484 7  21501659.141 6
        26.148          20.344  
 118340185.294    92213149.2294   22519389.526 5  22519388.42642  22519393.38143
      1011.479         788.150  
 117509007.679    91565480.7894   22361220.159 7  22361219.85445  22361223.96845
      5946.681        4633.781  
 117472950.553    91367866.485    22006641.175 6  22006640.240 6  22006646.023 7
      3097.188        2408.933  
 126625795.401    98669469.1254   24096091.343 7  24096091.33544  24096097.10744
       184.548         143.813  
 117689712.418    91536471.216    22000850.570 6  22000850.415 6  22000852.783 6
      6754.802        5253.725  
 119994657.759    93329205.634    22447482.932 7  22447482.608 6  22447486.101 5
      7128.428        5544.319  
 124613619.955    97101545.1254   23713181.102 6  23713181.26644  23713186.87544
      6850.405        5337.981  
 127829035.366    99607066.5344   24325058.721 7  24325056.92043  24325061.44243
      6019.364        4690.424  
 124771961.106    97224924.7724   23743314.042 6  23743313.03843  23743318.02243
      7302.057        5689.915  
 11  5 30 12 40  0.0000000  0 16G26G28R 9R 8R10G15R 7G 8G27R18G 5R19
                                R 1G17G18G 9                        
 104510508.674    81436779.3424   19887689.572 8  19887689.21246  19887692.26646
      2691.230        2097.064  
 110769367.345    86313812.4534   21078711.179 8  21078710.41646  21078712.60446
      2686.232        2093.167  
 105780175.978    82273489.651    19809229.165 8  19809229.090 8  19809233.035 7
      1979.293        1539.446  
 107460096.663    83580096.203    20067415.743 8  20067414.937 7  20067415.467 7
      3372.890        2623.354  
 105963523.663    82416098.690    19878488.109 7  19878487.686 7  19878494.175 6
      5423.675        4218.411  
 110517695.416    86117702.9444   21030818.283 8  21030818.13046  21030821.10946
      5542.942        4319.183  
 115099935.479    89522195.260    21501636.750 7  21501635.677 7  21501635.456 6
        24.522          19.070  
 118335129.784    92209209.8534   22518426.516 5  22518426.06242  22518431.15943
      1011.022         787.810  
 117479275.445    91542312.8144   22355562.829 7  22355561.98645  22355566.16145
      5946.249        4633.455  
 117457474.425    91355829.487    22003741.218 6  22003740.573 6  22003746.292 6
      3093.482        2406.043  
 126624872.928    98668750.2944   24095916.318 7  24095915.99344  24095921.71344
       184.628         143.868  
 117655943.924    91510206.862    21994538.861 6  21994537.603 6  21994539.844 6
      6752.409        5251.865  
 119959020.838    93301488.046    22440817.277 7  22440816.331 6  22440819.090 5
      7126.337        5542.703  
 124579368.636    97074855.7954   23706664.111 6  23706663.30744  23706668.94844
      6850.025        5337.680  
 127798943.134    99583618.0404   24319332.677 6  24319330.84943  24319335.48343
      6017.625        4689.048  
 124735450.764    97196475.1684   23736366.215 6  23736365.25043  23736370.19143
      7302.159        5689.973  
 11  5 30 12 40  5.0000000  0 16G26G28R 9R 8R10G15R 7G 8G27R18G 5R19
                                R 1G17G18G 9                        
 104497059.085    81426299.1484   19885130.066 8  19885129.76946  19885132.90946
      2688.423        2094.875  
 110755940.877    86303350.2694   21076156.378 8  21076155.56846  21076157.62946
      2684.308        2091.666  
 105770282.900    82265795.042    19807376.369 8  19807376.664 7  19807380.226 7
      1977.794        1538.282  
 107443242.395    83566987.328    20064267.538 8  20064267.541 8  20064267.819 7
      3368.714        2620.105  
 105936408.882    82395009.417    19873401.803 8  19873401.190 7  19873407.294 6
      5422.066        4217.169  
 110489985.150    86096110.5294   21025545.314 8  21025545.13246  21025548.00846
      5541.076        4317.719  
 115099817.067    89522103.153    21501614.814 7  21501613.662 7  21501613.409 6
        22.789          17.730  
 118330076.220    92205272.0044   22517464.087 5  22517464.75242  22517469.47842
      1010.539         787.415  
 117449545.227    91519146.4174   22349905.425 7  22349904.58745  22349908.79645
      5945.726        4633.034  
 117442017.365    91343807.329    22000846.801 6  22000845.423 6  22000850.406 6
      3089.384        2402.854  
 126623949.673    98668030.8514   24095740.742 7  24095740.67244  24095745.99344
       184.597         143.841  
 117622187.815    91483952.117    21988227.491 6  21988227.288 6  21988229.624 6
      6749.976        5249.984  
 119923395.136    93273779.170    22434151.477 7  22434151.586 6  22434154.638 5
      7124.113        5540.981  
 124545119.429    97048168.1404   23700146.113 6  23700146.15844  23700151.33044
      6849.468        5337.238  
 127768859.174    99560176.0104   24313608.165 7  24313605.98743  24313610.60943
      6015.982        4687.783  
 124698939.970    97168025.2144   23729417.255 6  23729417.25143  23729422.36343
      7302.050        5689.901  
 11  5 30 12 40 10.0000000  0 16G26G28R 9R 8R10G15R 7G 8G27R18G 5R19
                                R 1G17G18G 9                        
 104483622.539    81415829.1064   19882573.269 8  19882572.92546  19882576.05346
      2686.096        2093.063  
 110742524.183    86292895.7034   21073602.849 8  21073602.36046  21073604.46446
      2682.420        2090.207  
 105760396.697    82258105.774    19805525.186 8  19805525.164 8  19805528.686 7
      1976.538        1537.307  
 107426408.874    83553894.588    20061124.835 8  20061123.889 7  20061124.278 7
      3364.697        2616.992  
 105909301.871    82373926.192    19868316.588 8  19868315.728 7  19868321.881 6
      5420.560        4215.988  
 110462284.051    86074525.2584   21020273.982 8  21020273.74246  21020276.64146
      5539.450        4316.452  
 115099707.298    89522017.764    21501594.328 7  21501593.070 7  21501592.668 6
        21.247          16.540  
 118325025.051    92201336.0124   22516502.882 6  22516503.01142  22516508.15542
      1009.751         786.829  
 117419817.364    91495981.8574   22344247.931 7  22344247.47845  22344251.77545
      5945.346        4632.724  
 117426580.060    91331800.534    21997954.011 6  21997953.567 6  21997958.433 6
      3085.625        2399.925  
 126623025.931    98667311.0394   24095563.949 6  24095564.72744  24095570.27644
       184.676         143.903  
 117588444.184    91457707.089    21981920.656 6  21981919.549 6  21981921.074 6
      6747.489        5248.049  
 119887781.014    93246079.295    22427489.187 6  22427488.818 6  22427492.293 5
      7121.730        5539.123  
 124510872.732    97021482.4194   23693628.911 6  23693628.75544  23693634.26844
      6849.154        5336.983  
 127738783.845    99536740.6874   24307884.752 6  24307883.43643  24307887.06943
      6014.167        4686.349  
 124662429.059    97139575.1694   23722468.751 6  23722469.30843  23722474.81643
      7302.092        5689.947  
