     2.10           OBSERVATION DATA    M (MIXED)           RINEX VERSION / TYPE
Pinnacle 1.00                           30-MAY-11 20:31     PGM / RUN BY / DATE
build April 19, 2002                                        COMMENT
-Unknown-           -Unknown-                               OBSERVER / AGENCY
         Begin Pinnacle project                             COMMENT
VG_GPS                                                      COMMENT
                                                            COMMENT
                                                            COMMENT
May 30, 2011 8:29:02 pm                                     COMMENT
                                                            COMMENT
                                                            COMMENT
C:\data\VG_GPS\projekt\Pinnacle.dbd                         COMMENT
         End Pinnacle project                               COMMENT
                                                            COMMENT
1004                                                        MARKER NAME
1004                                                        MARKER NUMBER
8QG4AWP4FEO         TPS HIPER           3.3 Dec,22,2008 p6  REC # / TYPE / VERS
-Unknown-           TPSPG_A1                                ANT # / TYPE
  3913475.6706  1194998.4949  4877425.1973                  APPROX POSITION XYZ
        1.2950        0.0000        0.0000                  ANTENNA: DELTA H/E/N
     1     1                                                WAVELENGTH FACT L1/2
     7    L1    L2    C1    P1    P2    D1    D2            # / TYPES OF OBSERV
     5.000                                                  INTERVAL
  2011     5    30    15    23   10.0000000     GPS         TIME OF FIRST OBS
  2011     5    30    15    45   40.0000000     GPS         TIME OF LAST OBS
    15                                                      LEAP SECONDS
    16                                                      # OF SATELLITES
   R 1    18    18    18    18    18    18    18            PRN / # OF OBS
   R 2   271   271   271   271   271   271   271            PRN / # OF OBS
   R10   271   271   271   271   271   271   271            PRN / # OF OBS
   R11   271   271   271   271   271   271   271            PRN / # OF OBS
   R12   271   271   271   271   271   271   271            PRN / # OF OBS
   R20   271   271   271   271   271   271   271            PRN / # OF OBS
   R21   271   271   271   271   271   271   271            PRN / # OF OBS
   R22   166   166   166   166   166   166   166            PRN / # OF OBS
   G 4   271   271   271   271   271   271   271            PRN / # OF OBS
   G 9   271   271   271   271   271   271   271            PRN / # OF OBS
   G12   271   271   271   271   271   271   271            PRN / # OF OBS
   G14   271   271   271   271   271   271   271            PRN / # OF OBS
   G15   271   271   271   271   271   271   271            PRN / # OF OBS
   G17   271   271   271   271   271   271   271            PRN / # OF OBS
   G25   271   271   271   271   271   271   271            PRN / # OF OBS
   G27   271   271   271   271   271   271   271            PRN / # OF OBS
SE TPS 622ecdb1                                             COMMENT
                                                            END OF HEADER
 11  5 30 15 23 10.0000000  0 15G27G 9R10R11G15R20G17G12R 1R 2R21G 4
                                G25R12G14                           
 108847216.787    84816030.6234   20712936.241 8  20712935.93546  20712940.14246
      2589.019        2017.415  
 103182565.127    80402020.1454   19634989.374 8  19634988.97447  19634992.64247
      3328.774        2593.850  
 111610375.684    86808088.763    20937824.033 7  20937823.446 7  20937830.753 6
       684.481         532.377  
 103087315.052    80179040.354    19291384.363 7  19291384.389 7  19291388.160 6
      4067.917        3163.937  
 120429587.013    93841252.2834   22916992.296 7  22916992.21445  22916996.87345
       -63.795         -49.711  
 107702533.760    83768658.573    20140916.352 7  20140916.062 6  20140920.064 7
      1999.533        1555.193  
 117284507.063    91390546.4504   22318500.269 7  22318500.42645  22318503.50745
      1232.501         960.398  
 110748395.967    86297473.3294   21074715.067 8  21074715.40446  21074718.25446
      5309.350        4137.159  
 125655238.731    97731865.480    23506415.060 6  23506415.248 6  23506421.385 5
      -436.168        -339.232  
 119360672.712    92836098.037    22368137.520 6  22368137.311 6  22368142.706 7
      2280.254        1773.532  
 108570014.715    84443369.784    20288896.195 8  20288895.426 8  20288897.529 7
      6267.288        4874.555  
 126642363.957    98682382.0794   24099237.924 6  24099237.71243  24099245.13543
      6086.748        4742.919  
 126959908.385    98929826.7654   24159661.187 7  24159660.92344  24159668.60644
      6607.986        5149.088  
 119276340.011    92770510.033    22328775.861 7  22328775.661 6  22328781.588 6
      6902.216        5368.393  
 124729745.406    97192030.9154   23735277.912 6  23735277.47743  23735281.72543
      6249.123        4869.458  
 11  5 30 15 23 15.0000000  0 15G27G 9R10R11G15R20G17G12R 1R 2R21G 4
                                G25R12G14                           
 108834276.948    84805947.6334   20710473.952 8  20710473.52046  20710477.77646
      2586.812        2015.692  
 103165929.219    80389057.1004   19631823.515 8  19631823.23647  19631826.90647
      3325.530        2591.317  
 111606957.369    86805430.067    20937183.229 7  20937182.331 7  20937189.229 6
       682.605         530.920  
 103066982.002    80163225.759    19287579.607 7  19287579.348 7  19287583.218 6
      4065.102        3161.749  
 120429909.655    93841503.6784   22917053.659 7  22917053.61845  22917058.33045
       -65.214         -50.821  
 107692547.030    83760891.114    20139048.560 7  20139048.478 6  20139052.524 7
      1995.087        1551.726  
 117278350.586    91385749.1924   22317329.209 7  22317328.92445  22317332.08245
      1229.963         958.417  
 110721854.238    86276791.4674   21069664.805 8  21069664.79846  21069667.48946
      5307.414        4135.654  
 125657423.284    97733564.558    23506824.186 6  23506823.984 6  23506830.341 5
      -437.845        -340.556  
 119349282.040    92827238.619    22366002.349 6  22366001.676 6  22366007.890 7
      2275.936        1770.171  
 108538687.433    84419004.124    20283041.662 8  20283041.187 8  20283043.348 7
      6263.607        4871.695  
 126611933.493    98658670.0424   24093446.912 6  24093446.99443  24093454.53043
      6085.234        4741.755  
 126926870.648    98904083.1004   24153374.745 7  24153374.20044  24153381.53644
      6607.248        5148.509  
 119241829.628    92743668.632    22322315.820 6  22322314.767 6  22322321.565 6
      6901.761        5368.033  
 124698505.334    97167688.0224   23729333.008 6  23729332.00243  23729336.78943
      6246.596        4867.441  
 11  5 30 15 23 20.0000000  0 15G27G 9R10R11G15R20G17G12R 1R 2R21G 4
                                G25R12G14                           
 108821347.636    84795872.8434   20708013.641 8  20708013.16046  20708017.35346
      2584.785        2014.122  
 103149309.070    80376106.3314   19628660.880 8  19628660.55247  19628664.20247
      3322.404        2588.876  
 111603549.302    86802779.341    20936543.112 7  20936542.974 7  20936550.035 6
       680.715         529.447  
 103046662.263    80147421.518    19283777.351 7  19283776.808 7  19283780.615 6
      4062.510        3159.726  
 120430239.289    93841760.5224   22917116.223 7  22917116.32945  22917121.03445
       -66.577         -51.874  
 107682582.654    83753141.040    20137185.457 7  20137185.144 6  20137189.221 7
      1990.474        1548.146  
 117272207.059    91380962.0204   22316160.260 7  22316159.79645  22316163.06445
      1227.469         956.474  
 110695322.607    86256117.4744   21064616.517 8  21064616.12246  21064618.70046
      5305.393        4134.067  
 125659614.628    97735268.916    23507234.205 6  23507233.547 6  23507240.405 5
      -438.700        -341.210  
 119337912.655    92818395.770    22363871.874 6  22363871.541 6  22363877.037 7
      2271.778        1766.921  
 108507378.149    84394652.467    20277190.457 8  20277190.155 8  20277192.222 7
      6260.104        4868.966  
 126581510.823    98634964.0754   24087657.408 6  24087657.59743  24087665.05343
      6083.624        4740.444  
 126893836.631    98878342.3294   24147089.059 7  24147088.16144  24147095.43244
      6606.587        5147.976  
 119207322.061    92716829.440    22315855.060 6  22315854.578 6  22315861.296 6
      6901.213        5367.598  
 124667275.177    97143352.8414   23723389.889 6  23723389.31543  23723393.78743
      6245.091        4866.277  
 11  5 30 15 23 25.0000000  0 15G27G 9R10R11G15R20G17G12R 1R 2R21G 4
                                G25R12G14                           
 108808428.799    84785806.2134   20705555.282 8  20705554.87346  20705559.03046
      2582.705        2012.506  
 103132704.639    80363167.8154   19625501.241 8  19625500.83947  19625504.46747
      3319.400        2586.556  
 111600151.501    86800136.592    20935905.453 7  20935905.562 7  20935912.875 6
       678.482         527.714  
 103026355.933    80131627.704    19279976.911 7  19279976.703 7  19279980.670 6
      4059.872        3157.686  
 120430575.805    93842022.7354   22917180.170 7  22917180.38745  22917185.01545
       -67.956         -52.947  
 107672640.529    83745408.272    20135326.953 7  20135325.806 6  20135330.056 7
      1986.010        1544.673  
 117266076.400    91376184.8814   22314993.179 7  22314993.11445  22314996.46045
      1224.930         954.483  
 110668801.032    86235451.3124   21059569.085 8  21059569.18946  21059571.71246
      5303.433        4132.545  
 125661812.823    97736978.588    23507645.549 6  23507645.211 6  23507651.747 5
      -440.044        -342.252  
 119326564.525    92809569.447    22361745.052 6  22361745.207 6  22361750.644 7
      2267.445        1763.570  
 108476086.838    84370314.788    20271343.176 8  20271342.795 8  20271344.739 7
      6256.484        4866.157  
 126551095.863    98611264.1404   24081870.052 6  24081869.78443  24081876.99143
      6082.093        4739.285  
 126860806.240    98852604.3854   24140802.938 7  24140802.46244  24140809.87444
      6605.817        5147.405  
 119172817.375    92689992.474    22309396.087 7  22309395.674 6  22309402.012 7
      6900.554        5367.100  
 124636054.891    97119025.3454   23717449.298 6  23717448.34043  23717452.80743
      6243.108        4864.773  
 11  5 30 15 23 30.0000000  0 15G27G 9R10R11G15R20G17G12R 1R 2R21G 4
                                G25R12G14                           
 108795520.217    84775747.5774   20703098.879 8  20703098.44946  20703102.60446
      2580.673        2010.911  
 103116115.760    80350241.4134   19622344.328 8  19622344.09547  19622347.70047
      3316.196        2584.048  
 111596763.644    86797501.585    20935270.265 7  20935269.841 7  20935277.321 6
       676.617         526.262  
 103006062.758    80115844.123    19276179.116 7  19276179.072 7  19276182.713 6
      4057.372        3155.741  
 120430919.032    93842290.1724   22917245.495 7  22917245.61545  22917250.15145
       -69.238         -53.953  
 107662720.399    83737692.617    20133471.354 7  20133470.661 6  20133474.957 7
      1981.906        1541.483  
 117259958.441    91371417.6324   22313828.936 7  22313828.89545  22313832.13645
      1222.362         952.494  
 110642289.369    86214792.8764   21054523.947 8  21054524.16146  21054526.66746
      5301.315        4130.889  
 125664017.411    97738693.252    23508058.105 6  23508057.735 6  23508064.208 5
      -441.522        -343.392  
 119315237.564    92800759.594    22359623.227 6  22359622.425 6  22359628.030 7
      2263.435        1760.452  
 108444813.234    84345990.880    20265499.477 8  20265498.730 8  20265500.575 7
      6252.856        4863.332  
 126520688.392    98587570.0184   24076083.547 6  24076083.36643  24076090.66743
      6080.647        4738.153  
 126827779.343    98826869.1554   24134518.011 7  24134517.31744  24134524.97944
      6605.042        5146.806  
 119138315.307    92663157.543    22302938.572 7  22302937.333 6  22302943.221 6
      6900.260        5366.874  
 124604844.318    97094705.4324   23711510.471 6  23711509.26143  23711513.46843
      6241.118        4863.211  
 11  5 30 15 23 35.0000000  0 15G27G 9R10R11G15R20G17G12R 1R 2R21G 4
                                G25R12G14                           
 108782621.811    84765696.8714   20700644.318 8  20700643.94046  20700648.19746
      2578.583        2009.292  
 103099542.322    80337327.0454   19619190.845 8  19619190.24747  19619193.87047
      3313.012        2581.570  
 111593385.669    86794874.264    20934636.734 7  20934636.294 7  20934643.428 6
       674.496         524.612  
 102985782.667    80100070.720    19272384.272 7  19272383.985 7  19272387.543 6
      4054.708        3153.659  
 120431268.845    93842562.7464   22917312.388 7  22917312.11045  22917316.68145
       -70.718         -55.103  
 107652822.273    83729994.075    20131619.933 6  20131619.649 6  20131624.011 7
      1977.385        1537.969  
 117253853.023    91366660.1634   22312667.152 7  22312666.95845  22312670.40145
      1219.976         950.635  
 110615787.432    86194142.0244   21049480.966 8  21049480.91746  21049483.51846
      5299.293        4129.318  
 125666228.471    97740412.939    23508471.328 6  23508471.723 6  23508478.046 5
      -443.217        -344.706  
 119303931.677    92791966.126    22357504.778 7  22357504.272 6  22357509.702 7
      2259.084        1757.064  
 108413557.304    84321680.719    20259658.137 8  20259657.653 8  20259659.705 7
      6249.411        4860.649  
 126490288.373    98563881.7094   24070298.811 6  24070298.73943  24070305.07343
      6079.055        4736.902  
 126794755.832    98801136.5744   24128233.472 7  24128233.12544  24128241.27344
      6604.313        5146.187  
 119103815.803    92636324.601    22296479.831 7  22296478.893 6  22296485.003 6
      6899.372        5366.173  
 124573643.392    97070393.0164   23705573.275 6  23705572.12843  23705576.06643
      6238.958        4861.535  
 11  5 30 15 23 40.0000000  0 15G27G 9R10R11G15R20G17G12R 1R 2R21G 4
                                G25R12G14                           
 108769733.820    84755654.2804   20698191.828 8  20698191.42546  20698195.60046
      2576.465        2007.636  
 103082984.549    80324424.8864   19616039.708 8  19616039.41347  19616042.95247
      3309.851        2579.102  
 111590017.775    86792254.788    20934004.480 7  20934004.080 7  20934011.702 6
       672.522         523.073  
 102965515.854    80084307.641    19268591.856 7  19268591.371 7  19268594.902 6
      4051.973        3151.535  
 120431625.442    93842840.6004   22917380.281 7  22917380.03345  22917384.52645
       -71.893         -56.025  
 107642946.355    83722312.804    20129772.482 7  20129772.728 6  20129777.120 7
      1972.994        1534.558  
 117247760.448    91361912.6954   22311507.736 7  22311507.59845  22311510.95045
      1217.255         948.515  
 110589295.461    86173498.9294   21044439.929 8  21044439.68946  21044442.16546
      5297.438        4127.873  
 125668446.015    97742137.681    23508887.800 6  23508886.836 6  23508892.581 5
      -444.221        -345.506  
 119292646.924    92783189.095    22355390.820 7  22355389.864 6  22355394.677 7
      2254.813        1753.740  
 108382319.231    84297384.451    20253820.377 8  20253820.071 8  20253822.043 7
      6245.782        4857.825  
 126459896.055    98540199.3874   24064515.252 6  24064514.84843  24064521.54243
      6077.530        4735.745  
 126761735.905    98775406.7764   24121950.227 7  24121949.58744  24121957.78344
      6603.661        5145.718  
 119069319.071    92609493.824    22290020.813 7  22290021.045 6  22290027.161 7
      6898.870        5365.791  
 124542452.303    97046088.2774   23699637.240 6  23699636.52343  23699640.66443
      6237.062        4860.068  
 11  5 30 15 23 45.0000000  0 15G27G 9R10R11G15R20G17G12R 1R 2R21G 4
                                G25R12G14                           
 108756856.193    84745619.7614   20695741.257 8  20695740.90946  20695745.09246
      2574.525        2006.121  
 103066442.429    80311534.9224   19612892.060 8  19612891.54447  19612895.13247
      3306.762        2576.700  
 111586659.941    86789643.127    20933374.552 7  20933374.457 7  20933381.927 6
       670.367         521.395  
 102945262.288    80068554.868    19264801.551 7  19264801.199 7  19264804.626 6
      4049.344        3149.486  
 120431988.799    93843123.7224   22917449.575 7  22917449.15345  22917453.93545
       -73.471         -57.255  
 107633092.594    83714648.767    20127930.995 7  20127930.128 6  20127934.380 7
      1968.476        1531.039  
 117241680.617    91357175.1604   22310350.565 7  22310350.78745  22310353.98945
      1214.782         946.574  
 110562813.462    86152863.6094   21039400.328 8  21039400.34846  21039402.81946
      5295.424        4126.294  
 125670670.288    97743867.661    23509303.766 6  23509303.424 6  23509308.188 5
      -445.641        -346.634  
 119281383.364    92774428.543    22353279.477 7  22353279.192 6  22353283.917 7
      2250.457        1750.352  
 108351099.047    84273102.089    20247986.903 8  20247985.909 8  20247987.759 7
      6242.228        4855.062  
 126429511.413    98516523.0604   24058733.660 6  24058733.47843  24058739.58343
      6076.191        4734.678  
 126728719.613    98749679.8094   24115667.131 7  24115666.89744  24115675.25544
      6602.772        5144.983  
 119034825.159    92582665.226    22283563.751 7  22283563.537 6  22283569.726 6
      6898.713        5365.658  
 124511271.043    97021791.1954   23693703.531 6  23693703.00143  23693707.26443
      6235.583        4858.873  
 11  5 30 15 23 50.0000000  0 15G27G 9R10R11G15R20G17G12R 1R 2R21G 4
                                G25R12G14                           
 108743988.763    84735593.1944   20693292.912 8  20693292.33246  20693296.48146
      2572.427        2004.490  
 103049915.762    80298656.9944   19609747.147 9  19609746.65447  19609750.19047
      3303.778        2574.374  
 111583311.923    86787039.109    20932746.650 7  20932746.526 7  20932753.836 6
       668.488         519.924  
 102925021.741    80052812.220    19261013.988 7  19261013.559 7  19261017.065 6
      4046.844        3147.547  
 120432358.673    93843411.9274   22917519.758 7  22917519.48345  22917524.36045
       -74.530         -58.065  
 107623260.726    83707001.758    20126091.484 7  20126091.479 6  20126095.649 7
      1964.173        1527.686  
 117235613.350    91352447.4144   22309196.073 7  22309196.26945  22309199.41145
      1212.265         944.629  
 110536341.246    86132235.9104   21034362.891 8  21034362.83746  21034365.41146
      5293.487        4124.802  
 125672900.809    97745602.505    23509720.732 6  23509720.351 6  23509725.585 5
      -446.722        -347.447  
 119270140.848    92765684.359    22351173.034 7  22351172.475 6  22351177.102 7
      2246.349        1747.160  
 108319896.492    84248833.441    20242155.532 8  20242154.774 8  20242156.662 7
      6238.811        4852.414  
 126399134.163    98492852.5114   24052952.344 6  24052952.75343  24052958.96843
      6074.829        4733.627  
 126695706.678    98723955.4704   24109385.748 7  24109384.74144  24109392.94244
      6602.182        5144.567  
 119000333.823    92555838.638    22277106.619 7  22277106.017 6  22277112.328 6
      6898.152        5365.234  
 124480099.467    96997501.6634   23687771.807 6  23687771.23943  23687775.20943
      6233.464        4857.250  
 11  5 30 15 23 55.0000000  0 15G27G 9R10R11G15R20G17G12R 1R 2R21G 4
                                G25R12G14                           
 108731132.091    84725575.0084   20690846.287 8  20690845.77246  20690849.93946
      2570.150        2002.716  
 103033405.137    80285791.5734   19606605.157 8  19606604.76847  19606608.32947
      3300.379        2571.722  
 111579974.408    86784443.247    20932120.300 7  20932119.981 7  20932127.580 6
       666.569         518.449  
 102904794.956    80037080.277    19257228.560 7  19257228.380 7  19257231.900 6
      4043.809        3145.190  
 120432735.714    93843705.7104   22917590.935 7  22917591.05145  22917596.15545
       -76.163         -59.335  
 107613451.406    83699372.278    20124256.898 7  20124257.285 6  20124261.373 7
      1959.555        1524.102  
 117229559.252    91347729.9284   22308044.349 7  22308044.12545  22308047.39945
      1209.537         942.517  
 110509879.385    86111616.2804   21029327.429 8  21029327.25046  21029329.89646
      5291.297        4123.086  
 125675138.293    97747342.756    23510140.242 6  23510138.710 6  23510143.975 5
      -448.449        -348.775  
 119258919.832    92756956.885    22349069.227 7  22349069.250 6  22349074.289 7
      2241.980        1743.776  
 108288712.347    84224579.113    20236327.862 8  20236327.174 8  20236329.230 7
      6234.994        4849.437  
 126368765.072    98469188.2784   24047173.008 6  24047173.57543  24047179.95143
      6072.990        4732.177  
 126662697.746    98698234.2584   24103103.707 7  24103103.46144  24103111.55044
      6601.303        5143.873  
 118965845.670    92529014.523    22270649.847 6  22270649.461 6  22270655.518 6
      6897.270        5364.546  
 124448938.157    96973220.1164   23681841.767 6  23681841.60743  23681845.38943
      6231.345        4855.588  
 11  5 30 15 24  0.0000000  0 15G27G 9R10R11G15R20G17G12R 1R 2R21G 4
                                G25R12G14                           
 108718286.099    84715565.1414   20688401.684 8  20688401.32646  20688405.40446
      2568.145        2001.160  
 103016910.480    80272938.5934   19603466.250 8  19603465.96547  19603469.49147
      3297.227        2569.271  
 111576647.253    86781855.460    20931496.416 7  20931496.239 7  20931503.154 6
       664.422         516.776  
 102884581.767    80021358.908    19253446.296 7  19253445.623 7  19253449.324 6
      4041.321        3143.248  
 120433119.787    93844004.9774   22917664.433 7  22917664.38745  22917669.11145
       -77.442         -60.338  
 107603664.404    83691760.163    20122427.400 7  20122427.140 6  20122431.142 7
      1955.245        1520.743  
 117223518.183    91343022.6054   22306894.403 7  22306894.51545  22306897.75445
      1207.008         940.537  
 110483427.828    86091004.6804   21024293.701 8  21024293.77546  21024296.37346
      5289.381        4121.603  
 125677382.580    97749088.300    23510559.841 6  23510558.567 6  23510564.130 5
      -449.569        -349.664  
 119247720.252    92748246.092    22346970.445 6  22346969.960 6  22346975.557 7
      2237.844        1740.551  
 108257546.468    84200338.992    20230504.108 8  20230503.124 8  20230505.057 7
      6231.284        4846.545  
 126338404.047    98445530.3674   24041395.951 6  24041395.76743  24041402.52743
      6071.497        4731.035  
 126629692.710    98672516.0664   24096823.372 7  24096822.92144  24096831.03744
      6600.554        5143.298  
 118931360.651    92502192.852    22264195.180 6  22264194.391 6  22264199.992 6
      6896.685        5364.089  
 124417787.011    96948946.5044   23675913.690 6  23675913.39343  23675917.74043
      6229.315        4854.017  
 11  5 30 15 24  5.0000000  0 15G27G 9R10R11G15R20G17G12R 1R 2R21G 4
                                G25R12G14                           
 108705450.913    84705563.6994   20685959.411 8  20685958.84546  20685963.02046
      2565.982        1999.465  
 103000431.899    80260098.1414   19600330.456 8  19600330.19647  19600333.71747
      3294.164        2566.874  
 111573330.669    86779275.888    20930874.632 7  20930874.363 7  20930881.476 6
       662.315         515.153  
 102864382.335    80005648.238    19249665.539 7  19249665.574 7  19249669.476 6
      4038.643        3141.154  
 120433510.999    93844309.8074   22917739.046 7  22917739.01545  22917743.60045
       -78.919         -61.497  
 107593899.920    83684165.567    20120601.208 7  20120601.157 6  20120604.963 7
      1950.607        1517.130  
 117217490.264    91338325.5174   22305747.350 7  22305747.55445  22305750.77245
      1204.290         938.413  
 110456986.677    86070401.1904   21019262.051 8  21019262.07746  21019264.79446
      5287.234        4119.905  
 125679633.815    97750839.238    23510980.079 6  23510979.380 6  23510985.720 5
      -450.749        -350.561  
 119236542.349    92739552.152    22344875.805 6  22344874.943 6  22344880.463 7
      2233.541        1737.204  
 108226398.973    84176113.172    20224683.512 8  20224682.657 8  20224684.375 7
      6227.639        4843.719  
 126308051.170    98421878.7934   24035620.402 6  24035620.03643  24035626.89443
      6069.787        4729.704  
 126596691.724    98646801.0354   24090543.960 7  24090543.09544  24090551.05844
      6599.733        5142.643  
 118896878.919    92475373.721    22257739.885 7  22257739.548 6  22257745.505 6
      6896.107        5363.633  
 124386646.177    96924680.9264   23669988.210 6  23669987.67743  23669992.21243
      6227.146        4852.306  
 11  5 30 15 24 10.0000000  0 15G27G 9R10R11G15R20G17G12R 1R 2R21G 4
                                G25R12G14                           
 108692626.059    84695570.3034   20683518.818 8  20683518.34546  20683522.51346
      2563.960        1997.904  
 102983968.945    80247269.8644   19597197.888 8  19597197.39847  19597200.97346
      3291.072        2564.482  
 111570024.100    86776704.115    20930253.912 7  20930253.713 7  20930261.384 6
       660.258         513.540  
 102844196.138    79989947.864    19245888.065 7  19245887.931 7  19245891.753 6
      4035.942        3139.064  
 120433908.888    93844619.8384   22917814.444 7  22917814.65345  22917819.21145
       -80.246         -62.520  
 107584157.476    83676588.114    20118779.480 7  20118779.198 6  20118783.126 7
      1946.272        1513.774  
 117211474.954    91333638.2594   22304603.195 7  22304603.04545  22304606.16945
      1201.904         936.555  
 110430555.443    86049805.4254   21014232.616 8  21014232.28546  21014235.11146
      5285.376        4118.481  
 125681891.512    97752595.204    23511401.459 6  23511401.668 6  23511408.237 5
      -452.094        -351.624  
 119225385.548    92730874.634    22342785.443 6  22342784.672 6  22342789.645 7
      2229.239        1733.844  
 108195269.431    84151901.314    20218865.705 8  20218865.508 8  20218867.087 7
      6224.184        4841.043  
 126277705.868    98398233.1264   24029845.899 6  24029845.38043  24029852.21543
      6068.467        4728.658  
 126563694.294    98621088.7764   24084264.464 7  24084263.70944  24084271.91444
      6599.332        5142.349  
 118862399.934    92448556.742    22251284.998 7  22251284.786 6  22251291.187 6
      6895.441        5363.121  
 124355515.199    96900423.0224   23664064.258 6  23664063.60343  23664068.48443
      6225.105        4850.736  
 11  5 30 15 24 15.0000000  0 15G27G 9R10R11G15R20G17G12R 1R 2R21G 4
                                G25R12G14                           
 108679811.436    84685584.8814   20681079.980 8  20681079.78846  20681083.96446
      2561.799        1996.206  
 102967521.490    80234453.6664   19594067.802 8  19594067.51847  19594071.13247
      3287.899        2562.000  
 111566727.488    86774140.071    20929636.425 7  20929635.648 7  20929642.542 6
       658.274         511.993  
 102824023.155    79974257.762    19242113.434 7  19242112.837 7  19242116.749 6
      4033.286        3136.996  
 120434313.308    93844934.9594   22917891.162 7  22917891.44545  22917896.28345
       -81.570         -63.566  
 107574436.907    83669027.666    20116961.090 7  20116961.154 6  20116965.379 7
      1941.925        1510.390  
 117205472.216    91328960.8014   22303461.368 7  22303460.67645  22303463.87245
      1199.222         934.458  
 110404134.089    86029217.3594   21009204.536 8  21009204.61046  21009207.19946
      5283.238        4116.813  
 125684155.457    97754356.022    23511825.227 6  23511825.131 6  23511832.273 5
      -453.366        -352.612  
 119214249.665    92722213.410    22340699.094 7  22340698.560 6  22340703.108 7
      2224.999        1730.543  
 108164157.728    84127703.331    20213052.045 8  20213051.507 8  20213053.094 7
      6220.503        4838.166  
 126247368.226    98374593.4264   24024072.176 6  24024072.30443  24024078.87643
      6066.460        4727.089  
 126530700.312    98595379.2144   24077985.731 6  24077985.04944  24077993.15744
      6598.611        5141.749  
 118827923.624    92421741.844    22244831.300 7  22244830.867 6  22244837.254 6
      6895.075        5362.830  
 124324393.969    96876172.7294   23658142.050 6  23658141.33743  23658146.46043
      6223.297        4849.315  
 11  5 30 15 24 20.0000000  0 15G27G 9R10R11G15R20G17G12R 1R 2R21G 4
                                G25R12G14                           
 110242429.984    85903209.7224   20978436.482 8  20978436.22646  20978440.39346
      2559.616        1994.510  
 104526513.171    81449252.3764   19890734.269 8  19890733.81447  19890737.33547
      3284.664        2559.479  
 113161504.280    88014522.012    21228812.293 7  21228811.588 7  21228818.558 6
       656.105         510.297  
 104405867.726    81204581.319    19538133.294 7  19538133.278 7  19538137.481 6
      4030.459        3134.811  
 122010144.560    95072855.4004   23217761.954 7  23217762.10045  23217767.07045
       -83.023         -64.701  
 109167865.650    84908361.129    20414941.414 7  20414940.443 6  20414944.599 7
      1937.313        1506.803  
 118774903.583    92551894.3254   22602113.755 7  22602113.58745  22602116.71645
      1196.577         932.402  
 111953148.295    87236241.4174   21303972.224 8  21303972.15546  21303974.83146
      5281.039        4115.105  
 127288988.126    99002559.186    23812043.250 6  23812042.302 6  23812049.187 5
      -454.808        -353.710  
 120802887.316    93957820.471    22638407.857 6  22638407.967 6  22638413.212 7
      2220.741        1727.240  
 109737320.416    85351274.315    20507034.843 8  20507034.518 8  20507036.186 7
      6216.876        4835.346  
 127792464.699    99578564.7124   24318094.500 6  24318094.48043  24318101.26843
      6065.107        4726.067  
 128073136.768    99797277.7774   24371501.254 6  24371500.89744  24371508.81944
      6597.656        5141.028  
 120394894.770    93640497.188    22538171.489 6  22538171.174 6  22538177.652 6
      6894.342        5362.264  
 125868709.086    98079535.1674   23952015.037 6  23952014.74743  23952019.67543
      6221.383        4847.846  
 11  5 30 15 24 25.0000000  0 15G27G 9R10R11G15R20G17G12R 1R 2R21G 4
                                G25R12G14                           
 110229637.117    85893241.2504   20976002.431 8  20976001.85546  20976005.97546
      2557.462        1992.837  
 104510097.995    81436461.3314   19887610.610 8  19887610.09547  19887613.66746
      3281.509        2557.018  
 113158228.676    88011974.313    21228197.495 7  21228197.087 7  21228204.174 6
       654.088         508.740  
 104385722.344    81188912.691    19534363.335 7  19534363.478 7  19534367.561 6
      4027.672        3132.626  
 122010563.296    95073181.6734   23217841.668 7  23217841.89545  23217846.76145
       -84.424         -65.778  
 109158190.173    84900835.757    20413130.939 6  20413131.065 6  20413135.307 7
      1933.028        1503.473  
 118768927.141    92547237.3594   22600976.682 7  22600976.34845  22600979.57045
      1194.024         930.394  
 111926747.917    87215669.6974   21298948.557 8  21298948.36146  21298950.95146
      5279.064        4113.554  
 127291265.855    99004330.744    23812469.637 6  23812468.168 6  23812475.145 5
      -456.258        -354.860  
 120791794.719    93949192.898    22636329.502 6  22636328.992 6  22636333.817 6
      2216.188        1723.690  
 109706245.592    85327105.011    20501227.631 8  20501227.318 8  20501228.991 7
      6213.225        4832.504  
 127762143.627    99554937.9234   24312325.285 6  24312324.76443  24312331.15643
      6063.433        4724.785  
 128040150.984    99771574.5884   24365224.151 6  24365223.67644  24365231.62944
      6596.932        5140.462  
 120360425.120    93613687.475    22531719.044 7  22531718.234 6  22531724.589 6
      6893.597        5361.667  
 125837608.725    98055301.1324   23946096.292 6  23946096.29643  23946101.56943
      6219.137        4846.088  
 11  5 30 15 24 30.0000000  0 15G27G 9R10R11G15R20G17G12R 1R 2R21G 4
                                G25R12G14                           
 110216855.066    85883281.2124   20973569.797 8  20973569.48446  20973573.58146
      2555.443        1991.259  
 104493698.915    81423682.8264   19884489.806 8  19884489.44847  19884493.01447
      3278.210        2554.445  
 113154963.669    88009434.852    21227585.212 7  21227584.674 7  21227591.722 6
       652.054         507.163  
 104365590.722    81173254.761    19530596.299 7  19530596.171 7  19530600.109 6
      4025.164        3130.685  
 122010989.069    95073513.4394   23217923.161 7  23217923.11245  23217927.84445
       -85.757         -66.830  
 109148537.294    84893327.959    20411326.278 6  20411325.880 6  20411330.058 7
      1928.345        1499.824  
 118762963.815    92542590.6044   22599841.906 7  22599841.62245  22599844.64145
      1191.481         928.420  
 111900357.931    87195106.0744   21293926.695 8  21293926.28446  21293929.20046
      5277.130        4112.050  
 127293550.473    99006107.648    23812896.225 6  23812895.959 6  23812902.168 5
      -457.506        -355.827  
 120780723.607    93940582.042    22634255.757 6  22634254.414 6  22634258.711 7
      2212.086        1720.515  
 109675189.237    85302950.078    20495424.327 8  20495423.593 8  20495425.345 7
      6209.511        4829.623  
 127731830.797    99531317.5754   24306556.567 6  24306556.65843  24306562.66243
      6061.845        4723.520  
 128007169.276    99745874.5814   24358948.383 7  24358947.46644  24358955.72244
      6595.981        5139.740  
 120325958.742    93586880.295    22525267.298 7  22525266.460 6  22525272.207 6
      6892.935        5361.169  
 125806518.668    98031075.1264   23940180.237 6  23940179.94943  23940185.14843
      6217.120        4844.517  
 11  5 30 15 24 35.0000000  0 15G27G 9R10R11G15R20G17G12R 1R 2R21G 4
                                G25R12G14                           
 110204083.621    85873329.4324   20971139.414 8  20971139.19746  20971143.30346
      2553.181        1989.493  
 104477315.727    81410916.7054   19881372.014 8  19881371.85846  19881375.36146
      3274.993        2551.942  
 113151708.799    88006903.277    21226975.108 7  21226974.036 7  21226981.177 6
       649.915         505.491  
 104345472.733    81157607.435    19526831.788 7  19526831.419 7  19526835.219 6
      4022.160        3128.331  
 122011421.688    95073850.5364   23218005.413 7  23218005.38845  23218010.32145
       -87.156         -67.910  
 109138906.748    84885837.535    20409524.662 6  20409524.964 6  20409529.162 7
      1923.917        1496.376  
 118757013.375    92537953.9014   22598709.498 7  22598709.19145  22598712.40245
      1188.722         926.273  
 111873978.180    87174550.4304   21288906.643 8  21288906.53546  21288909.26046
      5274.861        4110.292  
 127295841.637    99007889.653    23813325.722 6  23813324.860 6  23813330.915 5
      -458.942        -356.943  
 120769673.789    93931987.725    22632183.634 6  22632183.189 6  22632188.582 7
      2207.883        1717.239  
 109644151.236    85278809.414    20489624.008 8  20489623.587 8  20489625.392 7
      6205.667        4826.625  
 127701525.957    99507703.4324   24300789.221 6  24300789.41543  24300796.07243
      6060.085        4722.113  
 127974191.413    99720177.5604   24352673.040 7  24352672.21144  24352679.84844
      6595.163        5139.085  
 120291495.477    93560075.531    22518815.388 7  22518815.077 7  22518820.390 6
      6892.348        5360.707  
 125775438.877    98006857.1254   23934266.239 6  23934266.18843  23934270.48543
      6215.093        4842.942  
 11  5 30 15 24 40.0000000  0 14G27G 9R10R11G15R20G17G12R 2R21G 4G25
                                R12G14                              
 110191323.472    85863386.4564   20968711.257 8  20968711.02546  20968715.14046
      2550.848        1987.682  
 104460949.126    81398163.5084   19878257.886 8  19878257.32447  19878260.94047
      3271.701        2549.384  
 113148464.940    88004380.267    21226365.727 7  21226365.455 7  21226372.539 6
       647.872         503.910  
 104325368.870    81141971.098    19523069.173 7  19523069.405 7  19523073.152 6
      4019.427        3126.221  
 122011861.840    95074193.4984   23218089.226 7  23218089.27045  23218093.93845
       -88.885         -69.269  
 109129299.128    84878364.937    20407729.381 7  20407728.290 6  20407732.502 7
      1919.263        1492.756  
 118751076.473    92533327.7244   22597579.161 7  22597579.40445  22597582.73945
      1186.040         924.180  
 111847609.302    87154003.2604   21283888.888 8  21283888.69046  21283891.30946
      5272.793        4108.663  
 120758646.039    93923410.577    22630118.096 6  22630117.224 6  22630122.374 7
      2203.292        1713.665  
 109613132.130    85254683.451    20483827.997 8  20483827.094 8  20483828.728 7
      6201.995        4823.777  
 127671229.911    99484096.1454   24295024.369 6  24295024.18143  24295031.02843
      6058.418        4720.841  
 127941218.065    99694484.0584   24346398.379 7  24346397.82344  24346405.28744
      6594.187        5138.337  
 120257035.960    93533273.689    22512364.095 7  22512363.978 7  22512369.550 6
      6891.640        5360.161  
 125744369.925    97982647.5554   23928353.729 6  23928353.80643  23928358.74243
      6212.730        4841.095  
 11  5 30 15 24 45.0000000  0 14G27G 9R10R11G15R20G17G12R 2R21G 4G25
                                R12G14                              
 110178574.057    85853451.8474   20966285.360 8  20966284.82346  20966289.02746
      2548.799        1986.076  
 104444598.517    81385422.7714   19875146.342 8  19875145.89947  19875149.48347
      3268.439        2546.831  
 113145231.460    88001865.347    21225759.516 7  21225759.081 7  21225765.972 6
       645.565         502.104  
 104305278.801    81126345.490    19519309.903 7  19519309.866 7  19519313.442 6
      4016.645        3124.050  
 122012308.935    95074541.8724   23218174.476 7  23218174.45445  23218179.03945
       -90.085         -70.197  
 109119713.835    84870909.710    20405936.907 7  20405935.937 6  20405939.869 7
      1914.713        1489.220  
 118745152.579    92528711.7104   22596452.011 7  22596452.07645  22596455.43345
      1183.335         922.095  
 111821250.787    87133464.1604   21278873.048 8  21278872.80346  21278875.41246
      5270.680        4107.026  
 120747639.673    93914850.053    22628055.236 6  22628054.152 6  22628059.559 7
      2199.232        1710.509  
 109582131.504    85230571.860    20478034.578 8  20478033.719 8  20478035.421 7
      6198.167        4820.787  
 127640941.973    99460495.1834   24289260.937 6  24289261.12243  24289267.23243
      6056.730        4719.530  
 127908248.736    99668793.6864   24340124.435 7  24340123.98944  24340131.22344
      6593.483        5137.776  
 120222579.718    93506474.389    22505913.526 7  22505913.375 6  22505919.794 6
      6890.692        5359.421  
 125713311.319    97958446.0544   23922443.794 6  23922443.52743  23922448.44143
      6210.750        4839.548  
 11  5 30 15 24 50.0000000  0 14G27G 9R10R11G15R20G17G12R 2R21G 4G25
                                R12G14                              
 110165835.428    85843525.6414   20963861.269 8  20963860.79746  20963864.93046
      2546.624        1984.377  
 104428263.988    81372694.5694   19872037.956 8  19872037.57447  19872041.13547
      3265.330        2544.410  
 113142008.386    87999358.492    21225154.184 7  21225154.303 7  21225161.517 6
       643.668         500.643  
 104285202.536    81110730.619    19515553.445 7  19515552.831 7  19515556.598 6
      4013.831        3121.856  
 122012763.030    95074895.7064   23218260.750 7  23218260.81545  23218265.19745
       -91.588         -71.361  
 109110150.836    84863471.820    20404147.769 7  20404147.554 6  20404151.594 7
      1910.196        1485.701  
 118739241.732    92524105.8514   22595327.331 7  22595327.24445  22595330.70945
      1180.745         920.050  
 111794902.650    87112933.1484   21273858.812 7  21273858.81946  21273861.55346
      5268.640        4105.428  
 120736654.816    93906306.264    22625997.370 7  22625996.014 6  22626000.628 7
      2194.847        1707.108  
 109551149.303    85206474.600    20472244.665 8  20472243.919 8  20472245.672 7
      6194.536        4817.968  
 127610662.386    99436900.7134   24283499.180 6  24283499.06343  24283505.29143
      6054.869        4718.087  
 127875283.421    99643106.4414   24333851.389 7  24333850.99444  24333857.95944
      6592.702        5137.153  
 120188126.647    93479677.571    22499463.819 6  22499463.268 6  22499470.376 6
      6890.159        5359.007  
 125682263.104    97934252.6524   23916535.396 6  23916535.53043  23916540.10043
      6208.542        4837.815  
 11  5 30 15 24 55.0000000  0 14G27G 9R10R11G15R20G17G12R 2R21G 4G25
                                R12G14                              
 110153107.913    85833608.0924   20961439.301 8  20961438.85246  20961442.91946
      2544.363        1982.625  
 104411945.863    81359979.1464   19868932.801 8  19868932.28447  19868935.87647
      3261.959        2541.785  
 113138796.006    87996859.963    21224551.700 7  21224551.655 7  21224558.610 6
       641.471         498.919  
 104265140.285    81095126.645    19511797.915 7  19511798.263 7  19511802.153 6
      4011.078        3119.722  
 122013224.436    95075255.2274   23218348.443 7  23218348.49045  23218353.09745
       -93.006         -72.468  
 109100610.557    84856051.601    20402364.288 7  20402363.359 6  20402367.549 7
      1906.025        1482.468  
 118733344.185    92519510.3494   22594205.210 7  22594205.15645  22594208.38845
      1178.150         918.038  
 111768565.234    87092410.4864   21268847.017 8  21268846.93046  21268849.69846
      5266.438        4103.719  
 120725691.665    93897779.372    22623942.829 7  22623942.081 6  22623946.289 7
      2190.353        1703.600  
 109520185.984    85182392.023    20466458.273 8  20466457.837 8  20466459.390 7
      6190.664        4814.959  
 127580391.289    99413312.8624   24277737.770 6  24277738.33443  24277745.36343
      6053.511        4717.028  
 127842322.434    99617422.5874   24327579.260 7  24327578.61844  24327585.79944
      6591.833        5136.486  
 120153677.213    93452883.583    22493014.748 7  22493014.230 6  22493021.260 6
      6889.468        5358.479  
 125651225.588    97910067.5814   23910629.600 6  23910629.33243  23910633.81143
      6206.454        4836.193  
 11  5 30 15 25  0.0000000  0 14G27G 9R10R11G15R20G17G12R 2R21G 4G25
                                R12G14                              
 110140390.884    85823698.7194   20959019.519 8  20959018.87446  20959022.93146
      2542.406        1981.095  
 104395643.538    81347276.0364   19865830.598 8  19865830.12847  19865833.66646
      3258.867        2539.373  
 113135593.729    87994369.299    21223951.202 7  21223950.562 7  21223957.957 6
       639.564         497.442  
 104245091.566    81079533.198    19508046.383 7  19508046.287 7  19508050.321 6
      4008.357        3117.616  
 122013692.540    95075619.9704   23218437.242 7  23218437.26545  23218442.25045
       -94.315         -73.486  
 109091092.522    84848648.685    20400583.398 7  20400583.449 6  20400587.546 7
      1901.167        1478.681  
 118727459.390    92514924.7884   22593085.721 7  22593085.45345  22593088.53445
      1175.620         916.066  
 111742237.935    87071895.7124   21263837.177 8  21263836.96346  21263839.69146
      5264.416        4102.130  
 120714749.627    93889268.905    22621892.598 7  22621891.796 7  22621895.915 7
      2186.203        1700.374  
 109489240.925    85158323.651    20460675.124 8  20460674.875 8  20460676.480 7
      6187.170        4812.233  
 127550128.271    99389731.3254   24271979.752 6  24271979.33643  24271986.61243
      6051.570        4715.507  
 127809365.224    99591741.6744   24321307.780 7  24321306.94844  24321314.56244
      6591.189        5135.999  
 120119230.818    93426091.954    22486566.111 6  22486565.752 6  22486572.252 6
      6889.007        5358.102  
 125620198.240    97885890.4454   23904725.183 6  23904724.59743  23904729.42743
      6204.351        4834.548  
 11  5 30 15 25  5.0000000  0 14G27G 9R10R11G15R20G17G12R 2R21G 4G25
                                R12G14                              
 110127684.765    85813797.8454   20956601.616 8  20956600.96946  20956605.02046
      2540.059        1979.266  
 104379357.423    81334585.5534   19862731.266 8  19862730.95347  19862734.52847
      3255.556        2536.794  
 113132401.971    87991886.810    21223352.259 7  21223351.858 7  21223359.014 6
       637.339         495.705  
 104225056.725    81063950.542    19504296.744 7  19504297.076 7  19504300.972 6
      4005.494        3115.388  
 122014167.705    95075990.2204   23218527.861 7  23218527.79845  23218532.84445
       -95.755         -74.600  
 109081596.945    84841263.234    20398808.161 7  20398807.580 6  20398811.855 7
      1896.776        1475.271  
 118721587.713    92510349.4574   22591968.405 7  22591968.12945  22591971.14245
      1172.987         914.011  
 111715921.165    87051389.1414   21258829.301 8  21258829.04446  21258831.79846
      5262.157        4100.381  
 120703829.234    93880775.271    22619845.723 7  22619845.251 6  22619849.537 7
      2181.785        1696.941  
 109458314.447    85134269.728    20454895.895 8  20454895.492 8  20454897.062 7
      6183.268        4809.212  
 127519873.626    99366156.3044   24266222.372 6  24266222.15843  24266229.08343
      6049.979        4714.247  
 127776412.203    99566064.0124   24315036.768 7  24315036.14544  24315043.92044
      6590.083        5135.128  
 120084787.837    93399302.973    22480119.416 7  22480118.334 6  22480124.531 6
      6888.166        5357.458  
 125589181.430    97861721.5104   23898823.167 6  23898822.52243  23898826.89443
      6201.916        4832.646  
 11  5 30 15 25 10.0000000  0 14G27G 9R10R11G15R20G17G12R 2R21G 4G25
                                R12G14                              
 110114990.241    85803906.0084   20954185.546 8  20954185.31346  20954189.37346
      2537.742        1977.460  
 104363088.192    81321908.2304   19859635.518 8  19859635.08847  19859638.58447
      3252.184        2534.166  
 113129221.474    87989413.084    21222755.961 7  21222755.340 7  21222762.581 6
       634.908         493.820  
 104205036.434    81048379.202    19500550.876 7  19500550.569 7  19500554.506 6
      4002.672        3113.194  
 122014650.621    95076366.5054   23218619.890 7  23218619.86245  23218624.92245
       -97.245         -75.774  
 109072124.325    84833895.644    20397037.653 7  20397036.243 6  20397040.408 7
      1892.328        1471.810  
 118715729.751    92505784.8134   22590853.808 8  22590853.29445  22590856.38745
      1170.261         911.890  
 111689615.575    87030891.2824   21253823.657 8  21253823.23446  21253826.06046
      5260.053        4098.743  
 120692931.122    93872298.969    22617803.014 6  22617802.519 6  22617807.329 7
      2177.348        1693.496  
 109427407.225    85110230.782    20449119.984 8  20449119.597 8  20449121.362 7
      6179.519        4806.282  
 127489628.120    99342588.3844   24260466.264 6  24260466.79743  24260472.90043
      6048.066        4712.774  
 127743464.028    99540390.1334   24308766.906 7  24308766.26144  24308773.87944
      6589.040        5134.307  
 120050348.997    93372517.212    22473672.571 7  22473671.738 6  22473677.499 6
      6887.328        5356.810  
 125558175.807    97837561.2814   23892922.765 6  23892922.42643  23892926.76243
      6200.167        4831.282  
 11  5 30 15 25 15.0000000  0 14G27G 9R10R11G15R20G17G12R 2R21G 4G25
                                R12G14                              
 110102306.861    85794022.8504   20951772.231 8  20951771.81346  20951775.82546
      2535.496        1975.708  
 104346835.402    81309243.7204   19856542.482 8  19856542.27647  19856545.83747
      3248.872        2531.584  
 113126051.779    87986947.757    21222161.634 7  21222160.628 7  21222168.001 6
       632.900         492.261  
 104185030.295    81032818.869    19496806.874 7  19496806.812 7  19496810.720 6
      3999.688        3110.867  
 122015140.785    95076748.4434   23218712.795 7  23218713.09045  23218718.05045
       -98.673         -76.890  
 109062674.473    84826545.753    20395269.415 7  20395269.227 6  20395273.160 7
      1887.719        1468.231  
 118709885.134    92501230.5584   22589741.386 7  22589741.24145  22589744.22645
      1167.518         909.760  
 111663320.773    87010401.8264   21248819.544 7  21248819.51246  21248822.36846
      5257.821        4097.011  
 120682054.687    93863839.501    22615764.105 6  22615763.522 6  22615769.408 7
      2172.946        1690.073  
 109396518.978    85086206.595    20443347.886 8  20443347.244 8  20443349.119 7
      6175.701        4803.323  
 127459391.273    99319027.2104   24254712.180 6  24254712.69243  24254718.86643
      6046.412        4711.500  
 127710520.219    99514719.6464   24302497.561 6  24302497.18544  24302505.02844
      6588.292        5133.724  
 120015913.850    93345734.316    22467226.030 7  22467225.541 7  22467231.234 6
      6886.596        5356.238  
 125527180.985    97813409.4824   23887024.536 6  23887024.23343  23887028.98443
      6197.816        4829.453  
 11  5 30 15 25 20.0000000  0 14G27G 9R10R11G15R20G17G12R 2R21G 4G25
                                R12G14                              
 110089634.611    85784148.3654   20949360.886 8  20949360.30346  20949364.34846
      2533.474        1974.137  
 104330599.047    81296592.0154   19853453.035 8  19853452.58547  19853456.13847
      3245.666        2529.095  
 113122892.843    87984490.797    21221568.268 7  21221568.026 7  21221575.232 6
       630.727         490.582  
 104165038.341    81017269.573    19493065.635 7  19493065.646 7  19493069.612 6
      3997.077        3108.830  
 122015638.264    95077136.0704   23218807.452 7  23218807.64745  23218812.56445
      -100.207         -78.077  
 109053247.291    84819213.496    20393505.615 6  20393506.358 6  20393510.169 7
      1883.248        1464.752  
 118704053.853    92496686.7024   22588631.418 7  22588631.57445  22588634.61445
      1164.869         907.677  
 111637036.689    86989920.7244   21243817.715 8  21243817.74546  21243820.61646
      5255.856        4095.475  
 120671199.999    93855396.956    22613730.794 7  22613729.740 6  22613735.312 7
      2168.875        1686.904  
 109365649.650    85062197.125    20437578.645 8  20437578.621 8  20437580.607 7
      6172.037        4800.472  
 127429163.183    99295472.8914   24248960.504 6  24248960.05843  24248966.88143
      6044.671        4710.148  
 127677580.830    99489052.6094   24296229.281 6  24296228.84444  24296236.74844
      6587.606        5133.188  
 119981482.372    93318954.280    22460780.038 7  22460779.778 6  22460785.825 6
      6886.074        5355.830  
 125496196.965    97789266.0924   23881128.423 6  23881128.10643  23881132.62543
      6195.729        4827.838  
 11  5 30 15 25 25.0000000  0 14G27G 9R10R11G15R20G17G12R 2R21G 4G25
                                R12G14                              
 110076973.674    85774282.7034   20946951.527 8  20946950.99246  20946955.05246
      2531.077        1972.271  
 104314379.314    81283953.2614   19850366.366 8  19850366.08247  19850369.62747
      3242.268        2526.445  
 113119744.855    87982042.356    21220977.976 7  21220977.516 7  21220984.754 6
       628.515         488.849  
 104145060.717    81001731.424    19489327.096 7  19489327.109 7  19489330.968 6
      3994.135        3106.536  
 122016143.172    95077529.4944   23218904.112 7  23218903.85845  23218908.40545
      -101.658         -79.207  
 109043842.949    84811899.003    20391747.504 7  20391747.567 6  20391751.551 7
      1878.701        1461.215  
 118698236.046    92492153.3374   22587524.326 7  22587524.49245  22587527.54945
      1162.262         905.668  
 111610763.567    86969448.1694   21238818.052 8  21238818.16146  21238821.03246
      5253.570        4093.692  
 120660367.237    93846971.479    22611700.345 7  22611700.173 6  22611705.160 7
      2164.372        1683.405  
 109334799.511    85038202.579    20431813.833 8  20431813.792 8  20431815.538 7
      6168.060        4797.374  
 127398943.933    99271925.4344   24243209.207 6  24243209.74443  24243216.37443
      6042.963        4708.789  
 127644646.057    99463389.1704   24289962.064 7  24289961.73144  24289969.81644
      6586.395        5132.227  
 119947054.701    93292177.215    22454335.598 7  22454334.829 6  22454341.139 6
      6885.087        5355.080  
 125465223.937    97765131.2684   23875234.360 6  23875234.20443  23875238.84343
      6193.621        4826.185  
 11  5 30 15 25 30.0000000  0 14G27G 9R10R11G15R20G17G12R 2R21G 4G25
                                R12G14                              
 110064323.760    85764425.6264   20944544.309 8  20944543.88946  20944547.83946
      2528.818        1970.504  
 104298175.906    81271327.2284   19847282.960 8  19847282.65947  19847286.28447
      3239.018        2523.917  
 113116607.361    87979602.074    21220389.109 7  21220389.245 7  21220396.100 6
       626.403         487.201  
 104125097.083    80986204.153    19485591.295 7  19485591.364 7  19485594.911 6
      3991.302        3104.345  
 122016655.203    95077928.4674   23219001.519 7  23219001.34945  23219005.79045
      -103.226         -80.428  
 109034461.128    84804602.033    20389993.815 7  20389993.191 6  20389997.164 7
      1873.891        1457.463  
 118692431.382    92487630.2254   22586419.680 7  22586419.76145  22586422.92245
      1159.625         903.591  
 111584501.098    86948983.9104   21233820.882 8  21233820.57446  21233823.50446
      5251.450        4092.031  
 120649556.090    93838562.818    22609674.403 6  22609674.147 6  22609679.145 7
      2160.113        1680.086  
 109303968.206    85014222.679    20426052.726 8  20426052.294 8  20426053.789 7
      6164.353        4794.492  
 127368733.328    99248384.6954   24237460.876 6  24237461.17743  24237467.04343
      6041.147        4707.418  
 127611715.537    99437729.0564   24283695.436 6  24283694.95444  24283703.32944
      6585.764        5131.756  
 119912630.613    93265402.935    22447889.954 7  22447889.961 6  22447896.761 6
      6884.584        5354.671  
 125434261.661    97741004.8344   23869342.290 6  23869341.75543  23869346.43543
      6191.348        4824.442  
 11  5 30 15 25 35.0000000  0 14G27G 9R10R11G15R20G17G12R 2R21G 4G25
                                R12G14                              
 110051685.190    85754577.3854   20942139.381 8  20942138.84346  20942142.84946
      2526.414        1968.635  
 104281989.149    81258714.1664   19844202.859 8  19844202.41147  19844206.06547
      3235.649        2521.286  
 113113480.841    87977170.330    21219802.787 7  21219802.815 7  21219809.583 6
       624.149         485.454  
 104105147.852    80970688.083    19481857.996 7  19481858.164 7  19481861.676 6
      3988.305        3102.013  
 122017174.632    95078333.2124   23219100.294 7  23219100.32845  23219104.70645
      -104.723         -81.597  
 109025102.245    84797322.902    20388243.540 7  20388243.154 6  20388246.944 7
      1869.313        1453.906  
 118686640.222    92483117.6284   22585318.016 7  22585317.70945  22585320.97645
      1156.799         901.408  
 111558249.603    86928528.2004   21228825.313 8  21228825.15546  21228827.95046
      5249.062        4090.177  
 120638766.909    93830171.227    22607652.475 7  22607651.942 6  22607657.345 7
      2155.564        1676.552  
 109273156.008    84990257.640    20420294.556 8  20420294.029 8  20420295.934 7
      6160.437        4791.446  
 127338531.611    99224850.8934   24231713.587 6  24231714.06243  24231720.09643
      6039.459        4706.066  
 127578789.662    99412072.5614   24277429.953 6  24277429.26344  24277437.33244
      6584.569        5130.812  
 119878210.476    93238631.734    22441446.849 6  22441446.267 6  22441452.972 6
      6883.478        5353.814  
 125403310.460    97716887.0214   23863452.686 6  23863452.13543  23863456.49043
      6189.024        4822.636  
 11  5 30 15 25 40.0000000  0 14G27G 9R10R11G15R20G17G12R 2R21G 4G25
                                R12G14                              
 110039057.916    85744737.9484   20939736.324 8  20939735.95946  20939739.94746
      2524.349        1967.029  
 104265819.001    81246114.0504   19841125.502 8  19841125.26047  19841129.02047
      3232.391        2518.745  
 113110365.302    87974747.129    21219218.956 7  21219218.212 7  21219224.984 6
       622.207         483.940  
 104085212.947    80955183.159    19478128.046 7  19478127.669 7  19478131.288 6
      3985.646        3099.936  
 122017701.445    95078743.7034   23219200.568 7  23219200.62445  23219205.18845
      -105.866         -82.491  
 109015766.290    84790061.599    20386496.505 6  20386497.100 6  20386501.117 7
      1865.000        1450.554  
 118680862.467    92478615.4774   22584218.493 7  22584218.28745  22584221.39045
      1154.372         899.513  
 111532009.027    86908081.0034   21223831.803 8  21223831.73346  21223834.59246
      5247.065        4088.625  
 120627999.664    93821796.693    22605634.975 7  22605634.414 6  22605639.738 7
      2151.333        1673.245  
 109242362.956    84966307.493    20414540.166 8  20414539.442 8  20414541.610 7
      6156.739        4788.574  
 127308338.739    99201324.0034   24225968.491 6  24225968.26243  24225974.51243
      6037.814        4704.779  
 127545868.373    99386419.6264   24271165.375 6  24271164.63644  24271172.92044
      6583.963        5130.365  
 119843794.206    93211863.524    22435004.003 6  22435003.596 6  22435009.933 6
      6882.930        5353.396  
 125372370.277    97692777.7964   23857564.849 6  23857564.37943  23857569.22943
      6186.601        4820.720  
 11  5 30 15 25 45.0000000  0 14G27G 9R10R11G15R20G17G12R 2R21G 4G25
                                R12G14                              
 110026441.576    85734907.0314   20937335.753 8  20937335.22646  20937339.12846
      2522.204        1965.348  
 104249665.063    81233526.5694   19838051.678 8  19838051.34147  19838054.90547
      3229.089        2516.174  
 113107260.193    87972332.032    21218636.179 7  21218635.302 7  21218642.772 6
       620.106         482.323  
 104065292.024    80939689.108    19474399.570 7  19474399.559 7  19474403.242 6
      3982.762        3097.706  
 122018235.233    95079159.6384   23219301.930 7  23219302.14945  23219306.80945
      -107.437         -83.723  
 109006452.534    84782817.565    20384755.781 7  20384755.381 6  20384759.358 7
      1860.609        1447.140  
 118675097.734    92474123.4744   22583121.531 8  22583121.36345  22583124.49745
      1151.690         897.390  
 111505779.017    86887642.0334   21218840.937 8  21218840.35346  21218843.02546
      5244.923        4086.957  
 120617253.896    93813438.861    22603620.683 6  22603620.093 6  22603626.002 7
      2147.007        1669.905  
 109211588.667    84942371.941    20408789.671 8  20408788.714 8  20408790.645 7
      6153.021        4785.675  
 127278154.443    99177803.7924   24220224.503 6  24220224.59243  24220230.78243
      6036.054        4703.400  
 127512951.367    99360770.0414   24264901.000 7  24264900.62844  24264908.95544
      6583.060        5129.609  
 119809381.392    93185098.023    22428560.934 6  22428561.107 6  22428568.047 6
      6882.206        5352.808  
 125341440.715    97668676.8474   23851679.269 6  23851678.55443  23851683.27343
      6185.010        4819.488  
 11  5 30 15 25 50.0000000  0 14G27G 9R10R11G15R20G17G12R 2R21G 4G25
                                R12G14                              
 110013836.502    85725084.8924   20934936.916 8  20934936.54546  20934940.44246
      2520.016        1963.649  
 104233527.687    81220951.9854   19834980.829 8  19834980.51647  19834984.12347
      3225.948        2513.725  
 113104165.964    87969925.418    21218055.612 7  21218054.957 7  21218062.462 6
       617.740         480.463  
 104045385.392    80924206.170    19470674.195 7  19470674.251 7  19470677.988 6
      3979.978        3095.541  
 122018776.294    95079581.2294   23219404.970 7  23219405.04545  23219409.88245
      -108.806         -84.780  
 108997161.574    84775591.263    20383019.146 7  20383017.986 6  20383021.864 7
      1855.999        1443.553  
 118669346.388    92469641.9034   22582027.148 7  22582026.98145  22582030.00845
      1149.025         895.325  
 111479559.890    86867211.5494   21213851.045 7  21213851.02446  21213853.70946
      5242.687        4085.206  
 120606529.961    93805097.997    22601610.882 6  22601610.268 6  22601616.396 7
      2142.747        1666.585  
 109180833.538    84918451.295    20403041.659 8  20403041.292 8  20403043.344 7
      6149.153        4782.672  
 127247979.047    99154290.5204   24214482.458 6  24214482.18743  24214488.43143
      6034.197        4701.959  
 127480038.800    99335123.9094   24258637.991 7  24258637.54544  24258645.95644
      6582.208        5128.990  
 119774972.441    93158335.527    22422120.145 6  22422119.930 6  22422126.851 6
      6881.473        5352.252  
 125310522.168    97644584.4834   23845795.524 6  23845795.09443  23845799.59243
      6182.813        4817.819  
 11  5 30 15 25 55.0000000  0 14G27G 9R10R11G15R20G17G12R 2R21G 4G25
                                R12G14                              
 110001242.234    85715271.1744   20932540.444 8  20932539.96046  20932543.90246
      2517.686        1961.828  
 104217406.421    81208389.9614   19831913.107 8  19831912.73446  19831916.28747
      3222.618        2511.128  
 113101082.135    87967526.862    21217477.080 7  21217476.634 7  21217483.977 6
       615.709         478.881  
 104025492.638    80908734.032    19466951.946 7  19466951.509 7  19466955.333 6
      3977.034        3093.240  
 122019324.214    95080008.1664   23219509.029 7  23219509.33045  23219514.28445
      -110.243         -85.905  
 108987893.007    84768382.378    20381284.724 7  20381284.593 6  20381288.404 7
      1851.440        1440.008  
 118663607.920    92465170.3684   22580935.041 7  22580935.02545  22580938.02145
      1146.462         893.350  
 111453351.187    86846789.1904   21208863.511 8  21208863.57746  21208866.43146
      5240.670        4083.630  
 120595827.347    93796773.734    22599605.476 6  22599604.857 6  22599610.474 7
      2138.555        1663.318  
 109150097.097    84894545.178    20397297.658 8  20397297.421 8  20397299.411 7
      6145.451        4779.799  
 127217812.094    99130783.8204   24208741.436 6  24208741.38043  24208747.63743
      6032.574        4700.690  
 127447130.349    99309480.9884   24252376.236 7  24252375.34844  24252383.38744
      6581.285        5128.271  
 119740566.928    93131575.689    22415680.564 7  22415679.634 6  22415685.963 6
      6880.690        5351.645  
 125279614.152    97620500.3144   23839913.692 6  23839913.53143  23839917.32443
      6180.655        4816.097  
 11  5 30 15 26  0.0000000  0 14G27G 9R10R11G15R20G17G12R 2R21G 4G25
                                R12G14                              
 109988658.863    85705465.9474   20930146.062 8  20930145.44746  20930149.37546
      2515.521        1960.153  
 104201301.348    81195840.5504   19828848.312 8  19828848.10547  19828851.66947
      3219.384        2508.619  
 113098008.748    87965136.445    21216900.443 7  21216899.833 7  21216907.145 6
       613.522         477.183  
 104005613.885    80893272.777    19463231.319 7  19463231.433 7  19463235.189 6
      3974.221        3091.069  
 122019879.055    95080440.4944   23219614.654 7  23219614.93045  23219619.86645
      -111.749         -87.069  
 108978646.618    84761190.742    20379555.927 7  20379555.486 6  20379559.372 7
      1847.047        1436.601  
 118657882.438    92460708.9484   22579845.462 7  22579845.47445  22579848.42545
      1143.796         891.270  
 111427153.006    86826375.0274   21203878.206 8  21203878.21446  21203880.99646
      5238.487        4081.944  
 120585146.062    93788466.062    22597603.506 6  22597603.128 6  22597608.607 7
      2133.987        1659.769  
 109119379.418    84870653.654    20391557.521 8  20391556.958 8  20391559.085 7
      6141.583        4776.796  
 127187653.696    99107283.7564   24203001.908 6  24203002.57343  24203009.07043
      6030.863        4699.373  
 127414226.087    99283841.3264   24246114.558 6  24246113.69644  24246121.75344
      6580.424        5127.602  
 119706164.909    93104818.563    22409240.156 7  22409239.570 6  22409245.392 6
      6879.901        5351.042  
 125248716.819    97596424.4774   23834034.104 6  23834033.40043  23834037.86143
      6178.188        4814.178  
 11  5 30 15 26  5.0000000  0 14G27G 9R10R11G15R20G17G12R 2R21G 4G25
                                R12G14                              
 109976086.722    85695669.4734   20927753.627 8  20927752.99146  20927756.98746
      2513.437        1958.515  
 104185212.796    81183304.0174   19825786.783 8  19825786.45247  19825790.12047
      3216.299        2506.208  
 113094946.171    87962754.436    21216325.984 7  21216325.344 7  21216332.502 6
       611.482         475.594  
 103985749.352    80877822.587    19459514.648 7  19459514.316 7  19459517.960 6
      3971.542        3088.973  
 122020441.089    95080878.4244   23219721.742 7  23219721.89245  23219726.72545
      -113.084         -88.124  
 108969422.721    84754016.603    20377830.341 7  20377830.672 6  20377834.506 7
      1842.845        1433.328  
 118652170.241    92456257.8824   22578758.514 7  22578758.42645  22578761.31945
      1141.242         889.272  
 111400965.680    86805969.3234   21198895.059 8  21198894.93646  21198897.77146
      5236.420        4080.324  
 120574486.616    93780175.378    22595606.673 6  22595605.579 6  22595611.037 7
      2129.573        1656.331  
 109088680.864    84846777.010    20385821.013 8  20385820.391 8  20385822.278 7
      6137.860        4773.890  
 127157504.325    99083790.7724   24197265.198 6  24197265.30943  24197271.90143
      6028.934        4697.886  
 127381326.362    99258205.1944   24239853.888 7  24239853.28444  24239861.02244
      6579.611        5126.972  
 119671766.715    93078064.415    22402800.142 7  22402799.542 6  22402805.454 6
      6879.459        5350.687  
 125217830.484    97572357.2034   23828156.065 6  23828155.96843  23828160.54043
      6176.000        4812.468  
 11  5 30 15 26 10.0000000  0 14G27G 9R10R11G15R20G17G12R 2R21G 4G25
                                R12G14                              
 109963525.260    85685881.3194   20925363.121 8  20925362.61646  20925366.62046
      2511.133        1956.724  
 104169140.262    81170779.9644   19822728.294 8  19822727.99846  19822731.59247
      3212.756        2503.441  
 113091893.758    87960380.337    21215753.394 7  21215752.986 7  21215760.098 6
       609.318         473.926  
 103965898.586    80862383.097    19455799.322 7  19455799.373 7  19455803.129 6
      3968.818        3086.853  
 122021009.779    95081321.5514   23219829.994 7  23219830.29345  23219834.86345
      -114.497         -89.230  
 108960220.946    84746859.667    20376110.005 7  20376109.986 6  20376113.859 7
      1838.156        1429.674  
 118646470.765    92451816.7284   22577674.138 7  22577673.87445  22577676.82045
      1138.506         887.146  
 111374788.664    86785571.6484   21193913.635 8  21193913.64446  21193916.46346
      5234.485        4078.820  
 120563848.304    93771901.134    22593612.271 6  22593611.710 6  22593617.818 7
      2125.333        1653.026  
 109058000.873    84822914.800    20380087.701 8  20380087.213 8  20380088.957 7
      6134.065        4770.940  
 127127363.146    99060304.1614   24191529.455 6  24191529.04643  24191536.68743
      6027.554        4696.773  
 127348430.609    99232572.1544   24233594.259 6  24233593.62944  24233601.15044
      6578.789        5126.330  
 119637371.759    93051312.792    22396360.958 7  22396360.717 6  22396366.409 6
      6878.577        5350.006  
 125186954.600    97548298.0884   23822281.225 6  23822280.62243  23822285.35143
      6174.121        4810.980  
 11  5 30 15 26 15.0000000  0 14G27G 9R10R11G15R20G17G12R 2R21G 4G25
                                R12G14                              
 109950975.194    85676102.0474   20922974.931 8  20922974.41746  20922978.44246
      2509.001        1955.060  
 104153084.418    81158268.9134   19819673.054 8  19819672.71347  19819676.27247
      3209.502        2500.911  
 113088852.344    87958014.774    21215183.026 7  21215182.509 7  21215189.625 6
       607.297         472.358  
 103946062.252    80846954.840    19452087.289 7  19452087.160 7  19452090.809 6
      3965.953        3084.635  
 122021585.852    95081770.4274   23219939.835 7  23219939.91545  23219944.48045
      -115.915         -90.330  
 108951042.011    84739720.489    20374393.746 7  20374393.385 6  20374397.419 7
      1833.552        1426.093  
 118640784.733    92447386.0504   22576592.137 7  22576591.75045  22576594.69045
      1136.071         885.263  
 111348622.665    86765182.5664   21188934.431 8  21188934.49846  21188937.18246
      5232.326        4077.140  
 120553231.824    93763643.870    22591623.664 7  22591622.857 6  22591628.229 7
      2121.292        1649.900  
 109027340.245    84799067.651    20374357.694 8  20374357.444 8  20374359.263 7
      6130.230        4767.955  
 127097231.207    99036824.7284   24185795.896 6  24185795.57443  24185802.66243
      6025.323        4695.041  
 127315539.506    99206942.7454   24227335.065 7  24227334.37744  24227342.17544
      6578.050        5125.752  
 119602980.840    93024564.299    22389923.797 7  22389923.333 7  22389928.555 6
      6877.762        5349.379  
 125156089.879    97524247.6534   23816407.922 6  23816407.25843  23816411.63143
      6171.866        4809.239  
 11  5 30 15 26 20.0000000  0 14G27G 9R10R11G15R20G17G12R 2R21G 4G25
                                R12G14                              
 109938436.441    85666331.5894   20920589.086 8  20920588.39146  20920592.36246
      2506.689        1953.258  
 104137045.185    81145770.8074   19816620.867 8  19816620.54547  19816624.13147
      3206.155        2498.308  
 113085821.695    87955657.592    21214613.807 7  21214614.044 7  21214621.290 6
       605.068         470.622  
 103926240.188    80831537.679    19448378.643 7  19448377.958 7  19448381.519 6
      3962.967        3082.313  
 122022169.189    95082224.9634   23220050.701 7  23220051.01445  23220055.60845
      -117.398         -91.488  
 108941885.926    84732599.092    20372681.044 7  20372681.395 6  20372685.309 7
      1829.078        1422.618  
 118635112.097    92442965.8084   22575512.941 7  22575512.23045  22575515.24645
      1133.338         883.130  
 111322467.606    86744802.0084   21183957.629 8  21183957.37346  21183960.16846
      5230.021        4075.336  
 120542637.139    93755403.565    22589637.988 7  22589637.841 6  22589642.323 7
      2116.688        1646.304  
 108996698.873    84775235.473    20368631.808 8  20368631.346 8  20368633.342 7
      6126.276        4764.887  
 127067108.144    99013352.2444   24180063.271 6  24180063.56643  24180070.08943
      6023.651        4693.721  
 127282653.039    99181316.9474   24221077.215 6  24221075.96744  24221084.43044
      6576.815        5124.808  
 119568593.887    92997818.879    22383486.712 7  22383486.350 7  22383491.309 6
      6877.073        5348.830  
 125125236.254    97500205.8784   23810536.845 6  23810536.25243  23810540.54143
      6169.624        4807.498  
 11  5 30 15 26 25.0000000  0 14G27G 9R10R11G15R20G17G12R 2R21G 4G25
                                R12G14                              
 109925908.799    85656569.7884   20918204.773 8  20918204.37546  20918208.44346
      2504.396        1951.484  
 104121022.356    81133285.4824   19813571.983 8  19813571.52447  19813575.01847
      3202.772        2495.669  
 113082801.725    87953308.715    21214047.824 7  21214047.329 7  21214054.491 6
       602.745         468.797  
 103906432.419    80816131.637    19444671.255 7  19444671.202 7  19444674.902 6
      3960.077        3080.061  
 122022759.565    95082684.9814   23220163.097 7  23220163.25745  23220168.10345
      -118.664         -92.472  
 108932752.232    84725495.105    20370973.602 7  20370973.307 6  20370977.231 7
      1824.466        1419.025  
 118629452.574    92438555.7834   22574435.752 7  22574435.23345  22574438.40045
      1130.453         880.885  
 111296323.282    86724429.8054   21178982.613 8  21178982.40946  21178985.09946
      5227.812        4073.624  
 120532064.046    93747180.051    22587657.086 7  22587656.280 6  22587660.706 7
      2112.416        1642.985  
 108966076.600    84751418.156    20362909.479 8  20362908.823 8  20362910.879 7
      6122.538        4761.973  
 127036994.027    98989886.7274   24174332.926 6  24174332.93943  24174339.48843
      6022.004        4692.482  
 127249770.979    99155694.5884   24214819.323 6  24214818.76944  24214827.07644
      6575.866        5124.019  
 119534210.571    92971076.296    22377049.302 7  22377049.468 7  22377055.045 6
      6876.259        5348.208  
 125094393.585    97476172.6354   23804667.935 6  23804667.09043  23804671.80343
      6167.517        4805.868  
 11  5 30 15 26 30.0000000  0 14G27G 9R10R11G15R20G17G12R 2R21G 4G25
                                R12G14                              
 109913392.465    85646816.8014   20915823.245 8  20915822.59746  20915826.62846
      2502.237        1949.788  
 104105016.159    81120813.1224   19810525.992 8  19810525.65447  19810529.15447
      3199.494        2493.113  
 113079792.719    87950968.370    21213483.307 7  21213482.807 7  21213489.854 6
       600.653         467.175  
 103886639.011    80800736.765    19440967.240 7  19440967.052 7  19440970.857 6
      3957.218        3077.839  
 122023357.213    95083150.6724   23220276.684 7  23220276.82445  23220281.90445
      -120.145         -93.611  
 108923641.180    84718408.733    20369269.937 7  20369269.281 6  20369273.404 7
      1820.035        1415.584  
 118623806.356    92434156.1334   22573361.006 7  22573360.69445  22573363.90345
      1128.005         878.963  
 111270189.919    86704066.1484   21174009.185 8  21174009.24346  21174012.01046
      5225.700        4071.974  
 120521512.687    93738973.440    22585678.938 6  22585678.698 6  22585683.565 7
      2108.094        1639.627  
 108935473.568    84727615.809    20357190.332 8  20357189.721 8  20357191.942 7
      6118.747        4759.026  
 127006888.917    98966428.1984   24168604.107 6  24168604.11343  24168610.86943
      6020.288        4691.139  
 127216893.550    99130075.8294   24208563.457 7  24208562.75944  24208570.51744
      6575.067        5123.426  
 119499831.193    92944336.792    22370612.246 7  22370612.809 6  22370619.294 6
      6875.473        5347.594  
 125063562.040    97452148.0704   23798800.687 6  23798800.13143  23798804.43443
      6165.248        4804.087  
 11  5 30 15 26 35.0000000  0 14G27G 9R10R11G15R20G17G12R 2R21G 4G25
                                R12G14                              
 109900887.209    85637072.4424   20913443.284 8  20913442.93846  20913446.93946
      2499.884        1947.969  
 104089026.351    81108353.5314   19807483.278 8  19807482.90847  19807486.37247
      3196.142        2490.506  
 113076794.321    87948636.280    21212921.020 7  21212920.965 7  21212927.368 6
       598.568         465.553  
 103866859.720    80785352.876    19437265.870 7  19437265.671 7  19437269.388 6
      3954.403        3075.649  
 122023961.846    95083621.8094   23220391.953 7  23220391.94245  23220397.08045
      -121.771         -94.876  
 108914552.627    84711339.855    20367569.608 7  20367569.689 6  20367573.890 7
      1815.463        1412.032  
 118618173.262    92429766.7064   22572288.800 7  22572288.68245  22572292.02645
      1125.298         876.867  
 111244067.266    86683710.8364   21169038.165 8  21169038.21346  21169040.96046
      5223.336        4070.139  
 120510982.877    93730783.585    22583705.539 6  22583704.823 6  22583710.394 7
      2103.645        1636.171  
 108904889.613    84703828.295    20351475.013 8  20351474.539 8  20351476.490 7
      6114.791        4755.947  
 126976792.612    98942976.5574   24162876.736 6  24162877.02243  24162883.56843
      6018.370        4689.655  
 127184020.493    99104460.4854   24202308.388 7  24202307.53144  24202315.16644
      6574.033        5122.614  
 119465455.563    92917600.211    22364177.684 7  22364177.580 6  22364184.080 6
      6874.581        5346.890  
 125032741.410    97428131.9914   23792935.474 6  23792935.42443  23792939.60943
      6163.034        4802.375  
 11  5 30 15 26 40.0000000  0 14G27G 9R10R11G15R20G17G12R 2R21G 4G25
                                R12G14                              
 109888393.688    85627337.2304   20911065.766 8  20911065.48646  20911069.51546
      2497.475        1946.079  
 104073053.605    81095907.2324   19804443.894 8  19804443.40047  19804446.88547
      3192.934        2487.997  
 113073807.143    87946312.920    21212361.016 7  21212360.288 7  21212367.304 6
       596.300         463.794  
 103847095.296    80769980.542    19433567.027 7  19433566.869 7  19433570.724 6
      3951.397        3073.327  
 122024574.124    95084098.8884   23220508.785 7  23220508.45745  23220513.42845
      -123.161         -95.980  
 108905487.175    84704288.949    20365874.481 7  20365874.318 6  20365878.519 7
      1810.923        1408.491  
 118612553.887    92425387.9724   22571219.260 7  22571219.35945  22571222.68445
      1122.372         874.580  
 111217956.025    86663364.4164   21164069.079 8  21164069.35846  21164072.18846
      5221.178        4068.443  
 120500475.309    93722611.025    22581736.265 6  22581735.768 6  22581741.456 7
      2099.417        1632.877  
 108874325.408    84680056.139    20345763.374 8  20345763.020 8  20345764.870 7
      6110.934        4752.939  
 126946705.871    98919532.3624   24157151.827 6  24157152.01743  24157158.00743
      6016.445        4688.122  
 127151152.515    99078849.0814   24196054.071 7  24196053.19444  24196060.44944
      6573.063        5121.860  
 119431084.402    92890867.096    22357744.226 7  22357743.646 6  22357749.893 7
      6873.855        5346.328  
 125001932.364    97404124.9504   23787072.485 6  23787072.49743  23787076.21843
      6160.814        4800.602  
 11  5 30 15 26 45.0000000  0 14G27G 9R10R11G15R20G17G12R 2R21G 4G25
                                R12G14                              
 109875911.486    85617610.8364   20908690.579 8  20908690.14146  20908694.25246
      2495.408        1944.477  
 104057097.530    81083473.9264   19801407.406 8  19801407.06147  19801410.51647
      3189.548        2485.362  
 113070830.941    87943998.079    21211802.196 7  21211801.702 7  21211808.860 6
       594.173         462.139  
 103827345.350    80754619.474    19429871.260 7  19429870.960 7  19429874.750 6
      3948.685        3071.206  
 122025193.681    95084581.6494   23220626.716 7  23220626.36845  23220631.09145
      -124.535         -97.031  
 108896444.255    84697255.563    20364183.389 7  20364183.248 6  20364187.443 7
      1806.325        1404.930  
 118606947.837    92421019.6124   22570152.554 7  22570152.68545  22570155.93845
      1119.843         872.604  
 111191855.776    86643026.5654   21159102.490 8  21159102.64746  21159105.50146
      5218.849        4066.633  
 120489989.509    93714455.394    22579770.598 6  22579770.497 6  22579776.291 7
      2094.917        1629.386  
 108843780.550    84656299.031    20340055.518 8  20340055.066 8  20340056.714 7
      6107.041        4749.921  
 126916628.232    98896095.2574   24151428.886 6  24151428.33043  24151434.59343
      6014.681        4686.778  
 127118289.190    99053241.3124   24189800.497 7  24189799.73144  24189806.81044
      6572.207        5121.203  
 119396717.149    92864137.017    22351310.293 7  22351310.262 6  22351316.358 6
      6873.139        5345.775  
 124971134.526    97380126.6334   23781212.574 6  23781211.57043  23781216.14343
      6158.565        4798.895  
 11  5 30 15 26 50.0000000  0 14G27G 9R10R11G15R20G17G12R 2R21G 4G25
                                R12G14                              
 109863440.722    85607893.3584   20906317.423 8  20906317.06646  20906321.14746
      2492.997        1942.593  
 104041158.206    81071053.6724   19798374.405 8  19798373.96147  19798377.36646
      3186.104        2482.679  
 113067865.673    87941691.751    21211245.158 7  21211245.562 7  21211252.484 6
       591.886         460.354  
 103807609.931    80739269.704    19426177.938 7  19426177.706 7  19426181.622 6
      3945.648        3068.834  
 122025820.493    95085070.0604   23220745.854 7  23220745.72645  23220750.22945
      -126.136         -98.282  
 108887423.976    84690239.786    20362496.025 6  20362496.284 6  20362500.696 7
      1801.710        1401.334  
 118601355.175    92416661.6934   22569088.578 7  22569088.49945  22569091.70045
      1117.103         870.460  
 111165766.566    86622697.3164   21154137.611 7  21154137.99046  21154140.90646
      5216.686        4064.952  
 120479525.518    93706316.725    22577810.786 6  22577809.791 6  22577815.535 7
      2090.414        1625.882  
 108813255.112    84632557.029    20334351.659 8  20334350.591 8  20334352.403 7
      6102.993        4746.776  
 126886559.764    98872665.2964   24145706.817 7  24145706.23743  24145712.20943
      6012.624        4685.166  
 127085430.582    99027637.2234   24183547.426 7  24183546.66744  24183554.18844
      6571.085        5120.330  
 119362354.072    92837410.193    22344878.088 7  22344877.435 6  22344883.486 7
      6871.905        5344.811  
 124940347.962    97356137.1064   23775354.537 6  23775353.18443  23775357.38743
      6156.376        4797.204  
 11  5 30 15 26 55.0000000  0 14G27G 9R10R11G15R20G17G12R 2R21G 4G25
                                R12G14                              
 109850981.518    85598184.8844   20903946.781 8  20903946.13446  20903950.19546
      2490.729        1940.831  
 104025235.779    81058646.5874   19795344.136 8  19795343.90547  19795347.48547
      3182.728        2480.044  
 113064911.341    87939393.939    21210691.445 7  21210691.429 7  21210698.029 6
       589.747         458.696  
 103787889.147    80723931.320    19422487.479 7  19422487.290 7  19422491.099 6
      3942.661        3066.520  
 122026454.735    95085564.2664   23220866.244 7  23220866.22645  23220870.91345
      -127.636         -99.457  
 108878426.596    84683241.823    20360814.788 7  20360814.065 6  20360818.065 7
      1797.257        1397.869  
 118595776.039    92412314.3094   22568027.305 7  22568026.89745  22568030.06845
      1114.428         868.385  
 111139688.573    86602376.8054   21149175.329 8  21149175.47646  21149178.42446
      5214.560        4063.293  
 120469083.512    93698195.162    22575854.274 6  22575853.534 6  22575858.313 7
      2086.211        1622.609  
 108782749.295    84608830.286    20328650.414 8  20328649.898 8  20328651.689 7
      6099.281        4743.887  
 126856500.694    98849242.6734   24139986.501 6  24139986.48543  24139992.57443
      6010.771        4683.744  
 127052576.889    99002036.9604   24177296.051 7  24177295.06044  24177302.46544
      6570.328        5119.714  
 119327995.219    92810686.647    22338445.896 7  22338445.721 7  22338451.086 6
      6871.200        5344.268  
 124909572.882    97332156.5314   23769497.627 6  23769496.73543  23769500.87943
      6154.172        4795.463  
 11  5 30 15 27  0.0000000  0 14G27G 9R10R11G15R20G17G12R 2R21G 4G25
                                R12G14                              
 109838534.081    85588485.5804   20901578.137 8  20901577.47346  20901581.54446
      2488.479        1939.072  
 104009330.454    81046252.8284   19792317.585 8  19792317.19746  19792320.82446
      3179.461        2477.492  
 113061968.447    87937105.009    21210140.196 7  21210139.103 7  21210146.261 6
       587.573         456.996  
 103768183.263    80708604.517    19418799.913 7  19418799.688 7  19418803.362 6
      3939.887        3064.346  
 122027096.632    95086064.4344   23220988.229 7  23220988.21845  23220992.98645
      -128.948        -100.471  
 108869452.433    84676261.919    20359135.307 6  20359135.751 6  20359139.914 7
      1792.686        1394.319  
 118590210.604    92407977.6034   22566967.929 7  22566967.88145  22566971.03345
      1111.877         866.386  
 111113622.017    86582065.2064   21144215.172 8  21144215.12646  21144217.97446
      5212.340        4061.558  
 120458663.627    93690090.801    22573901.231 6  22573900.550 6  22573905.265 7
      2081.912        1619.267  
 108752263.368    84585119.016    20322953.098 8  20322952.731 8  20322954.665 7
      6095.275        4740.759  
 126826451.199    98825827.4954   24134267.976 6  24134268.25643  24134274.27043
      6009.281        4682.538  
 127019728.307    98976440.6774   24171044.649 7  24171043.98344  24171052.27844
      6569.399        5119.004  
 119293640.816    92783966.564    22332014.267 7  22332014.214 6  22332020.065 7
      6870.486        5343.708  
 124878809.496    97308185.0544   23763643.628 6  23763643.07943  23763646.83443
      6151.597        4793.448  
 11  5 30 15 27  5.0000000  0 14G27G 9R10R11G15R20G17G12R 2R21G 4G25
                                R12G14                              
 109826097.943    85578795.0814   20899211.445 8  20899210.90246  20899215.04946
      2486.094        1937.222  
 103993441.744    81033872.0134   19789294.162 8  19789293.67947  19789297.28647
      3176.075        2474.869  
 113059036.373    87934824.494    21209589.939 7  21209589.121 7  21209596.246 6
       585.343         455.272  
 103748491.789    80693288.927    19415114.685 7  19415114.657 7  19415118.469 6
      3936.910        3062.051  
 122027745.617    95086570.1234   23221112.183 7  23221111.91345  23221116.65045
      -130.380        -101.600  
 108860500.800    84669299.535    20357461.853 6  20357461.851 6  20357465.893 7
      1788.094        1390.750  
 118584658.390    92403651.1944   22565911.380 8  22565911.48645  22565914.35345
      1109.110         864.231  
 111087566.407    86561762.1324   21139257.271 8  21139257.04146  21139259.79146
      5210.000        4059.738  
 120448265.546    93682003.387    22571951.723 6  22571951.759 6  22571956.951 7
      2077.489        1615.840  
 108721796.807    84561422.810    20317259.661 8  20317259.273 8  20317261.271 7
      6091.333        4737.701  
 126796410.899    98802419.4864   24128551.126 6  24128551.24943  24128557.97343
      6007.204        4680.917  
 126986884.327    98950847.9904   24164794.367 7  24164793.57744  24164802.31844
      6568.421        5118.245  
 119259290.413    92757249.585    22325584.115 7  22325583.585 6  22325589.803 7
      6869.738        5343.124  
 124848057.283    97284222.2984   23757791.628 6  23757790.88943  23757795.22643
      6149.262        4791.617  
 11  5 30 15 27 10.0000000  0 14G27G 9R10R11G15R20G17G12R 2R21G 4G25
                                R12G14                              
 109813673.564    85569113.7444   20896847.150 8  20896846.69346  20896850.81446
      2483.736        1935.378  
 103977570.143    81021504.5314   19786273.905 8  19786273.38447  19786277.04447
      3172.610        2472.162  
 113056115.547    87932552.737    21209041.991 7  21209041.446 7  21209048.623 6
       583.082         453.512  
 103728815.186    80677984.903    19411432.599 7  19411432.388 7  19411436.119 6
      3933.784        3059.612  
 122028402.210    95087081.7454   23221236.652 7  23221236.90845  23221241.85345
      -132.049        -102.887  
 108851572.135    84662355.016    20355792.680 7  20355792.132 6  20355796.293 7
      1783.411        1387.095  
 118579119.839    92399335.4414   22564857.592 7  22564857.53945  22564860.48745
      1106.375         862.118  
 111061522.196    86541467.9414   21134301.280 8  21134301.09446  21134303.67946
      5207.775        4058.004  
 120437889.510    93673933.118    22570008.464 6  22570007.573 6  22570012.821 7
      2073.137        1612.442  
 108691350.097    84537742.041    20311570.304 8  20311569.663 8  20311571.669 7
      6087.472        4734.698  
 126766380.158    98779018.9204   24122835.842 6  24122836.28643  24122842.98843
      6005.268        4679.387  
 126954045.469    98925259.3044   24158545.101 7  24158544.34044  24158553.19844
      6567.122        5117.228  
 119224944.452    92730536.067    22319154.980 7  22319154.122 7  22319160.277 7
      6868.775        5342.380  
 124817316.726    97260268.6224   23751942.146 6  23751941.25343  23751945.62743
      6147.086        4789.922  
 11  5 30 15 27 15.0000000  0 14G27G 9R10R11G15R20G17G12R 2R21G 4G25
                                R12G14                              
 109801260.556    85559441.2694   20894485.012 7  20894484.54546  20894488.68846
      2481.442        1933.593  
 103961715.201    81009150.0284   19783256.620 8  19783256.26747  19783259.94546
      3169.293        2469.577  
 113053205.500    87930289.363    21208495.396 7  21208495.142 7  21208502.913 6
       580.894         451.800  
 103709153.125    80662692.191    19407752.988 7  19407753.087 7  19407756.732 6
      3931.000        3057.444  
 122029066.010    95087598.9804   23221363.038 7  23221363.32345  23221368.25645
      -133.505        -104.025  
 108842666.137    84655428.126    20354127.163 6  20354126.541 6  20354130.836 7
      1779.073        1383.720  
 118573594.597    92395030.0494   22563806.334 7  22563806.06945  22563809.10345
      1103.627         859.966  
 111035489.013    86521182.3484   21129346.719 8  21129347.08846  21129349.73246
      5205.521        4056.249  
 120427535.194    93665879.766    22568067.767 6  22568066.998 6  22568072.357 7
      2068.548        1608.858  
 108660922.862    84514076.419    20305884.320 8  20305883.433 8  20305885.494 7
      6083.431        4731.562  
 126736358.738    98755625.6274   24117123.358 6  24117123.49943  24117130.17943
      6003.303        4677.909  
 126921211.287    98899674.2444   24152296.965 7  24152296.39544  24152304.72344
      6566.443        5116.686  
 119190602.582    92703825.730    22312724.928 7  22312725.077 7  22312731.128 6
      6868.072        5341.835  
 124786587.519    97236323.8034   23746094.168 6  23746093.76643  23746098.17643
      6144.624        4788.021  
 11  5 30 15 27 20.0000000  0 14G27G 9R10R11G15R20G17G12R 2R21G 4G25
                                R12G14                              
 109788858.848    85549777.5974   20892124.915 8  20892124.60346  20892128.70946
      2479.170        1931.825  
 103945876.857    80996808.4574   19780242.643 8  19780242.27747  19780246.02047
      3165.959        2466.986  
 113050306.313    87928034.431    21207952.055 7  21207951.531 7  21207958.692 6
       578.708         450.112  
 103689505.447    80647410.663    19404076.585 7  19404076.150 7  19404079.835 6
      3927.874        3055.011  
 122029736.884    95088121.7244   23221490.760 7  23221490.91045  23221496.01845
      -134.821        -105.055  
 108833782.827    84648518.879    20352465.586 7  20352465.262 6  20352469.661 7
      1774.322        1380.043  
 118568082.534    92390734.9314   22562757.287 7  22562757.02945  22562760.16545
      1101.024         857.945  
 111009466.801    86500905.3034   21124395.607 8  21124395.25746  21124397.93346
      5203.275        4054.503  
 120417202.589    93657843.287    22566131.268 6  22566130.970 6  22566135.728 7
      2064.500        1605.729  
 108630514.954    84490425.829    20300201.384 8  20300200.998 8  20300203.064 7
      6079.554        4728.549  
 126706346.431    98732239.4324   24111412.475 6  24111412.56243  24111419.07543
      6001.536        4676.506  
 126888381.762    98874092.8194   24146049.768 7  24146049.00544  24146057.18644
      6565.365        5115.852  
 119156264.735    92677118.521    22306297.568 7  22306296.597 6  22306303.003 6
      6867.062        5341.043  
 124755869.455    97212387.6524   23740249.178 6  23740248.12943  23740252.89843
      6142.811        4786.604  
 11  5 30 15 27 25.0000000  0 14G27G 9R10R11G15R20G17G12R 2R21G 4G25
                                R12G14                              
 109776468.392    85540122.6964   20889767.186 8  20889766.71846  20889770.89246
      2476.965        1930.109  
 103930055.073    80984479.7954   19777231.942 8  19777231.45347  19777235.26947
      3162.811        2464.537  
 113047417.843    87925787.835    21207410.062 7  21207409.594 7  21207416.654 6
       576.591         448.469  
 103669872.162    80632140.333    19400401.755 7  19400402.040 7  19400405.713 6
      3925.227        3052.956  
 122030414.790    95088649.9494   23221620.042 7  23221619.86745  23221624.89745
      -136.251        -106.160  
 108824921.794    84641626.964    20350808.118 6  20350808.218 6  20350812.469 7
      1770.159        1376.785  
 118562583.618    92386450.0614   22561710.996 7  22561710.53545  22561713.61945
      1098.503         855.984  
 110983455.484    86480636.7434   21119445.477 8  21119445.52646  21119448.13246
      5201.167        4052.854  
 120406891.518    93649823.565    22564199.664 6  22564198.699 6  22564203.512 7
      2059.990        1602.226  
 108600126.484    84466790.358    20294523.192 8  20294522.324 8  20294524.217 7
      6075.810        4725.638  
 126676343.372    98708860.4294   24105703.525 6  24105703.24243  24105709.73143
      5999.675        4675.080  
 126855556.818    98848514.9434   24139802.812 7  24139802.80644  24139810.40344
      6564.500        5115.209  
 119121930.814    92650414.366    22299870.489 7  22299869.541 7  22299875.235 6
      6866.237        5340.405  
 124725162.582    97188460.2394   23734405.049 6  23734404.66243  23734409.61743
      6140.188        4784.576  
 11  5 30 15 27 30.0000000  0 14G27G 9R10R11G15R20G17G12R 2R21G 4G25
                                R12G14                              
 109764089.270    85530476.6284   20887411.577 8  20887411.14046  20887415.25246
      2474.634        1928.282  
 103914249.960    80972164.1214   19774224.335 8  19774223.96847  19774227.67747
      3159.401        2461.872  
 113044540.255    87923549.700    21206870.391 7  21206870.000 7  21206877.164 6
       574.373         446.727  
 103650253.395    80616881.288    19396730.425 7  19396730.649 7  19396734.475 6
      3922.273        3050.654  
 122031099.804    95089183.7174   23221750.072 7  23221750.11945  23221755.13645
      -137.676        -107.258  
 108816083.378    84634752.639    20349154.767 6  20349155.354 6  20349159.643 7
      1765.228        1372.955  
 118557097.883    92382175.4574   22560666.729 7  22560666.71545  22560669.79145
      1095.835         853.890  
 110957455.141    86460376.7424   21114497.534 8  21114497.64346  21114500.49146
      5198.960        4051.131  
 120396602.076    93641820.678    22562270.955 6  22562270.396 6  22562275.517 7
      2055.559        1598.765  
 108569757.527    84443170.063    20288847.603 8  20288847.238 8  20288848.984 7
      6071.816        4722.516  
 126646349.447    98685488.5544   24099995.758 6  24099995.39443  24100002.48743
      5997.946        4673.711  
 126822736.546    98822940.7184   24133557.797 7  24133556.92744  24133564.72144
      6563.640        5114.511  
 119087600.927    92623713.339    22293443.532 7  22293443.421 7  22293448.338 6
      6865.569        5339.890  
 124694467.069    97164541.6614   23728564.841 6  23728563.95643  23728568.28643
      6137.667        4782.585  
 11  5 30 15 27 35.0000000  0 14G27G 9R10R11G15R20G17G12R 2R21G 4G25
                                R12G14                              
 109751721.439    85520839.3504   20885058.105 8  20885057.61746  20885061.72146
      2472.517        1926.642  
 103898461.455    80959861.3894   19771219.778 8  19771219.35847  19771223.21447
      3156.083        2459.294  
 113041673.460    87921319.966    21206333.108 7  21206332.270 7  21206339.331 6
       572.291         445.107  
 103630649.050    80601633.467    19393062.459 7  19393062.073 7  19393065.837 6
      3919.428        3048.441  
 122031791.845    95089722.9544   23221882.021 7  23221881.84945  23221886.76645
      -139.124        -108.412  
 108807267.475    84627895.826    20347507.008 6  20347506.922 6  20347510.975 7
      1760.902        1369.590  
 118551625.346    92377911.1354   22559625.299 7  22559625.38645  22559628.25445
      1093.251         851.879  
 110931465.716    86440125.2454   21109552.219 8  21109552.01746  21109554.93046
      5196.765        4049.433  
 120386334.274    93633834.611    22560346.461 6  22560345.844 6  22560351.751 7
      2051.444        1595.576  
 108539407.899    84419564.801    20283176.277 8  20283175.597 8  20283177.334 7
      6068.049        4719.590  
 126616364.725    98662123.8444   24094289.961 6  24094289.30143  24094296.44043
      5996.174        4672.356  
 126789920.915    98797370.1094   24127312.908 7  24127312.40644  24127320.38544
      6562.713        5113.799  
 119053275.087    92597015.460    22287017.646 7  22287016.978 7  22287022.399 6
      6864.853        5339.325  
 124663782.746    97140631.8184   23722725.007 6  23722724.91843  23722729.27443
      6136.040        4781.314  
 11  5 30 15 27 40.0000000  0 14G27G 9R10R11G15R20G17G12R 2R21G 4G25
                                R12G14                              
 109739365.093    85511211.0274   20882706.654 8  20882706.21046  20882710.42346
      2470.267        1924.878  
 103882689.756    80947571.7534   19768218.453 8  19768218.14847  19768221.90847
      3152.747        2456.686  
 113038817.515    87919098.668    21205796.707 7  21205796.176 7  21205803.655 6
       570.235         443.522  
 103611059.281    80586396.977    19389396.284 7  19389395.936 7  19389399.765 6
      3916.625        3046.265  
 122032491.096    95090267.8174   23222015.100 7  23222014.86345  23222019.87345
      -140.464        -109.446  
 108798474.315    84621056.698    20345862.399 7  20345862.645 6  20345866.550 7
      1756.280        1365.995  
 118546166.132    92373657.1994   22558586.366 7  22558586.47445  22558589.52945
      1090.696         849.886  
 110905487.430    86419882.4244   21104608.651 8  21104608.53546  21104611.31946
      5194.646        4047.771  
 120376088.231    93625865.452    22558425.897 6  22558425.194 6  22558431.905 7
      2047.218        1592.278  
 108509077.937    84395974.836    20277508.208 8  20277507.862 8  20277509.434 7
      6064.102        4716.519  
 126586389.404    98638766.4674   24088585.751 6  24088585.14043  24088592.38543
      5994.436        4671.000  
 126757110.095    98771803.2524   24121069.064 7  24121068.52344  24121076.56644
      6561.814        5113.109  
 119018953.442    92570320.854    22280591.385 7  22280591.318 6  22280597.486 7
      6863.985        5338.653  
 124633109.980    97116730.9704   23716888.665 6  23716888.00643  23716892.68543
      6133.295        4779.174  
 11  5 30 15 27 45.0000000  0 14G27G 9R10R11G15R20G17G12R 2R21G 4G25
                                R12G14                              
 109727020.108    85501591.5574   20880357.319 8  20880357.05846  20880361.32746
      2467.867        1923.018  
 103866934.773    80935295.1424   19765220.429 8  19765220.13147  19765223.83647
      3149.366        2454.057  
 113035972.380    87916885.780    21205262.651 7  21205262.270 7  21205269.837 6
       567.933         441.728  
 103591484.044    80571171.794    19385732.709 7  19385732.719 7  19385736.692 6
      3913.607        3043.919  
 122033197.465    95090818.2274   23222149.252 7  23222149.32745  23222154.28545
      -142.058        -110.691  
 108789703.589    84614235.016    20344222.868 7  20344222.497 6  20344226.410 7
      1752.012        1362.676  
 118540720.100    92369413.5304   22557550.023 7  22557550.17945  22557553.13445
      1087.922         847.745  
 110879520.191    86399648.2194   21099666.942 8  21099667.09446  21099669.88546
      5192.409        4046.038  
 120365863.791    93617913.108    22556509.995 6  22556509.001 6  22556515.576 7
      2042.422        1588.551  
 108478767.558    84372400.100    20271844.042 8  20271843.379 8  20271845.358 7
      6060.211        4713.509  
 126556423.339    98615416.3114   24082882.875 6  24082882.58343  24082889.82843
      5992.534        4669.495  
 126724304.013    98746240.0934   24114826.512 7  24114825.87244  24114833.94244
      6560.722        5112.237  
 118984635.939    92543629.481    22274167.533 7  22274167.215 6  22274173.712 7
      6862.843        5337.766  
 124602448.486    97092838.9134   23711052.753 6  23711053.53143  23711057.61443
      6131.049        4777.444  
 11  5 30 15 27 50.0000000  0 14G27G 9R10R11G15R20G17G12R 2R21G 4G25
                                R12G14                              
 109714686.409    85491980.8814   20878010.481 8  20878010.08046  20878014.28246
      2465.599        1921.244  
 103851196.425    80923031.4924   19762225.691 8  19762225.26147  19762228.92747
      3145.961        2451.397  
 113033138.071    87914681.296    21204731.218 7  21204730.714 7  21204737.728 6
       565.696         439.991  
 103571923.244    80555957.839    19382072.621 7  19382072.225 7  19382076.136 6
      3910.740        3041.688  
 122033910.836    95091374.0874   23222284.727 7  23222285.17545  23222290.09345
      -143.403        -111.747  
 108780955.338    84607430.819    20342586.299 7  20342586.325 6  20342590.405 7
      1747.616        1359.258  
 118535287.156    92365180.0644   22556516.357 7  22556516.32845  22556519.29845
      1085.303         845.702  
 110853563.892    86379422.5354   21094727.725 8  21094727.74746  21094730.57746
      5190.161        4044.275  
 120355660.922    93609977.526    22554597.990 6  22554597.585 6  22554603.271 7
      2038.470        1585.481  
 108448476.596    84348840.467    20266183.480 8  20266182.820 8  20266184.727 7
      6056.227        4710.397  
 126526466.626    98592073.4284   24077181.571 6  24077181.91943  24077189.26743
      5990.365        4667.813  
 126691502.551    98720680.5414   24108584.829 7  24108584.24044  24108592.42344
      6559.830        5111.550  
 118950322.454    92516941.226    22267744.257 7  22267744.110 6  22267750.614 7
      6862.293        5337.341  
 124571798.270    97068955.6244   23705220.710 6  23705220.99143  23705225.25343
      6128.850        4775.726  
 11  5 30 15 27 55.0000000  0 14G27G 9R10R11G15R20G17G12R 2R21G 4G25
                                R12G14                              
 109702364.058    85482379.0454   20875665.520 8  20875665.19046  20875669.39346
      2463.361        1919.499  
 103835474.751    80910780.8354   19759233.998 8  19759233.49947  19759237.16947
      3142.776        2448.918  
 113030314.593    87912485.250    21204201.022 7  21204200.945 7  21204207.990 6
       563.588         438.337  
 103552376.941    80540755.161    19378414.318 7  19378414.505 7  19378418.312 6
      3907.985        3039.548  
 122034631.270    95091935.4514   23222422.133 7  23222422.28445  23222427.10845
      -144.699        -112.763  
 108772229.460    84600644.027    20340954.434 6  20340954.447 6  20340958.633 7
      1742.932        1355.615  
 118529867.423    92360956.8864   22555485.035 7  22555485.03645  22555488.05045
      1082.678         843.651  
 110827618.627    86359205.4484   21089790.364 8  21089790.55346  21089793.32246
      5187.975        4042.573  
 120345479.627    93602058.733    22552689.905 6  22552689.475 6  22552694.891 7
      2034.345        1582.276  
 108418205.224    84325296.070    20260526.432 8  20260525.858 8  20260527.930 7
      6052.380        4707.405  
 126496519.196    98568737.7984   24071482.882 6  24071483.25043  24071490.65743
      5988.689        4666.484  
 126658705.843    98695124.6894   24102343.812 7  24102343.32944  24102351.22944
      6558.945        5110.868  
 118916013.075    92490256.175    22261321.546 7  22261321.365 7  22261327.943 7
      6861.573        5336.773  
 124541159.475    97045081.2514   23699390.451 6  23699390.34343  23699394.83743
      6126.783        4774.119  
 11  5 30 15 28  0.0000000  0 14G27G 9R10R11G15R20G17G12R 2R21G 4G25
                                R12G14                              
 109690052.845    85472785.8914   20873322.585 8  20873322.43046  20873326.61346
      2461.253        1917.860  
 103819769.531    80898543.0024   19756245.343 8  19756244.88147  19756248.54247
      3139.468        2446.341  
 113027501.565    87910297.354    21203674.023 7  21203673.539 7  21203680.377 6
       561.638         436.827  
 103532844.945    80525563.606    19374759.279 7  19374759.279 7  19374763.139 6
      3905.250        3037.417  
 122035358.514    95092502.1224   23222560.506 7  23222560.63245  23222565.59545
      -146.147        -113.886  
 108763525.733    84593874.459    20339327.120 6  20339326.679 6  20339331.022 7
      1738.333        1352.038  
 118524460.650    92356743.8114   22554456.418 7  22554456.22645  22554459.17445
      1080.092         841.618  
 110801684.166    86338996.7814   21084855.418 8  21084855.41346  21084858.21846
      5185.744        4040.840  
 120335319.806    93594156.654    22550786.049 6  22550785.336 6  22550790.762 7
      2029.838        1578.758  
 108387953.136    84301766.681    20254873.311 8  20254872.608 8  20254874.569 7
      6048.439        4704.342  
 126466580.892    98545409.2814   24065787.136 6  24065786.34143  24065793.32843
      5986.610        4664.894  
 126625913.585    98669572.3014   24096103.590 7  24096103.11144  24096110.89344
      6558.094        5110.191  
 118881707.618    92463574.173    22254899.782 7  22254899.265 7  22254905.767 7
      6860.588        5336.004  
 124510531.813    97021215.5434   23693562.510 6  23693562.03343  23693566.22943
      6124.480        4772.326  
 11  5 30 15 28  5.0000000  0 14G27G 9R10R11G15R20G17G12R 2R21G 4G25
                                R12G14                              
 109677752.920    85463201.5304   20870982.028 7  20870981.86346  20870986.03446
      2458.853        1915.989  
 103804080.946    80886318.1294   19753259.842 8  19753259.46047  19753263.15347
      3135.924        2443.578  
 113024699.354    87908117.842    21203148.147 7  21203147.765 7  21203154.854 6
       559.343         435.051  
 103513327.385    80510383.282    19371106.841 7  19371106.705 7  19371110.490 6
      3901.999        3034.880  
 122036092.746    95093074.2344   23222699.999 7  23222700.33845  23222705.50645
      -147.598        -114.998  
 108754844.502    84587122.389    20337703.060 6  20337703.269 6  20337707.529 7
      1733.951        1348.639  
 118519066.951    92352540.9324   22553429.932 7  22553429.82845  22553432.81245
      1077.327         839.492  
 110775760.642    86318796.6284   21079923.034 8  21079922.51046  21079925.10046
      5183.577        4039.154  
 120325181.469    93586271.274    22548884.943 6  22548884.564 6  22548891.418 7
      2025.711        1575.571  
 108357720.651    84278252.530    20249223.487 8  20249222.991 8  20249224.803 7
      6044.605        4701.356  
 126436651.893    98522087.9834   24060092.038 6  24060091.55843  24060097.94143
      5984.849        4663.522  
 126593126.019    98644023.5704   24089863.938 7  24089863.70044  24089871.15644
      6557.074        5109.384  
 118847406.178    92436895.282    22248479.192 7  22248478.435 7  22248484.221 7
      6859.768        5335.382  
 124479915.469    96997358.6584   23687736.271 6  23687735.65843  23687739.87443
      6122.004        4770.403  
 11  5 30 15 28 10.0000000  0 14G27G 9R10R11G15R20G17G12R 2R21G 4G25
                                R12G14                              
 109665464.451    85453626.0984   20868643.991 8  20868643.40846  20868647.57046
      2456.626        1914.259  
 103788409.163    80874106.3494   19750277.567 8  19750277.14447  19750280.91147
      3132.696        2441.058  
 113021908.077    87905946.832    21202624.149 7  21202624.045 7  21202631.271 6
       557.289         433.455  
 103493824.549    80495214.412    19367457.710 7  19367457.132 7  19367460.960 6
      3899.392        3032.849  
 122036834.088    95093651.8884   23222841.709 7  23222841.46245  23222846.56445
      -148.860        -115.997  
 108746185.828    84580387.864    20336084.859 6  20336084.187 6  20336088.178 7
      1729.516        1345.183  
 118513686.477    92348348.3544   22552406.186 7  22552405.94845  22552408.87745
      1074.979         837.645  
 110749848.222    86298605.1354   21074991.816 8  21074991.61146  21074994.21946
      5181.541        4037.565  
 120315064.808    93578402.735    22546988.706 6  22546988.202 6  22546995.217 7
      2020.850        1571.776  
 108327507.713    84254753.584    20243578.079 8  20243577.136 8  20243578.750 7
      6040.732        4698.354  
 126406732.355    98498774.0654   24054399.201 6  24054398.53943  24054404.54643
      5983.100        4662.140  
 126560343.282    98618478.5884   24083625.634 7  24083625.20044  24083632.83944
      6556.055        5108.601  
 118813109.016    92410219.701    22242058.755 7  22242058.349 7  22242063.338 7
      6859.070        5334.829  
 124449310.618    96973510.7244   23681912.570 6  23681912.28643  23681916.15743
      6120.154        4768.974  
 11  5 30 15 28 15.0000000  0 14G27G 9R10R11G15R20G17G12R 2R21G 4G25
                                R12G14                              
 109653187.368    85444059.5394   20866307.753 8  20866307.25646  20866311.33046
      2454.266        1912.417  
 103772754.094    80861907.5934   19747298.541 8  19747298.03647  19747301.80346
      3129.414        2438.509  
 113019127.609    87903784.237    21202102.622 7  21202102.337 7  21202109.426 6
       555.144         431.791  
 103474336.278    80480056.867    19363810.055 7  19363810.173 7  19363813.975 6
      3896.097        3030.287  
 122037582.445    95094235.0104   23222983.835 7  23222983.96145  23222989.10145
      -150.419        -117.211  
 108737549.656    84573670.841    20334468.831 7  20334469.091 6  20334473.228 7
      1725.060        1341.712  
 118508319.173    92344166.0374   22551384.682 7  22551384.59945  22551387.53145
      1072.160         835.446  
 110723946.872    86278422.2684   21070062.857 8  21070062.66646  21070065.35246
      5179.181        4035.723  
 120304969.807    93570551.053    22545098.538 6  22545097.072 6  22545103.593 7
      2016.856        1568.674  
 108297314.447    84231269.937    20237935.382 8  20237934.791 8  20237936.349 7
      6036.770        4695.266  
 126376822.159    98475467.4354   24048706.470 6  24048706.44243  24048712.42343
      5981.139        4660.644  
 126527565.271    98592937.2914   24077388.116 7  24077387.74244  24077395.58844
      6555.251        5107.995  
 118778815.936    92383547.302    22235638.632 7  22235638.157 7  22235643.593 6
      6858.312        5334.239  
 124418717.220    96949671.7184   23676091.166 6  23676090.42143  23676094.72443
      6117.687        4767.003  
 11  5 30 15 28 20.0000000  0 14G27G 9R10R11G15R20G17G12R 2R21G 4G25
                                R12G14                              
 109640921.519    85434501.7314   20863973.510 7  20863973.14746  20863977.20346
      2451.953        1910.613  
 103757115.639    80849721.7834   19744322.698 8  19744322.20847  19744325.89747
      3125.915        2435.783  
 113016357.797    87901629.925    21201583.350 7  21201582.666 7  21201589.819 6
       552.861         430.007  
 103454862.384    80464910.506    19360166.236 7  19360166.022 7  19360169.569 6
      3893.253        3028.097  
 122038337.658    95094823.4754   23223127.381 7  23223127.49945  23223132.75045
      -151.834        -118.304  
 108728935.803    84566971.180    20332859.023 7  20332858.344 6  20332862.295 7
      1720.279        1337.999  
 118502964.837    92339993.8314   22550365.620 7  22550365.65645  22550368.71845
      1069.504         833.394  
 110698056.413    86258247.8894   21065135.843 8  21065135.73146  21065138.47246
      5176.919        4033.969  
 120294896.165    93562715.999    22543210.207 6  22543210.075 6  22543215.678 7
      2012.712        1565.448  
 108267140.659    84207801.445    20232296.953 8  20232296.249 8  20232297.825 7
      6032.746        4692.138  
 126346921.259    98452168.0394   24043016.662 6  24043016.22843  24043022.54643
      5979.224        4659.160  
 126494791.853    98567399.5784   24071151.226 6  24071150.95344  24071158.84544
      6554.160        5107.131  
 118744526.955    92356878.105    22229217.809 7  22229218.186 7  22229224.847 6
      6857.348        5333.493  
 124388135.121    96925841.5034   23670271.838 6  23670270.61843  23670275.29043
      6115.001        4764.950  
 11  5 30 15 28 25.0000000  0 14G27G 9R10R11G15R20G17G12R 2R21G 4G25
                                R12G14                              
 109628666.998    85424952.7574   20861641.790 8  20861641.20446  20861645.32846
      2449.794        1908.928  
 103741493.840    80837548.9524   19741350.002 8  19741349.46347  19741353.23047
      3122.703        2433.280  
 113013598.746    87899483.991    21201065.322 7  21201065.205 7  21201072.006 6
       550.820         428.419  
 103435402.995    80449775.430    19356524.116 7  19356524.440 7  19356528.066 6
      3890.507        3025.949  
 122039099.804    95095417.3414   23223272.475 7  23223272.43445  23223277.65545
      -152.918        -119.146  
 108720344.433    84560289.002    20331252.405 7  20331251.858 6  20331255.691 7
      1716.127        1334.767  
 118497623.644    92335831.8494   22549349.320 7  22549349.25945  22549352.38045
      1067.055         831.474  
 110672177.001    86238082.1214   21060211.141 8  21060210.94446  21060213.94346
      5174.807        4032.317  
 120284844.077    93554897.723    22541328.196 7  22541327.079 6  22541331.682 7
      2008.293        1562.010  
 108236986.530    84184348.237    20226661.790 8  20226661.229 8  20226662.686 7
      6028.891        4689.134  
 126317029.791    98428875.9994   24037328.215 6  24037327.98543  24037334.35743
      5977.285        4657.657  
 126462023.191    98541865.5734   24064915.527 7  24064914.94744  24064923.37344
      6553.335        5106.459  
 118710242.165    92330212.170    22222800.145 7  22222800.045 7  22222806.455 7
      6856.644        5332.951  
 124357564.423    96902020.1834   23664453.939 6  23664453.25943  23664457.60443
      6112.919        4763.337  
 11  5 30 15 28 30.0000000  0 14G27G 9R10R11G15R20G17G12R 2R21G 4G25
                                R12G14                              
 109616423.880    85415412.6604   20859312.162 8  20859311.43346  20859315.44846
      2447.477        1907.125  
 103725888.741    80825389.1344   19738380.546 8  19738379.94547  19738383.62147
      3119.356        2430.666  
 113010850.519    87897346.474    21200550.331 7  21200549.780 7  21200556.723 6
       548.556         426.657  
 103415958.253    80434651.741    19352885.953 7  19352885.656 7  19352889.243 6
      3887.457        3023.582  
 122039868.967    95096016.6754   23223418.830 7  23223418.93145  23223423.97945
      -154.454        -120.356  
 108711775.452    84553624.236    20329649.869 6  20329649.277 6  20329653.295 7
      1711.547        1331.203  
 118492295.557    92331680.0864   22548335.228 7  22548335.27645  22548338.50945
      1064.398         829.398  
 110646308.631    86217924.9474   21055288.264 8  21055288.50846  21055291.31146
      5172.512        4030.533  
 120274813.549    93547096.200    22539448.467 7  22539447.806 6  22539451.642 6
      2004.033        1558.694  
 108206852.054    84160910.309    20221030.003 8  20221029.814 8  20221031.282 7
      6024.913        4686.044  
 126287147.760    98405591.3174   24031641.770 6  24031641.57443  24031648.42743
      5975.372        4656.124  
 126429259.284    98516335.2724   24058680.519 6  24058679.96244  24058688.47644
      6552.455        5105.826  
 118675961.559    92303549.478    22216384.111 7  22216383.386 7  22216389.010 7
      6855.529        5332.073  
 124327005.222    96878207.8274   23658638.401 6  23658638.03643  23658642.26943
      6111.005        4761.826  
 11  5 30 15 28 35.0000000  0 14G27G 9R10R11G15R20G17G12R 2R21G 4G25
                                R12G14                              
 109604192.155    85405881.4444   20856984.184 8  20856983.79546  20856987.90546
      2445.113        1905.289  
 103710300.393    80813242.3684   19735413.807 8  19735413.56047  19735417.31646
      3116.096        2428.127  
 113008113.165    87895217.415    21200036.576 7  21200036.315 7  21200043.834 6
       546.422         424.987  
 103396528.172    80419539.452    19349249.923 7  19349249.560 7  19349253.318 6
      3884.556        3021.319  
 122040645.118    95096621.4594   23223566.341 7  23223566.62645  23223571.65445
      -156.008        -121.561  
 108703228.893    84546976.913    20328050.726 6  20328050.832 6  20328054.982 7
      1707.105        1327.747  
 118486980.615    92327538.5724   22547323.989 7  22547323.89445  22547327.04045
      1061.532         827.159  
 110620451.298    86197776.3834   21050367.659 8  21050368.00246  21050370.79746
      5170.375        4028.857  
 120264804.552    93539311.431    22537572.875 7  22537572.003 6  22537576.181 7
      1999.767        1555.375  
 108176737.323    84137487.752    20215402.494 8  20215401.882 8  20215403.812 7
      6021.028        4683.021  
 126257275.162    98382313.9884   24025956.695 6  24025957.05543  24025963.59543
      5973.514        4654.687  
 126396500.138    98490808.6764   24052446.809 7  24052446.16344  24052454.52244
      6551.422        5104.998  
 118641685.136    92276890.040    22209967.929 7  22209967.315 7  22209972.365 7
      6854.863        5331.569  
 124296457.512    96854404.4294   23652825.617 6  23652825.18943  23652829.12843
      6108.209        4759.624  
 11  5 30 15 28 40.0000000  0 14G27G 9R10R11G15R20G17G12R 2R21G 4G25
                                R12G14                              
 109591971.898    85396359.1644   20854658.898 8  20854658.36346  20854662.43246
      2442.906        1903.557  
 103694728.860    80801108.7064   19732450.561 8  19732450.43946  19732454.08946
      3112.588        2425.396  
 113005386.489    87893096.664    21199525.711 7  21199525.067 7  21199531.869 6
       544.210         423.262  
 103377112.627    80404438.476    19345616.360 7  19345616.101 7  19345619.732 6
      3881.522        3018.975  
 122041428.311    95097231.7224   23223715.800 7  23223715.97245  23223720.67145
      -157.433        -122.672  
 108694704.809    84540347.063    20326457.423 7  20326456.905 6  20326460.995 7
      1702.606        1324.250  
 118481678.846    92323407.3094   22546315.189 7  22546314.98445  22546318.16345
      1059.149         825.313  
 110594605.145    86177636.5274   21045449.754 7  21045449.68146  21045452.45546
      5168.113        4027.093  
 120254817.231    93531543.512    22535700.249 7  22535700.243 6  22535704.938 7
      1995.430        1552.005  
 108146642.291    84114080.517    20209778.384 8  20209777.885 8  20209779.765 7
      6017.002        4679.880  
 126227412.154    98359044.1444   24020273.550 6  24020274.13043  24020280.01843
      5971.757        4653.319  
 126363745.861    98465285.8904   24046213.879 6  24046213.09444  24046221.84544
      6550.528        5104.292  
 118607413.007    92250233.944    22203551.557 7  22203551.321 7  22203556.548 7
      6854.007        5330.889  
 124265921.340    96830610.0244   23647015.087 6  23647014.48143  23647018.41643
      6106.211        4758.082  
 11  5 30 15 28 45.0000000  0 14G27G 9R10R11G15R20G17G12R 2R21G 4G25
                                R12G14                              
 109579763.032    85386845.7594   20852335.635 8  20852335.13246  20852339.13746
      2440.589        1901.764  
 103679174.052    80788988.0764   19729490.889 8  19729490.41946  19729494.12847
      3109.274        2422.821  
 113002670.697    87890984.377    21199015.991 7  21199015.480 7  21199021.994 6
       542.061         421.612  
 103357711.744    80389348.896    19341985.695 7  19341985.470 7  19341989.479 6
      3878.690        3016.754  
 122042218.422    95097847.3774   23223866.176 7  23223866.48345  23223871.16345
      -158.685        -123.645  
 108686203.122    84533734.633    20324867.594 6  20324866.869 6  20324871.092 7
      1698.120        1320.765  
 118476390.198    92319286.2794   22545308.806 7  22545308.65245  22545311.79245
      1056.432         823.207  
 110568770.037    86157505.2724   21040533.777 8  21040533.59046  21040536.27546
      5165.929        4025.401  
 120244851.424    93523792.323    22533833.289 7  22533833.106 6  22533837.674 7
      1991.123        1548.656  
 108116566.999    84090688.625    20204158.099 8  20204157.553 8  20204159.528 7
      6013.096        4676.851  
 126197558.609    98335781.6554   24014592.910 6  24014592.99043  24014599.54043
      5969.985        4651.919  
 126330996.356    98439766.8114   24039981.982 7  24039981.48944  24039989.52444
      6549.455        5103.482  
 118573145.063    92223581.101    22197136.402 7  22197135.791 7  22197141.837 7
      6853.090        5330.190  
 124235396.741    96806824.6204   23641206.766 6  23641205.89643  23641209.97243
      6103.819        4756.205  
 11  5 30 15 28 50.0000000  0 14G27G 9R10R11G15R20G17G12R 2R21G 4G25
                                R12G14                              
 109567565.663    85377341.3124   20850014.562 8  20850014.10246  20850018.05846
      2438.431        1900.072  
 103663636.111    80776880.5894   19726534.076 8  19726533.67546  19726537.34846
      3105.948        2420.223  
 112999965.843    87888880.601    21198507.808 7  21198507.764 7  21198514.611 6
       539.939         419.956  
 103338325.540    80374270.742    19338357.448 7  19338357.619 7  19338361.458 6
      3875.725        3014.437  
 122043015.602    95098468.5504   23224018.503 7  23224018.11245  23224022.70145
      -160.056        -124.727  
 108677723.893    84527139.681    20323281.111 6  20323281.350 6  20323285.395 7
      1693.800        1317.386  
 118471114.733    92315175.5314   22544304.879 7  22544304.67245  22544307.79345
      1053.867         821.204  
 110542946.082    86137382.7134   21035619.660 8  21035619.35846  21035622.11546
      5163.713        4023.668  
 120234907.266    93516057.978    22531968.969 7  22531968.984 6  22531974.139 7
      1986.916        1545.389  
 108086511.671    84067312.263    20198541.619 8  20198541.084 8  20198542.872 7
      6009.105        4673.749  
 126167714.750    98312526.7164   24008914.290 6  24008914.21143  24008920.34043
      5967.961        4650.373  
 126298251.738    98414251.5434   24033751.057 6  24033750.57444  24033758.58644
      6548.453        5102.681  
 118538881.498    92196931.672    22190721.112 7  22190721.056 7  22190727.552 7
      6852.190        5329.477  
 124204883.719    96783048.2504   23635400.591 6  23635399.75143  23635403.87243
      6101.488        4754.401  
 11  5 30 15 28 55.0000000  0 14G27G 9R10R11G15R20G17G12R 2R21G 4G25
                                R12G14                              
 109555379.852    85367845.8744   20847695.623 8  20847695.10346  20847699.16646
      2435.963        1898.153  
 103648115.069    80764786.2704   19723580.626 8  19723580.16047  19723583.84247
      3102.427        2417.471  
 112997271.836    87886785.261    21198002.691 7  21198002.451 7  21198009.602 6
       537.548         418.097  
 103318954.136    80359204.093    19334732.598 7  19334732.608 7  19334736.311 6
      3872.816        3012.190  
 122043819.860    95099095.2344   23224170.891 7  23224171.08445  23224175.88645
      -161.514        -125.860  
 108669267.269    84520562.302    20321699.859 6  20321700.019 6  20321704.032 7
      1688.842        1313.546  
 118465852.516    92311075.0984   22543303.634 7  22543303.37345  22543306.54745
      1051.072         819.020  
 110517133.352    86117268.9024   21030707.667 8  21030707.39046  21030710.01446
      5161.450        4021.906  
 120224984.691    93508340.413    22530109.295 6  22530108.732 6  22530114.099 7
      1982.397        1541.866  
 108056476.070    84043951.248    20192928.769 8  20192928.230 8  20192930.029 7
      6005.139        4670.665  
 126137880.587    98289279.3364   24003237.143 6  24003237.32543  24003243.34043
      5965.788        4648.645  
 126265512.051    98388740.1254   24027521.376 7  24027520.33944  24027528.45844
      6547.473        5101.921  
 118504622.291    92170285.632    22184307.885 7  22184307.554 7  22184314.250 7
      6851.342        5328.814  
 124174382.415    96759281.0074   23629596.350 6  23629595.42843  23629599.03743
      6098.761        4752.299  
 11  5 30 15 29  0.0000000  0 14G27G 9R10R11G15R20G17G12R 2R21G 4G25
                                R12G14                              
 109543205.706    85358359.5264   20845378.950 8  20845378.44146  20845382.52646
      2433.739        1896.419  
 103632611.036    80752705.2024   19720630.189 8  19720629.87047  19720633.47647
      3099.199        2414.957  
 112994588.984    87884698.585    21197498.864 7  21197499.030 7  21197506.155 6
       535.473         416.475  
 103299597.663    80344149.055    19331110.509 7  19331110.247 7  19331114.164 6
      3869.797        3009.833  
 122044631.315    95099727.5224   23224325.319 7  23224325.62945  23224330.29745
      -162.897        -126.940  
 108660833.305    84514002.553    20320123.673 7  20320122.944 6  20320126.773 7
      1684.646        1310.278  
 118460603.614    92306985.0354   22542304.671 7  22542304.60745  22542307.63345
      1048.574         817.054  
 110491331.985    86097163.9464   21025797.514 8  21025797.46546  21025800.14646
      5159.125        4020.083  
 120215084.012    93500639.876    22528254.025 6  22528253.407 6  22528258.654 7
      1978.027        1538.458  
 108026460.583    84020605.879    20187319.385 8  20187319.077 8  20187320.862 7
      6001.006        4667.446  
 126108056.243    98266039.5844   23997561.251 6  23997561.60843  23997567.48643
      5963.888        4647.167  
 126232777.469    98363232.6654   24021291.183 6  24021291.08044  24021299.54644
      6546.325        5101.004  
 118470367.670    92143643.161    22177895.768 7  22177895.780 7  22177901.596 7
      6850.368        5328.066  
 124143892.888    96735522.9544   23623794.799 6  23623793.44343  23623797.22443
      6096.770        4750.720  
 11  5 30 15 29  5.0000000  0 14G27G 9R10R11G15R20G17G12R 2R21G 4G25
                                R12G14                              
 109531042.974    85348882.0664   20843064.269 8  20843063.95146  20843068.04746
      2431.525        1894.702  
 103617123.774    80740637.2064   19717683.064 8  19717682.73147  19717686.39147
      3095.912        2412.415  
 112991917.001    87882620.366    21196998.360 7  21196997.841 7  21197005.069 6
       533.465         414.934  
 103280255.842    80329105.418    19327491.179 7  19327490.667 7  19327494.633 6
      3866.976        3007.657  
 122045449.700    95100365.2164   23224481.052 7  23224481.31345  23224486.17045
      -164.360        -128.062  
 108652421.873    84507460.330    20318550.019 6  20318550.249 6  20318553.766 7
      1680.111        1306.756  
 118455367.809    92302905.1874   22541308.320 8  22541308.27545  22541311.28445
      1046.001         815.075  
 110465541.721    86077067.6334   21020889.872 8  21020889.69246  21020892.39946
      5157.039        4018.475  
 120205204.791    93492956.039    22526403.323 7  22526402.817 6  22526407.602 7
      1973.839        1535.221  
 107996464.864    83997275.878    20181713.939 8  20181713.653 8  20181715.644 7
      5997.294        4664.570  
 126078241.491    98242807.3254   23991887.350 6  23991887.63043  23991894.11243
      5962.077        4645.763  
 126200047.668    98337728.9474   24015063.220 7  24015062.83844  24015071.06044
      6545.526        5100.412  
 118436117.322    92117004.001    22171484.756 7  22171484.143 7  22171490.074 7
      6849.890        5327.704  
 124113414.963    96711773.9214   23617994.557 6  23617994.04943  23617997.32743
      6094.602        4749.035  
 11  5 30 15 29 10.0000000  0 14G27G 9R10R11G15R20G17G12R 2R21G 4G25
                                R12G14                              
 109518891.381    85339413.2914   20840752.098 8  20840751.63446  20840755.68646
      2429.119        1892.818  
 103601653.010    80728582.0644   19714739.236 8  19714738.73647  19714742.40547
      3092.456        2409.702  
 112989255.495    87880550.292    21196498.391 7  21196498.386 7  21196505.616 6
       531.316         413.256  
 103260928.384    80314072.954    19323873.807 7  19323873.913 7  19323877.773 6
      3863.952        3005.292  
 122046274.729    95101008.0854   23224638.114 7  23224638.33245  23224643.19145
      -165.674        -129.093  
 108644032.579    84500935.317    20316981.433 7  20316981.151 6  20316984.966 7
      1675.618        1303.260  
 118450144.820    92298835.3214   22540314.610 7  22540314.39145  22540317.38545
      1043.177         812.854  
 110439762.331    86056979.8054   21015983.973 8  21015984.09446  21015986.74146
      5154.705        4016.650  
 120195346.808    93485288.721    22524555.732 6  22524555.121 6  22524560.529 7
      1969.426        1531.772  
 107966488.659    83973961.055    20176112.743 8  20176112.000 8  20176113.758 7
      5993.158        4661.342  
 126048436.068    98219582.3474   23986216.153 6  23986215.83243  23986222.32743
      5960.151        4644.284  
 126167322.447    98312228.7914   24008835.492 6  24008835.71344  24008843.88444
      6544.615        5099.709  
 118401870.896    92090367.908    22165073.092 7  22165072.945 7  22165079.321 7
      6848.807        5326.849  
 124082948.387    96688033.7384   23612196.645 6  23612196.28343  23612200.07543
      6092.212        4747.190  
 11  5 30 15 29 15.0000000  0 14G27G 9R10R11G15R20G17G12R 2R21G 4G25
                                R12G14                              
 109506751.136    85329953.3604   20838441.829 8  20838441.41946  20838445.49346
      2426.935        1891.114  
 103586198.960    80716539.9474   19711798.341 8  19711797.98147  19711801.59647
      3089.186        2407.154  
 112986604.644    87878488.512    21196001.627 7  21196001.215 7  21196008.085 6
       529.139         411.542  
 103241615.591    80299051.890    19320260.218 7  19320259.761 7  19320263.710 6
      3861.126        3003.097  
 122047106.621    95101656.2974   23224796.657 7  23224796.51445  23224801.60145
      -167.033        -130.160  
 108635665.340    84494427.458    20315416.616 7  20315416.394 6  20315420.144 7
      1671.089        1299.736  
 118444934.843    92294775.5944   22539323.034 7  22539322.81045  22539325.82745
      1040.698         810.936  
 110413993.948    86036900.5484   21011080.649 8  21011080.56246  21011083.20446
      5152.579        4014.994  
 120185510.217    93477638.030    22522712.140 7  22522711.187 6  22522717.062 7
      1965.199        1528.479  
 107936532.281    83950661.655    20170514.444 8  20170513.864 8  20170515.559 7
      5989.273        4658.314  
 126018640.202    98196364.7994   23980546.812 6  23980546.16743  23980552.49543
      5958.368        4642.877  
 126134601.982    98286732.3404   24002610.085 7  24002609.17744  24002617.41444
      6543.525        5098.845  
 118367628.794    92063735.177    22158662.754 7  22158662.206 7  22158668.697 7
      6848.065        5326.270  
 124052493.326    96664302.5254   23606401.188 6  23606400.57343  23606404.72543
      6089.998        4745.431  
 11  5 30 15 29 20.0000000  0 14G27G 9R10R11G15R20G17G12R 2R21G 4G25
                                R12G14                              
 109494622.429    85320502.4204   20836133.583 8  20836133.40146  20836137.53946
      2424.652        1889.330  
 103570761.833    80704511.0164   19708860.864 8  19708860.31747  19708864.03147
      3085.741        2404.462  
 112983964.678    87876435.201    21195507.054 7  21195506.417 7  21195512.943 6
       526.849         409.751  
 103222317.520    80284042.280    19316648.734 7  19316648.461 7  19316652.346 6
      3858.211        3000.829  
 122047945.575    95102310.0154   23224956.245 7  23224956.16245  23224961.15645
      -168.645        -131.428  
 108627320.508    84487937.041    20313855.700 6  20313855.905 6  20313859.675 7
      1666.813        1296.410  
 118439738.138    92290726.2154   22538334.023 7  22538333.94145  22538337.10545
      1038.080         808.883  
 110388236.856    86016830.0874   21006179.527 8  21006179.19946  21006181.76846
      5150.373        4013.277  
 120175695.326    93470004.226    22520873.538 7  22520872.778 6  22520877.925 7
      1960.728        1525.015  
 107906595.823    83927377.746    20164920.006 8  20164919.452 8  20164921.268 7
      5985.290        4655.226  
 125988854.083    98173154.8624   23974878.205 6  23974877.91843  23974884.59343
      5956.322        4641.251  
 126101886.488    98261239.7744   23996384.475 7  23996383.45944  23996391.64644
      6542.503        5098.018  
 118333391.127    92037105.886    22152254.122 7  22152253.474 7  22152259.157 7
      6847.140        5325.558  
 124022050.047    96640580.4934   23600608.032 6  23600607.37243  23600611.45443
      6087.375        4743.406  
 11  5 30 15 29 25.0000000  0 14G27G 9R10R11G15R20G17G12R 2R21G 4G25
                                R12G14                              
 109482504.996    85311060.2604   20833827.968 8  20833827.47046  20833831.61146
      2422.430        1887.616  
 103555341.309    80692495.0204   19705926.108 8  19705925.99747  19705929.60147
      3082.382        2401.860  
 112981335.350    87874390.160    21195013.223 7  21195012.645 7  21195020.235 6
       524.821         408.194  
 103203034.023    80269044.005    19313039.907 7  19313039.706 7  19313043.548 6
      3855.312        2998.596  
 122048791.221    95102968.9474   23225116.769 7  23225116.92645  23225122.06545
      -169.677        -132.221  
 108618997.986    84481463.959    20312299.016 6  20312299.438 6  20312303.368 7
      1662.443        1293.012  
 118434554.320    92286686.8824   22537347.473 7  22537347.47645  22537350.58145
      1035.489         806.880  
 110362490.699    85996768.1494   21001279.732 8  21001279.81346  21001282.39546
      5148.267        4011.637  
 120165901.633    93462386.915    22519038.209 7  22519037.747 6  22519042.934 7
      1956.638        1521.834  
 107876679.090    83904109.181    20159329.150 8  20159328.631 8  20159330.570 7
      5981.352        4652.162  
 125959077.431    98149952.2834   23969212.112 6  23969211.82043  23969218.25843
      5954.363        4639.769  
 126069175.688    98235750.8494   23990159.251 7  23990158.86544  23990167.25444
      6541.810        5097.497  
 118299157.549    92010479.766    22145845.098 7  22145844.555 7  22145850.485 7
      6846.372        5324.960  
 123991618.237    96616867.3994   23594816.973 6  23594816.23843  23594820.37243
      6085.179        4741.706  
 11  5 30 15 29 30.0000000  0 14G27G 9R10R11G15R20G17G12R 2R21G 4G25
                                R12G14                              
 109470399.034    85301627.0424   20831524.220 8  20831523.87846  20831527.96646
      2420.146        1885.822  
 103539937.592    80680492.1274   19702995.187 8  19702994.72847  19702998.37447
      3079.052        2399.249  
 112978716.893    87872353.566    21194521.876 7  21194521.490 7  21194529.032 6
       522.743         406.569  
 103183765.182    80254057.127    19309433.488 7  19309433.686 7  19309437.562 6
      3852.359        2996.271  
 122049643.771    95103633.2604   23225278.965 7  23225279.15345  23225284.30545
      -171.048        -133.281  
 108610697.679    84475008.170    20310746.688 6  20310747.187 6  20310751.171 7
      1657.903        1289.484  
 118429383.550    92282657.6934   22536363.516 7  22536363.46945  22536366.73745
      1032.838         804.827  
 110336755.669    85976714.8834   20996382.303 8  20996382.56146  20996385.21546
      5146.008        4009.875  
 120156129.490    93454786.359    22517206.804 7  22517206.462 6  22517211.952 7
      1952.403        1518.536  
 107846782.256    83880856.098    20153741.947 8  20153741.674 8  20153743.725 7
      5977.417        4649.100  
 125929310.402    98126757.2164   23963548.190 6  23963547.50943  23963553.76543
      5952.528        4638.332  
 126036469.759    98210265.7344   23983935.723 7  23983935.00544  23983943.45944
      6540.817        5096.731  
 118264928.381    91983857.086    22139436.263 7  22139436.142 7  22139442.609 7
      6845.600        5324.353  
 123961198.111    96593163.4134   23589027.860 6  23589027.10343  23589031.86543
      6082.982        4739.994  
 11  5 30 15 29 35.0000000  0 14G27G 9R10R11G15R20G17G12R 2R21G 4G25
                                R12G14                              
 109458304.575    85292202.7824   20829222.959 8  20829222.36846  20829226.44346
      2417.702        1883.930  
 103524550.732    80668502.3624   19700067.064 8  19700066.72847  19700070.37347
      3075.555        2396.543  
 112976109.232    87870325.368    21194033.155 7  21194032.602 7  21194039.613 6
       520.377         404.747  
 103164511.148    80239081.766    19305831.119 7  19305830.558 7  19305834.525 6
      3849.274        2993.889  
 122050503.287    95104302.9914   23225442.974 7  23225442.83445  23225447.80345
      -172.682        -134.554  
 108602419.805    84468569.829    20309199.868 7  20309199.182 6  20309203.201 7
      1653.136        1285.778  
 118424225.827    92278638.6944   22535381.941 7  22535382.03445  22535385.24045
      1030.315         802.840  
 110311031.889    85956670.3854   20991487.506 8  20991487.46246  20991490.10346
      5143.609        4008.014  
 120146378.923    93447202.569    22515378.938 6  22515378.674 6  22515384.184 7
      1947.736        1514.907  
 107816905.430    83857618.571    20148159.220 8  20148158.565 8  20148160.652 7
      5973.289        4645.896  
 125899553.188    98103569.8074   23957884.802 6  23957884.99343  23957890.90243
      5950.355        4636.638  
 126003768.756    98184784.4464   23977712.579 7  23977712.00144  23977720.50844
      6539.633        5095.822  
 118230703.638    91957237.853    22133030.903 7  22133029.715 7  22133035.535 7
      6844.501        5323.511  
 123930789.732    96569468.5794   23583240.986 6  23583240.23643  23583245.23943
      6080.466        4738.057  
 11  5 30 15 29 40.0000000  0 14G27G 9R10R11G15R20G17G12R 2R21G 4G25
                                R12G14                              
 109446221.377    85282787.3034   20826923.452 8  20826923.00946  20826927.11946
      2415.521        1882.213  
 103509180.471    80656525.5334   19697142.282 8  19697141.88647  19697145.47847
      3072.418        2394.085  
 112973512.111    87868305.381    21193546.101 7  21193545.602 7  21193552.306 6
       518.245         403.080  
 103145271.680    80224117.734    19302229.754 7  19302230.144 7  19302234.177 6
      3846.465        2991.705  
 122051369.435    95104977.8994   23225608.021 7  23225607.87245  23225612.62445
      -173.939        -135.538  
 108594164.215    84462148.814    20307655.937 7  20307655.684 6  20307659.447 7
      1648.988        1282.546  
 118419080.962    92274629.7144   22534403.335 7  22534402.97345  22534406.17545
      1027.648         800.774  
 110285319.043    85936634.4004   20986595.048 8  20986594.55446  20986597.11746
      5141.431        4006.304  
 120136649.597    93439635.287    22513554.491 6  22513554.501 6  22513560.638 7
      1943.564        1511.661  
 107787048.285    83834396.356    20142579.654 8  20142579.214 8  20142581.072 7
      5969.372        4642.844  
 125869805.506    98080389.8054   23952224.483 6  23952224.52243  23952230.29843
      5948.465        4635.144  
 125971072.433    98159306.8114   23971490.951 6  23971490.36844  23971498.36244
      6538.720        5095.099  
 118196483.093    91930621.875    22126623.818 7  22126624.076 7  22126629.630 7
      6843.578        5322.781  
 123900392.785    96545782.6694   23577456.164 6  23577456.13643  23577460.96743
      6078.307        4736.342  
 11  5 30 15 29 45.0000000  0 14G27G 9R10R11G15R20G17G12R 2R21G 4G25
                                R12G14                              
 109434149.571    85273380.7004   20824626.120 8  20824625.78846  20824629.89846
      2413.235        1880.452  
 103493826.962    80644561.7564   19694220.680 8  19694220.16747  19694223.78247
      3069.097        2391.516  
 112970925.842    87866293.828    21193060.703 7  21193060.327 7  21193067.329 6
       516.201         401.488  
 103126046.822    80209165.072    19298632.474 7  19298632.575 7  19298636.370 6
      3843.577        2989.451  
 122052242.376    95105658.1024   23225774.434 7  23225773.99845  23225778.67845
      -175.140        -136.477  
 108585930.833    84455745.063    20306116.307 6  20306116.090 6  20306119.795 7
      1644.525        1279.083  
 118413949.061    92270630.8024   22533426.557 7  22533426.37545  22533429.60945
      1025.186         798.852  
 110259617.276    85916607.0504   20981704.142 8  20981703.79246  20981706.24746
      5139.316        4004.667  
 120126941.702    93432084.696    22511735.864 6  22511735.416 6  22511741.495 7
      1939.573        1508.563  
 107757211.034    83811189.609    20137004.280 8  20137003.580 8  20137005.226 7
      5965.613        4639.921  
 125840067.494    98057217.3604   23946564.612 6  23946565.33343  23946571.06743
      5946.716        4633.815  
 125938380.955    98133832.9434   23965270.181 7  23965269.42544  23965277.49144
      6537.938        5094.512  
 118162266.811    91904009.212    22120217.592 7  22120218.030 6  22120224.592 7
      6842.883        5322.247  
 123870007.591    96522105.8974   23571674.564 6  23571674.13943  23571678.86743
      6075.934        4734.498  
 11  5 30 15 29 50.0000000  0 14G27G 9R10R11G15R20G17G12R 2R21G 4G25
                                R12G14                              
 109422089.378    85263983.1464   20822331.209 8  20822330.74346  20822334.92746
      2410.800        1878.548  
 103478490.421    80632611.2064   19691302.122 8  19691301.66146  19691305.36147
      3065.554        2388.745  
 112968350.619    87864290.862    21192577.627 7  21192577.210 7  21192584.023 6
       513.717         399.560  
 103106836.884    80194224.006    19295037.973 7  19295037.750 7  19295041.433 6
      3840.616        2987.139  
 122053122.313    95106343.7554   23225941.606 7  23225941.55645  23225946.30845
      -176.717        -137.686  
 108577719.812    84449358.715    20304581.085 7  20304580.678 6  20304584.286 7
      1639.724        1275.340  
 118408830.302    92266642.1684   22532452.424 7  22532452.26645  22532455.63445
      1022.409         796.696  
 110233926.809    85896588.5074   20976814.971 8  20976814.96746  20976817.46346
      5136.932        4002.808  
 120117255.357    93424550.862    22509921.162 7  22509921.040 6  22509926.309 7
      1935.048        1505.043  
 107727393.858    83787998.477    20131432.057 8  20131431.597 8  20131433.028 7
      5961.389        4636.630  
 125810339.394    98034052.6184   23940907.949 6  23940908.05443  23940913.68643
      5944.522        4632.110  
 125905694.483    98108362.9804   23959049.832 7  23959049.53644  23959057.26544
      6536.785        5093.584  
 118128055.005    91877400.057    22113813.072 7  22113812.584 6  22113820.018 7
      6841.806        5321.404  
 123839634.218    96498438.3354   23565894.728 6  23565894.48043  23565899.14943
      6073.558        4732.646  
 11  5 30 15 29 55.0000000  0 14G27G 9R10R11G15R20G17G12R 2R21G 4G25
                                R12G14                              
 109410040.493    85254594.4014   20820038.482 8  20820037.88946  20820042.14046
      2408.704        1876.907  
 103463170.545    80620673.6354   19688386.604 8  19688386.40247  19688390.07146
      3062.246        2386.170  
 112965785.917    87862296.088    21192096.170 7  21192096.034 7  21192103.083 6
       511.861         398.120  
 103087641.490    80179294.257    19291445.335 7  19291445.633 7  19291449.274 6
      3837.586        2984.783  
 122054008.947    95107034.6244   23226109.903 7  23226110.00345  23226114.70945
      -178.019        -138.716  
 108569530.868    84442989.527    20303048.780 6  20303049.104 6  20303052.977 7
      1635.557        1272.102  
 118403724.437    92262663.5724   22531480.969 7  22531480.69145  22531484.09645
      1019.750         794.623  
 110208247.340    85876578.5354   20971928.266 8  20971928.23646  20971930.92546
      5134.807        4001.145  
 120107590.268    93417033.574    22508111.204 7  22508110.535 6  22508115.069 7
      1930.934        1501.829  
 107697596.522    83764822.779    20125863.481 8  20125863.090 8  20125864.644 7
      5957.447        4633.561  
 125780620.887    98010895.3414   23935253.004 6  23935252.63343  23935258.40343
      5942.483        4630.479  
 125873012.771    98082896.7234   23952830.545 7  23952830.41244  23952837.89044
      6535.824        5092.853  
 118093847.475    91850794.222    22107410.387 7  22107409.840 7  22107416.117 7
      6840.962        5320.750  
 123809272.426    96474779.8014   23560117.318 6  23560117.01343  23560121.29443
      6070.872        4730.565  
 11  5 30 15 30  0.0000000  0 14G27G 9R10R11G15R20G17G12R 2R21G 4G25
                                R12G14                              
 109398002.873    85245214.4374   20817747.413 8  20817747.24446  20817751.41846
      2406.317        1875.047  
 103447867.285    80608749.0194   19685474.499 8  19685474.29447  19685477.91647
      3058.969        2383.602  
 112963231.893    87860309.620    21191616.963 7  21191616.844 7  21191624.314 6
       509.840         396.546  
 103068460.679    80164375.845    19287856.337 7  19287856.151 7  19287860.073 6
      3834.694        2982.539  
 122054902.206    95107730.6524   23226279.943 7  23226280.08745  23226284.76745
      -179.398        -139.773  
 108561364.014    84436637.523    20301521.935 7  20301521.730 6  20301525.739 7
      1631.072        1268.606  
 118398631.327    92258694.9174   22530511.809 7  22530511.47745  22530514.93145
      1017.256         792.646  
 110182578.829    85856577.1074   20967043.560 8  20967043.70646  20967046.43046
      5132.591        3999.407  
 120097946.469    93409532.846    22506303.929 7  22506302.836 6  22506307.646 7
      1926.693        1498.527  
 107667818.978    83741662.466    20120298.764 8  20120298.402 8  20120300.082 7
      5953.482        4630.487  
 125750911.936    97987745.5204   23929599.342 6  23929599.17843  23929605.19143
      5940.819        4629.218  
 125840335.797    98057434.1674   23946612.677 7  23946612.22444  23946619.75344
      6534.803        5092.035  
 118059644.203    91824191.685    22101008.064 7  22101007.873 7  22101013.123 7
      6840.138        5320.111  
 123778922.176    96451130.2534   23554342.185 6  23554341.80643  23554345.93543
      6068.656        4728.831  
 11  5 30 15 30  5.0000000  0 14G27G 9R10R11G15R20G17G12R 2R21G 4G25
                                R12G14                              
 109385976.618    85235843.3264   20815459.186 8  20815458.71846  20815462.91746
      2404.133        1873.352  
 103432580.773    80596837.4514   19682565.764 8  19682565.44947  19682568.99547
      3055.577        2380.969  
 112960688.471    87858331.389    21191140.456 7  21191139.753 7  21191147.234 6
       507.705         394.878  
 103049294.518    80149468.836    19284269.720 7  19284269.464 7  19284273.095 6
      3831.602        2980.139  
 122055802.174    95108431.9224   23226451.148 7  23226451.26145  23226456.09945
      -180.485        -140.620  
 108553219.362    84430302.800    20299999.045 7  20299998.628 6  20300002.585 7
      1626.677        1265.201  
 118393551.155    92254736.3314   22529544.599 7  22529544.78045  22529548.16645
      1014.837         790.798  
 110156921.405    85836584.3144   20962161.329 8  20962161.25746  20962163.96546
      5130.428        3997.745  
 120088323.837    93402048.582    22504499.965 7  22504498.774 6  22504504.379 7
      1922.559        1495.325  
 107638061.416    83718517.708    20114737.871 8  20114737.410 8  20114739.117 7
      5949.488        4627.374  
 125721212.717    97964603.2884   23923947.752 6  23923947.34543  23923953.27443
      5938.926        4627.721  
 125807663.612    98031975.3314   23940395.230 7  23940394.69944  23940402.39744
      6534.108        5091.517  
 118025445.278    91797592.515    22094606.106 7  22094605.664 7  22094610.955 7
      6839.542        5319.639  
 123748583.647    96427489.8524   23548568.798 7  23548568.30044  23548572.88143
      6066.517        4727.155  
 11  5 30 15 30 10.0000000  0 14G27G 9R10R11G15R20G17G12R 2R21G 4G25
                                R12G14                              
 109373961.881    85226481.1884   20813172.833 8  20813172.34646  20813176.52046
      2401.812        1871.547  
 103417311.132    80584939.0304   19679659.914 8  19679659.67547  19679663.26147
      3052.281        2378.407  
 112958155.990    87856361.660    21190665.327 7  21190664.731 7  21190671.790 6
       505.342         393.052  
 103030143.179    80134573.352    19280685.564 7  19280685.449 7  19280689.245 6
      3828.766        2977.937  
 122056709.000    95109138.5254   23226623.627 7  23226623.79745  23226628.67645
      -182.059        -141.864  
 108545097.123    84423985.502    20298479.803 7  20298479.636 6  20298483.699 7
      1622.199        1261.709  
 118388484.017    92250787.8954   22528580.699 7  22528580.49545  22528584.00045
      1012.223         788.729  
 110131275.143    85816600.2154   20957281.131 8  20957280.86646  20957283.70946
      5128.135        3995.958  
 120078722.763    93394581.081    22502700.065 7  22502700.058 6  22502705.434 7
      1918.000        1491.776  
 107608323.754    83695388.420    20109180.865 8  20109180.163 8  20109182.012 7
      5945.568        4624.318  
 125691523.393    97941468.7674   23918297.911 6  23918297.51543  23918303.62143
      5936.817        4626.079  
 125774996.371    98006520.3584   23934179.063 7  23934178.35444  23934185.91244
      6532.878        5090.539  
 117991250.831    91770996.830    22088204.575 7  22088203.965 7  22088209.394 7
      6838.363        5318.730  
 123718256.890    96403858.6184   23542797.970 7  23542797.55744  23542801.71144
      6064.142        4725.322  
 11  5 30 15 30 15.0000000  0 14G27G 9R10R11G15R20G17G12R 2R21G 4G25
                                R12G14                              
 109361958.414    85217127.8344   20810888.470 7  20810888.14346  20810892.29046
      2399.545        1869.774  
 103402058.123    80573053.5664   19676757.438 8  19676757.07647  19676760.73947
      3048.954        2375.811  
 112955634.099    87854400.184    21190191.913 7  21190191.414 7  21190198.406 6
       503.159         391.345  
 103011006.455    80119689.227    19277104.604 7  19277104.401 7  19277108.089 6
      3825.723        2975.567  
 122057622.471    95109850.3014   23226797.716 7  23226797.55145  23226802.50145
      -183.643        -143.094  
 108536997.023    84417685.414    20296965.836 7  20296965.019 6  20296969.175 7
      1617.835        1258.322  
 118383429.660    92246849.4334   22527619.203 7  22527618.75445  22527622.14145
      1009.657         786.752  
 110105639.820    85796624.6404   20952402.943 8  20952402.68046  20952405.41546
      5125.930        3994.229  
 120069142.853    93387130.046    22500905.044 6  22500904.848 6  22500910.171 7
      1913.719        1488.445  
 107578606.005    83672274.622    20103627.029 8  20103626.783 8  20103628.639 7
      5941.524        4621.184  
 125661843.640    97918341.6994   23912650.161 6  23912649.88143  23912656.32543
      5935.019        4624.655  
 125742333.865    97981069.0784   23927963.735 7  23927962.96844  23927970.32344
      6532.021        5089.884  
 117957060.647    91744404.463    22081803.339 7  22081802.729 7  22081808.781 7
      6837.521        5318.081  
 123687941.774    96380236.4494   23537029.365 6  23537028.72844  23537032.94744
      6061.928        4723.556  
 11  5 30 15 30 20.0000000  0 14G27G 9R10R11G15R20G17G12R 2R21G 4G25
                                R12G14                              
 109349966.419    85207783.4194   20808606.544 7  20808606.19346  20808610.37446
      2397.224        1867.961  
 103386821.965    80561181.2334   19673858.133 8  19673857.74047  19673861.33247
      3045.548        2373.140  
 112953122.928    87852447.044    21189720.641 7  21189720.243 7  21189727.501 6
       501.183         389.816  
 102991884.484    80104816.585    19273526.020 7  19273525.814 7  19273529.664 6
      3822.964        2973.401  
 122058542.680    95110567.3314   23226973.146 7  23226972.77045  23226977.70145
      -184.849        -144.038  
 108528918.973    84411402.495    20295454.180 7  20295454.327 6  20295458.468 7
      1613.256        1254.740  
 118378388.273    92242921.0734   22526659.837 7  22526659.37745  22526662.71745
      1006.945         784.639  
 110080015.691    85776657.7904   20947526.646 8  20947526.56646  20947529.28646
      5123.747        3992.530  
 120059584.378    93379695.663    22499114.509 7  22499113.694 6  22499118.874 7
      1909.690        1485.322  
 107548908.329    83649176.434    20098077.628 8  20098077.042 8  20098078.868 7
      5937.478        4618.033  
 125632173.791    97895222.3524   23907004.155 6  23907003.67243  23907010.25843
      5932.943        4623.021  
 125709676.281    97955621.6314   23921749.025 7  23921748.61444  23921755.89244
      6531.094        5089.167  
 117922874.790    91717815.473    22075402.028 7  22075402.356 6  22075409.378 7
      6836.914        5317.593  
 123657638.435    96356623.4614   23531262.448 6  23531262.11744  23531266.06844
      6059.507        4721.690  
 11  5 30 15 30 25.0000000  0 14G27G 9R10R11G15R20G17G12R 2R21G 4G25
                                R12G14                              
 109337985.832    85198447.8924   20806326.790 8  20806326.37146  20806330.44646
      2394.935        1866.180  
 103371602.556    80549321.9584   19670961.881 8  19670961.58947  19670965.17447
      3042.137        2370.498  
 112950622.422    87850502.197    21189251.074 7  21189251.104 7  21189258.613 6
       498.981         388.098  
 102972777.287    80089955.435    19269950.314 7  19269950.101 7  19269954.034 6
      3820.008        2971.108  
 122059469.575    95111289.5764   23227149.439 7  23227149.22545  23227154.20445
      -186.052        -144.978  
 108520863.007    84405136.744    20293947.670 7  20293947.896 6  20293951.914 7
      1608.873        1251.342  
 118373359.743    92239002.7284   22525703.223 7  22525702.55645  22525705.80345
      1004.413         782.643  
 110054402.629    85756699.5604   20942652.726 8  20942652.60646  20942655.20346
      5121.417        3990.712  
 120050047.187    93372277.833    22497325.582 6  22497326.147 6  22497331.305 7
      1905.285        1481.881  
 107519230.605    83626093.769    20092531.522 8  20092531.071 8  20092532.823 7
      5933.469        4614.922  
 125602513.607    97872110.5294   23901360.003 6  23901360.04443  23901366.18943
      5930.983        4621.526  
 125677023.528    97930177.9574   23915535.190 6  23915534.97344  23915542.22544
      6530.116        5088.398  
 117888693.322    91691229.908    22069003.440 6  22069003.588 6  22069011.018 7
      6835.856        5316.782  
 123627346.839    96333019.6234   23525498.350 6  23525497.91344  23525501.95744
      6057.182        4719.871  
 11  5 30 15 30 30.0000000  0 14G27G 9R10R11G15R20G17G12R 2R21G 4G25
                                R12G14                              
 109326016.253    85189120.9394   20804049.020 8  20804048.58746  20804052.73446
      2392.765        1864.488  
 103356399.539    80537475.4524   19668069.056 8  19668068.53847  19668072.17147
      3038.951        2368.005  
 112948132.292    87848565.420    21188784.714 7  21188783.758 7  21188791.136 6
       496.877         386.460  
 102953684.340    80075105.364    19266377.284 7  19266377.143 7  19266381.175 6
      3817.135        2968.878  
 122060402.780    95112016.7404   23227326.817 7  23227326.72345  23227331.61445
      -187.246        -145.918  
 108512828.843    84398887.943    20292445.496 7  20292445.700 6  20292449.620 7
      1604.656        1248.039  
 118368343.725    92235094.1514   22524748.403 7  22524748.00145  22524751.22445
      1002.017         780.800  
 110028800.298    85736749.6914   20937780.743 8  20937780.59846  20937783.19946
      5119.161        3988.948  
 120040530.845    93364876.217    22495543.632 7  22495542.569 6  22495547.562 7
      1901.163        1478.665  
 107489572.436    83603026.315    20086989.289 8  20086988.778 8  20086990.405 7
      5929.627        4611.928  
 125572862.999    97849006.1904   23895716.787 6  23895717.65043  23895724.00443
      5929.039        4620.041  
 125644375.281    97904737.7634   23909322.803 7  23909322.19544  23909329.72044
      6529.171        5087.645  
 117854515.845    91664647.446    22062606.184 7  22062605.974 6  22062613.127 7
      6835.071        5316.139  
 123597066.663    96309424.6884   23519736.506 6  23519735.66844  23519739.91744
      6054.430        4717.757  
 11  5 30 15 30 35.0000000  0 14G27G 9R10R11G15R20G17G12R 2R21G 4G25
                                R12G14                              
 109314058.215    85179802.9874   20801773.657 8  20801773.17246  20801777.14046
      2390.538        1862.751  
 103341213.435    80525642.1194   19665179.185 8  19665178.74647  19665182.41847
      3035.747        2365.518  
 112945653.045    87846637.110    21188319.188 7  21188318.733 7  21188325.767 6
       494.761         384.814  
 102934606.324    80060266.903    19262807.177 7  19262807.115 7  19262810.952 6
      3814.232        2966.627  
 122061342.797    95112749.1904   23227505.843 7  23227505.84145  23227510.35745
      -188.633        -147.008  
 108504816.845    84392656.387    20290946.843 7  20290947.223 6  20290951.273 7
      1600.260        1244.651  
 118363340.700    92231195.6814   22523796.145 7  22523795.93845  22523799.12645
       999.271         778.639  
 110003209.215    85716808.5964   20932910.881 8  20932910.72946  20932913.44146
      5117.113        3987.354  
 120031035.998    93357491.337    22493764.741 7  22493763.574 6  22493768.237 7
      1896.999        1475.444  
 107459934.451    83579974.548    20081450.744 8  20081450.174 8  20081451.887 7
      5925.614        4608.805  
 125543222.310    97825909.5624   23890077.177 6  23890076.90243  23890083.84543
      5927.093        4618.481  
 125611732.026    97879301.4874   23903111.204 7  23903110.58544  23903117.97844
      6528.167        5086.851  
 117820343.015    91638068.590    22056209.101 7  22056209.408 7  22056215.662 7
      6834.145        5315.452  
 123566798.330    96285838.9734   23513976.546 6  23513975.90044  23513979.98344
      6052.574        4716.294  
 11  5 30 15 30 40.0000000  0 14G27G 9R10R11G15R20G17G12R 2R21G 4G25
                                R12G14                              
 109302111.282    85170493.6884   20799500.159 8  20799499.72846  20799503.74346
      2388.306        1861.021  
 103326043.834    80513821.6494   19662292.444 8  19662292.03347  19662295.72347
      3032.166        2362.733  
 112943184.066    87844716.786    21187856.700 7  21187855.920 7  21187862.628 6
       492.641         383.168  
 102915542.686    80045439.624    19259240.103 7  19259239.570 7  19259243.568 6
      3811.196        2964.280  
 122062289.202    95113486.6424   23227686.007 7  23227685.89945  23227690.51745
      -189.983        -148.053  
 108496826.730    84386441.854    20289453.698 7  20289452.892 6  20289457.035 7
      1595.795        1241.169  
 118358350.225    92227306.9944   22522845.726 7  22522846.31345  22522849.42145
       996.999         776.877  
 109977628.971    85696875.9414   20928042.956 8  20928042.92846  20928045.62746
      5114.987        3985.704  
 120021562.002    93350122.664    22491988.994 7  22491988.211 6  22491993.161 7
      1892.599        1472.031  
 107430316.234    83556938.160    20075915.676 8  20075915.092 8  20075916.945 7
      5921.697        4605.762  
 125513591.155    97802820.3684   23884437.965 6  23884438.37143  23884445.16343
      5925.229        4617.056  
 125579093.347    97853868.7634   23896899.729 7  23896899.25944  23896907.25844
      6527.374        5086.236  
 117786174.191    91611492.840    22049812.493 7  22049812.805 7  22049819.063 7
      6833.393        5314.871  
 123536541.524    96262262.2454   23508219.316 6  23508218.16144  23508221.67844
      6050.166        4714.397  
 11  5 30 15 30 45.0000000  0 14G27G 9R10R11G15R20G17G12R 2R21G 4G25
                                R12G14                              
 109290175.670    85161193.2094   20797228.541 8  20797228.53146  20797232.43846
      2385.917        1859.156  
 103310890.914    80502014.1794   19659408.711 8  19659408.57847  19659412.20747
      3028.712        2360.043  
 112940725.764    87842804.769    21187395.312 7  21187394.414 7  21187401.566 6
       490.597         381.580  
 102896493.784    80030623.812    19255674.870 7  19255674.880 7  19255678.751 6
      3808.220        2961.940  
 122063242.172    95114229.2064   23227866.780 7  23227867.04745  23227871.59545
      -191.383        -149.132  
 108488858.697    84380244.495    20287962.669 7  20287962.762 6  20287967.022 7
      1591.318        1237.694  
 118353372.573    92223428.3004   22521898.733 7  22521899.11145  22521902.20445
       994.215         774.694  
 109952059.790    85676951.9104   20923177.181 7  20923177.23246  20923180.03246
      5112.711        3983.935  
 120012109.228    93342770.494    22490217.662 7  22490216.793 6  22490222.163 7
      1888.243        1468.636  
 107400717.932    83533917.270    20070383.957 8  20070383.941 8  20070385.636 7
      5917.631        4602.600  
 125483969.756    97779738.7774   23878801.347 6  23878801.39343  23878808.24243
      5923.538        4615.774  
 125546459.480    97828439.7864   23890689.742 7  23890689.13344  23890697.57244
      6526.197        5085.366  
 117752009.790    91584920.525    22043417.238 7  22043416.886 7  22043422.950 7
      6832.396        5314.088  
 123506296.456    96238694.6684   23502463.224 6  23502462.56344  23502466.43244
      6047.822        4712.584  
 11  5 30 15 30 50.0000000  0 14G27G 9R10R11G15R20G17G12R 2R21G 4G25
                                R12G14                              
 109278251.206    85151901.4184   20794959.736 8  20794959.33046  20794963.34046
      2383.731        1857.455  
 103295754.509    80490219.5774   19656528.546 8  19656528.22547  19656531.81947
      3025.566        2357.586  
 112938277.882    87840900.846    21186935.810 7  21186935.280 7  21186942.626 6
       488.569         380.005  
 102877459.311    80015819.223    19252112.783 7  19252112.835 7  19252116.658 6
      3805.312        2959.676  
 122064201.508    95114976.7294   23228049.583 7  23228049.70845  23228054.45945
      -192.420        -149.954  
 108480912.475    84374064.094    20286477.172 7  20286476.698 6  20286481.021 7
      1587.013        1234.346  
 118348407.477    92219559.3874   22520954.013 7  22520954.24445  22520957.45645
       991.671         772.730  
 109926501.446    85657036.3194   20918313.557 8  20918313.65646  20918316.45346
      5110.547        3982.235  
 120002677.405    93335434.627    22488449.333 7  22488449.080 6  22488454.544 7
      1884.209        1465.496  
 107371139.478    83510911.809    20064856.908 8  20064856.445 8  20064858.375 7
      5913.682        4599.525  
 125454357.914    97756664.6214   23873166.616 6  23873166.31943  23873173.40343
      5921.317        4613.999  
 125513830.210    97803014.3884   23884480.332 7  23884479.78044  23884488.30944
      6525.295        5084.657  
 117717849.566    91558351.461    22037022.761 7  22037022.210 7  22037027.936 7
      6831.646        5313.500  
 123476062.941    96215136.0854   23496710.000 6  23496709.01344  23496713.15043
      6045.686        4710.907  
 11  5 30 15 30 55.0000000  0 14G27G 9R10R11G15R20G17G12R 2R21G 4G25
                                R12G14                              
 109266338.148    85142618.5144   20792692.713 8  20792692.35446  20792696.37146
      2381.373        1855.612  
 103280634.882    80478438.0514   19653651.361 8  19653650.99147  19653654.67647
      3022.222        2354.978  
 112935840.680    87839005.238    21186479.295 7  21186478.567 7  21186485.889 6
       486.476         378.368  
 102858439.521    80001026.050    19248553.676 7  19248553.494 7  19248557.124 6
      3802.542        2957.525  
 122065167.494    95115729.4334   23228233.277 7  23228233.38645  23228238.47045
      -193.874        -151.055  
 108472988.275    84367900.824    20284995.493 7  20284994.910 6  20284999.113 7
      1582.478        1230.819  
 118343455.223    92215700.4884   22520011.676 7  22520011.90745  22520015.14845
       989.004         770.650  
 109900954.220    85637129.3904   20913452.446 8  20913452.19546  20913454.97346
      5108.306        3980.500  
 119993266.900    93328115.348    22486685.597 6  22486685.206 6  22486690.974 7
      1880.019        1462.240  
 107341581.119    83487921.981    20059333.745 8  20059332.822 8  20059334.585 7
      5909.586        4596.350  
 125424755.930    97733598.1734   23867533.288 6  23867533.23143  23867539.75143
      5919.198        4612.353  
 125481205.839    97777592.8114   23878271.786 7  23878271.43844  23878279.96044
      6524.213        5083.783  
 117683693.782    91531785.853    22030629.715 7  22030628.586 7  22030634.211 7
      6830.696        5312.760  
 123445841.258    96191586.7324   23490958.561 6  23490958.08544  23490962.39344
      6042.960        4708.788  
 11  5 30 15 31  0.0000000  0 14G27G 9R10R11G15R20G17G12R 2R21G 4G25
                                R12G14                              
 109254436.289    85133344.3354   20790427.800 8  20790427.48546  20790431.51846
      2379.263        1853.967  
 103265531.835    80466669.4444   19650777.329 8  19650776.96247  19650780.63047
      3018.878        2352.374  
 112933413.979    87837117.793    21186023.145 7  21186022.786 7  21186030.649 6
       484.341         376.703  
 102839434.328    79986244.233    19244996.819 7  19244997.002 7  19245000.723 6
      3799.561        2955.219  
 122066139.872    95116487.1174   23228418.358 7  23228418.53345  23228423.37745
      -194.970        -151.910  
 108465085.881    84361754.517    20283517.458 6  20283517.179 6  20283521.402 7
      1578.293        1227.571  
 118338515.542    92211851.3854   22519071.766 7  22519071.95945  22519075.14945
       986.696         768.861  
 109875417.937    85617230.9904   20908592.828 8  20908592.78746  20908595.57946
      5106.117        3978.789  
 119983877.370    93320812.381    22484926.206 6  22484925.812 6  22484931.458 7
      1875.875        1459.016  
 107312042.552    83464947.548    20053813.525 8  20053812.828 8  20053814.689 7
      5905.729        4593.342  
 125395163.634    97710539.2604   23861902.168 6  23861902.18343  23861908.90043
      5917.552        4611.061  
 125448586.120    97752174.8704   23872064.394 7  23872063.74944  23872072.84044
      6523.507        5083.236  
 117649542.147    91505223.486    22024234.893 7  22024234.996 7  22024241.410 7
      6829.799        5312.073  
 123415631.157    96168046.4064   23485210.400 6  23485209.40144  23485213.61544
      6040.863        4707.167  
 11  5 30 15 31  5.0000000  0 14G27G 9R10R11G15R20G17G12R 2R21G 4G25
                                R12G14                              
 109242545.399    85124078.7054   20788165.325 8  20788164.65846  20788168.81846
      2377.057        1852.258  
 103250445.108    80454913.5514   19647906.549 8  19647906.06447  19647909.78447
      3015.733        2349.925  
 112930997.379    87835238.209    21185570.204 7  21185569.347 7  21185577.499 6
       482.299         375.117  
 102820443.421    79971473.530    19241443.576 7  19241443.056 7  19241446.718 6
      3796.759        2953.031  
 122067118.424    95117249.6134   23228604.850 7  23228604.85045  23228609.59545
      -196.383        -153.022  
 108457205.046    84355624.975    20282043.923 7  20282043.489 6  20282047.554 7
      1574.001        1224.227  
 118333588.250    92208011.9294   22518134.376 7  22518134.34745  22518137.47445
       984.254         766.952  
 109849892.307    85597340.8934   20903735.126 8  20903735.39246  20903738.23846
      5104.115        3977.228  
 119974508.567    93313525.532    22483170.700 7  22483170.115 6  22483175.897 7
      1871.627        1455.713  
 107282523.610    83441988.378    20048296.949 8  20048296.600 8  20048298.471 7
      5901.854        4590.332  
 125365580.854    97687487.7634   23856273.929 6  23856273.16243  23856278.96743
      5915.660        4609.603  
 125415970.851    97726760.3934   23865857.785 6  23865857.16444  23865866.43744
      6522.499        5082.458  
 117615394.534    91478664.245    22017842.401 7  22017842.425 7  22017848.931 7
      6829.182        5311.601  
 123385432.460    96144514.9554   23479463.544 6  23479463.06344  23479467.35044
      6038.668        4705.434  
 11  5 30 15 31 10.0000000  0 14G27G 9R10R11G15R20G17G12R 2R21G 4G25
                                R12G14                              
 109230665.415    85114821.5724   20785904.632 8  20785904.02446  20785908.10746
      2374.902        1850.584  
 103235374.658    80443170.3444   19645038.627 8  19645038.26447  19645041.96347
      3012.406        2347.332  
 112928590.913    87833366.501    21185118.567 7  21185118.070 7  21185125.929 6
       480.141         373.448  
 102801466.824    79956713.951    19237891.446 7  19237891.758 7  19237895.447 6
      3793.801        2950.740  
 122068103.022    95118016.8184   23228791.883 7  23228792.32545  23228796.86945
      -197.575        -153.948  
 108449345.843    84349512.265    20280572.986 6  20280573.560 6  20280577.666 7
      1569.643        1220.833  
 118328673.260    92204182.0614   22517199.246 7  22517199.02845  22517202.31745
       981.805         765.059  
 109824377.338    85577459.1024   20898879.974 8  20898879.99946  20898882.95646
      5101.857        3975.477  
 119965160.442    93306254.760    22481418.724 6  22481417.821 6  22481424.094 7
      1867.449        1452.463  
 107253024.323    83419044.494    20042784.627 8  20042783.948 8  20042785.710 7
      5897.767        4587.157  
 125336007.451    97664443.5584   23850645.358 6  23850645.38843  23850651.37643
      5913.684        4608.073  
 125383359.994    97701349.3574   23859652.319 7  23859652.01244  23859660.58644
      6521.592        5081.754  
 117581250.904    91452108.109    22011451.170 7  22011450.913 7  22011456.601 7
      6828.224        5310.833  
 123355245.131    96120992.3694   23473719.326 7  23473718.27344  23473722.59044
      6036.044        4703.427  
 11  5 30 15 31 15.0000000  0 14G27G 9R10R11G15R20G17G12R 2R21G 4G25
                                R12G14                              
 109218796.754    85105573.2624   20783645.598 8  20783645.41646  20783649.52946
      2372.646        1848.817  
 103220320.905    80431440.1474   19642174.141 8  19642173.64147  19642177.32147
      3009.300        2344.914  
 112926195.093    87831503.077    21184669.000 7  21184668.774 7  21184676.128 6
       478.062         371.830  
 102782504.837    79941965.742    19234343.608 7  19234343.210 7  19234346.940 6
      3791.047        2948.596  
 122069094.077    95118789.0594   23228980.464 7  23228980.74745  23228985.71845
      -198.911        -154.999  
 108441508.497    84343416.547    20279108.737 6  20279108.016 6  20279112.090 7
      1565.132        1217.330  
 118323770.956    92200362.0754   22516266.655 7  22516266.03145  22516269.52645
       979.175         762.995  
 109798873.402    85557585.9104   20894026.868 8  20894026.75546  20894029.73046
      5099.685        3973.780  
 119955833.364    93299000.357    22479671.564 6  22479670.230 6  22479675.988 7
      1863.364        1449.279  
 107223545.000    83396116.137    20037275.678 8  20037274.989 8  20037276.754 7
      5893.797        4584.066  
 125306443.881    97641407.0314   23845019.104 6  23845019.24843  23845025.88743
      5911.460        4606.313  
 125350753.913    97675942.0444   23853447.873 7  23853447.52044  23853455.73344
      6520.862        5081.188  
 117547111.630    91425555.338    22005060.218 7  22005060.117 7  22005065.415 7
      6827.365        5310.163  
 123325069.549    96097478.9304   23467977.100 6  23467976.15544  23467980.65644
      6033.978        4701.804  
 11  5 30 15 31 20.0000000  0 14G27G 9R10R11G15R20G17G12R 2R21G 4G25
                                R12G14                              
 109206939.642    85096333.9504   20781389.367 8  20781389.12946  20781393.27846
      2370.236        1846.936  
 103205284.098    80419723.1544   19639312.596 8  19639312.19547  19639315.87747
      3005.556        2341.990  
 112923810.069    87829648.050    21184221.540 7  21184221.165 7  21184228.554 6
       475.780         370.046  
 102763557.866    79927229.208    19230798.020 7  19230797.660 7  19230801.222 6
      3787.909        2946.155  
 122070091.816    95119566.5034   23229170.225 7  23229170.64845  23229175.61045
      -200.257        -156.043  
 108433693.206    84337337.984    20277646.778 7  20277646.465 6  20277650.681 7
      1560.823        1213.977  
 118318881.559    92196552.1534   22515336.094 7  22515335.58945  22515339.16845
       976.559         760.961  
 109773380.722    85537721.4874   20889175.539 8  20889175.69246  20889178.60246
      5097.265        3971.890  
 119946527.614    93291762.553    22477928.330 7  22477926.986 6  22477931.712 7
      1858.898        1445.806  
 107194085.911    83373203.518    20031770.220 8  20031769.863 8  20031771.476 7
      5889.716        4580.887  
 125276890.343    97618378.3144   23839395.787 6  23839394.68843  23839401.93743
      5909.724        4604.968  
 125318152.892    97650538.6644   23847244.773 7  23847244.21944  23847251.91544
      6519.559        5080.179  
 117512976.965    91399006.157    21998670.250 7  21998670.015 7  21998675.482 7
      6826.382        5309.414  
 123294905.960    96073974.8424   23462237.310 6  23462236.38244  23462240.25144
      6031.272        4699.675  
 11  5 30 15 31 25.0000000  0 14G27G 9R10R11G15R20G17G12R 2R21G 4G25
                                R12G14                              
 109195093.899    85087103.5004   20779135.187 8  20779134.94046  20779139.09346
      2368.044        1845.232  
 103190263.991    80408019.1754   19636454.538 8  19636454.02447  19636457.69247
      3002.416        2339.549  
 112921435.646    87827801.271    21183776.390 7  21183775.455 7  21183782.974 6
       473.931         368.616  
 102744625.531    79912504.060    19227254.610 7  19227254.702 7  19227258.355 6
      3785.077        2943.951  
 122071096.064    95120349.0204   23229361.486 7  23229361.51045  23229366.82845
      -201.407        -156.923  
 108425899.990    84331276.594    20276189.064 7  20276189.090 6  20276193.311 7
      1556.524        1210.630  
 118314004.897    92192752.1504   22514407.972 7  22514407.69045  22514411.20445
       973.958         758.936  
 109747899.106    85517865.6864   20884326.589 8  20884326.77346  20884329.56446
      5095.344        3970.398  
 119937242.976    93284541.167    22476188.203 7  22476187.148 6  22476192.108 7
      1854.774        1442.609  
 107164646.918    83350306.531    20026268.660 8  20026268.485 8  20026270.023 7
      5885.851        4577.886  
 125247346.772    97595357.3714   23833773.491 6  23833773.21343  23833780.07943
      5907.546        4603.282  
 125285556.734    97625139.0754   23841042.091 7  23841041.19644  23841049.14544
      6518.878        5079.649  
 117478846.743    91372460.437    21992281.106 7  21992280.516 7  21992286.518 7
      6825.696        5308.878  
 123264754.218    96050479.9774   23456498.961 6  23456498.60044  23456502.73244
      6029.275        4698.146  
 11  5 30 15 31 30.0000000  0 14G27G 9R10R11G15R20G17G12R 2R21G 4G25
                                R12G14                              
 109183259.136    85077881.6034   20776883.475 8  20776882.89946  20776887.04946
      2365.827        1843.513  
 103175260.269    80396327.9604   19633599.294 8  19633598.86747  19633602.57447
      2999.106        2336.968  
 112919071.375    87825962.382    21183332.071 7  21183331.943 7  21183339.863 6
       471.659         366.847  
 102725707.603    79897790.116    19223714.696 7  19223714.571 7  19223718.172 6
      3782.111        2941.638  
 122072106.430    95121136.3014   23229553.435 7  23229553.93945  23229559.07945
      -202.708        -157.949  
 108418128.192    84325231.859    20274736.317 7  20274735.723 6  20274739.918 7
      1552.123        1207.207  
 118309140.513    92188961.7174   22513482.234 7  22513482.01445  22513485.56645
       971.487         756.995  
 109722428.222    85498018.2504   20879479.839 8  20879479.81846  20879482.65546
      5093.068        3968.626  
 119927979.090    93277335.915    22474451.377 6  22474450.358 6  22474456.591 7
      1850.671        1439.411  
 107135227.713    83327424.932    20020770.946 8  20020770.707 8  20020772.423 7
      5881.799        4574.733  
 125217812.846    97572343.9324   23828153.989 6  23828153.77343  23828160.01643
      5905.690        4601.831  
 125252965.057    97599742.9674   23834839.953 7  23834839.25044  23834846.77644
      6517.839        5078.818  
 117444720.600    91345917.890    21985892.748 7  21985892.039 7  21985898.098 7
      6824.747        5308.135  
 123234613.978    96026994.0784   23450763.296 6  23450763.15744  23450767.10044
      6026.759        4696.191  
 11  5 30 15 31 35.0000000  0 14G27G 9R10R11G15R20G17G12R 2R21G 4G25
                                R12G14                              
 109171435.867    85068668.6654   20774633.388 8  20774632.98646  20774637.15446
      2363.430        1841.633  
 103160273.379    80384649.8674   19630747.430 8  19630746.94847  19630750.68847
      2995.620        2334.253  
 112916717.792    87824131.803    21182891.193 7  21182890.669 7  21182898.564 6
       469.705         365.334  
 102706804.584    79883087.768    19220177.196 7  19220177.216 7  19220180.801 6
      3779.055        2939.263  
 122073123.400    95121928.7284   23229747.097 7  23229747.52945  23229752.59045
      -204.088        -159.036  
 108410378.466    84319204.289    20273286.385 7  20273286.608 6  20273290.737 7
      1547.755        1203.809  
 118304288.964    92185181.2884   22512558.947 7  22512558.82445  22512562.37845
       969.148         755.186  
 109696968.531    85478179.5314   20874635.033 8  20874634.95246  20874637.81446
      5090.846        3966.883  
 119918736.463    93270147.189    22472718.540 6  22472718.068 6  22472724.455 7
      1846.333        1436.042  
 107105828.739    83304559.068    20015277.125 8  20015276.736 8  20015278.468 7
      5877.787        4571.613  
 125188288.874    97549338.2594   23822535.527 6  23822535.56043  23822541.49443
      5903.717        4600.294  
 125220378.367    97574350.7494   23828638.363 7  23828637.97444  23828645.46644
      6516.894        5078.119  
 117410598.987    91319378.862    21979505.352 7  21979504.548 7  21979510.476 7
      6824.072        5307.612  
 123204485.676    96003517.4814   23445029.733 6  23445029.79844  23445033.99244
      6024.677        4694.562  
 11  5 30 15 31 40.0000000  0 14G27G 9R10R11G15R20G17G12R 2R21G 4G25
                                R12G14                              
 109159623.947    85059464.5704   20772385.648 8  20772385.24846  20772389.40546
      2361.218        1839.915  
 103145303.206    80372984.7954   19627898.928 8  19627898.23047  19627901.89447
      2992.430        2331.760  
 112914374.886    87822309.542    21182452.218 7  21182451.407 7  21182458.791 6
       467.419         363.554  
 102687916.324    79868396.900    19216642.588 7  19216642.458 7  19216646.100 6
      3776.159        2937.016  
 122074146.813    95122726.1794   23229942.315 7  23229942.31545  23229947.42745
      -205.363        -160.023  
 108402650.517    84313193.663    20271842.050 7  20271841.619 6  20271845.478 7
      1543.492        1200.497  
 118299450.064    92181410.7074   22511638.091 7  22511638.11945  22511641.28645
       966.529         753.131  
 109671519.926    85458349.4524   20869792.096 7  20869792.10546  20869795.09646
      5088.505        3965.057  
 119909514.839    93262974.815    22470990.582 6  22470990.156 6  22470995.840 7
      1842.176        1432.816  
 107076449.922    83281708.879    20009787.216 8  20009786.615 8  20009788.477 7
      5873.661        4568.405  
 125158774.936    97526340.3884   23816917.495 6  23816918.76743  23816925.29243
      5902.001        4598.996  
 125187796.519    97548962.3114   23822437.721 7  23822437.21744  23822445.19644
      6515.905        5077.328  
 117376481.816    91292843.288    21973117.975 7  21973117.695 7  21973123.856 7
      6822.947        5306.736  
 123174369.251    95980050.1364   23439298.904 6  23439298.59444  23439302.94144
      6022.032        4692.474  
 11  5 30 15 31 45.0000000  0 14G27G 9R10R11G15R20G17G12R 2R21G 4G25
                                R12G14                              
 109147823.497    85050269.4124   20770140.286 8  20770139.73246  20770143.88346
      2358.937        1838.130  
 103130349.871    80361332.8464   19625053.291 8  19625052.77447  19625056.36647
      2988.989        2329.073  
 112912042.758    87820495.653    21182014.284 7  21182013.712 7  21182021.081 6
       465.241         361.852  
 102669042.852    79853717.530    19213111.097 7  19213110.405 7  19213114.270 6
      3773.220        2934.725  
 122075176.737    95123528.7074   23230138.559 7  23230138.50545  23230143.43745
      -206.579        -160.952  
 108394944.555    84307200.137    20270400.963 7  20270400.494 6  20270404.385 7
      1539.051        1197.032  
 118294623.930    92177650.0784   22510719.438 7  22510719.64945  22510722.98445
       963.906         751.083  
 109646082.531    85438528.1094   20864951.548 8  20864951.56646  20864954.50746
      5086.310        3963.354  
 119900314.296    93255818.839    22469266.040 6  22469266.226 6  22469271.523 7
      1837.997        1429.545  
 107047091.219    83258874.336    20004300.768 8  20004300.190 8  20004302.264 7
      5869.765        4565.368  
 125129270.944    97503350.2974   23811303.197 6  23811303.84343  23811310.71743
      5899.932        4597.364  
 125155219.623    97523577.7274   23816237.798 6  23816237.65144  23816246.22244
      6514.803        5076.472  
 117342369.241    91266311.292    21966731.933 7  21966731.586 7  21966737.717 7
      6821.895        5305.915  
 123144264.794    95956592.1254   23433569.944 6  23433569.80244  23433574.16844
      6019.641        4690.614  
 11  5 30 15 31 50.0000000  0 14G27G 9R10R11G15R20G17G12R 2R21G 4G25
                                R12G14                              
 109136034.613    85041083.2654   20767897.098 8  20767896.36046  20767900.54046
      2356.642        1836.337  
 103115413.541    80349694.1474   19622210.733 8  19622210.54747  19622214.11047
      2985.495        2326.367  
 112909721.417    87818690.147    21181578.531 7  21181578.062 7  21181585.582 6
       463.205         360.272  
 102650184.360    79839049.813    19209581.369 7  19209581.281 7  19209585.156 6
      3770.129        2932.324  
 122076213.352    95124336.4484   23230335.487 7  23230335.73345  23230340.75145
      -208.003        -162.078  
 108387260.738    84301223.833    20268962.881 7  20268963.667 6  20268967.495 7
      1534.459        1193.463  
 118289810.669    92173899.4804   22509803.544 7  22509803.82945  22509806.76645
       961.310         749.061  
 109620656.443    85418715.5764   20860113.341 8  20860113.25546  20860116.02446
      5084.006        3961.557  
 119891135.096    93248679.459    22467546.700 6  22467545.781 6  22467551.246 7
      1833.804        1426.291  
 107017753.001    83236055.729    19998818.521 8  19998817.745 8  19998819.688 7
      5865.609        4562.133  
 125099777.199    97480368.1704   23805691.446 6  23805691.36243  23805697.98543
      5897.815        4595.709  
 125122647.836    97498197.1334   23810039.559 6  23810039.34944  23810047.97744
      6513.951        5075.820  
 117308261.347    91239782.939    21960346.864 7  21960346.256 7  21960352.438 7
      6820.902        5305.146  
 123114172.460    95933143.5574   23427843.821 6  23427843.42143  23427847.98144
      6017.368        4688.858  
 11  5 30 15 31 55.0000000  0 15G27G 9R10R11G15R20G17G12R22R 2R21G 4
                                G25R12G14                           
 109124257.351    85031906.1784   20765655.688 8  20765655.24946  20765659.38646
      2354.303        1834.522  
 103100494.178    80338068.6684   19619372.003 8  19619371.46247  19619375.13647
      2982.152        2323.749  
 112907410.762    87816892.966    21181144.507 7  21181144.707 7  21181152.030 6
       461.235         358.743  
 102631340.964    79824393.837    19206055.429 7  19206055.027 7  19206058.921 6
      3767.119        2929.992  
 122077256.654    95125149.3954   23230533.957 7  23230534.10345  23230539.22945
      -209.373        -163.132  
 108379598.984    84295264.688    20267530.782 7  20267530.619 6  20267534.753 7
      1530.195        1190.153  
 118285010.354    92170158.9734   22508889.973 7  22508890.30145  22508893.30145
       958.676         747.010  
 109595241.706    85398911.8874   20855276.896 8  20855276.91346  20855279.71146
      5081.918        3959.931  
 124754808.882    97031548.196    23370773.840 7  23370773.814 6  23370781.308 6
      8022.607        6239.791  
 119881977.178    93241556.631    22465830.394 7  22465829.682 6  22465835.287 7
      1829.433        1422.886  
 106988435.175    83213252.979    19993339.686 8  19993339.142 8  19993340.989 7
      5861.518        4558.956  
 125070293.696    97457394.0334   23800081.420 6  23800081.40243  23800087.65943
      5895.524        4593.915  
 125090081.165    97472820.5304   23803843.572 7  23803842.56244  23803851.01544
      6512.810        5074.890  
 117274158.225    91213258.305    21953961.804 7  21953961.776 6  21953968.273 7
      6820.030        5304.460  
 123084092.303    95909704.4764   23422120.190 6  23422119.17744  23422123.92444
      6014.927        4686.948  
 11  5 30 15 32  0.0000000  0 15G27G 9R10R11G15R20G17G12R22R 2R21G 4
                                G25R12G14                           
 109112491.659    85022738.1024   20763416.924 8  20763416.28046  20763420.39846
      2351.936        1832.672  
 103085591.777    80326456.4074   19616535.990 8  19616535.63547  19616539.24347
      2978.791        2321.139  
 112905110.956    87815104.221    21180714.099 7  21180713.406 7  21180720.599 6
       458.870         356.902  
 102612512.462    79809749.447    19202531.962 7  19202531.397 7  19202535.378 6
      3764.261        2927.763  
 122078306.535    95125967.4714   23230733.625 7  23230733.77245  23230739.06145
      -210.593        -164.097  
 108371959.245    84289322.666    20266101.987 7  20266102.165 6  20266106.041 7
      1525.516        1186.509  
 118280222.863    92166428.4594   22507979.066 7  22507979.37945  22507982.14545
       956.413         745.252  
 109569838.218    85379116.9664   20850442.369 8  20850442.71946  20850445.52946
      5079.514        3958.057  
 124714698.452    97000351.241    23363260.553 7  23363259.833 6  23363267.448 6
      8021.470        6238.911  
 119872840.468    93234450.296    22464117.912 6  22464117.009 6  22464123.283 7
      1825.201        1419.599  
 106959137.676    83190466.043    19987865.149 8  19987864.199 8  19987865.932 7
      5857.474        4555.809  
 125040820.412    97434427.8594   23794473.277 6  23794473.01343  23794479.54143
      5893.502        4592.330  
 125057519.619    97447447.9024   23797647.804 7  23797646.93244  23797654.62544
      6511.611        5073.983  
 117240059.784    91186737.314    21947579.257 7  21947578.904 7  21947585.220 7
      6819.091        5303.727  
 123054024.268    95886274.8494   23416398.374 6  23416397.55644  23416402.13344
      6012.194        4684.819  
 11  5 30 15 32  5.0000000  0 15G27G 9R10R11G15R20G17G12R22R 2R21G 4
                                G25R12G14                           
 109100737.771    85013579.2274   20761180.062 8  20761179.56546  20761183.76946
      2349.730        1830.956  
 103070706.559    80314857.5324   19613703.549 8  19613703.06147  19613706.68447
      2975.527        2318.593  
 112902822.162    87813324.032    21180284.923 7  21180284.196 7  21180291.307 6
       456.858         355.338  
 102593699.210    79795116.917    19199011.100 7  19199010.806 7  19199014.817 6
      3761.217        2925.386  
 122079363.250    95126790.8714   23230934.716 7  23230934.82145  23230940.20445
      -211.777        -165.025  
 108364341.852    84283398.026    20264678.788 7  20264677.771 6  20264681.564 7
      1521.464        1183.363  
 118275448.452    92162708.1394   22507070.477 7  22507070.76545  22507073.80945
       953.740         743.188  
 109544446.249    85359331.0204   20845610.663 8  20845610.81146  20845613.70046
      5077.366        3956.386  
 124674592.422    96969157.703    23355746.478 7  23355746.330 6  23355754.060 6
      8020.731        6238.331  
 119863725.224    93227360.650    22462410.093 6  22462409.343 6  22462415.381 7
      1821.039        1416.369  
 106929860.935    83167695.249    19982393.829 8  19982393.081 8  19982394.792 7
      5853.359        4552.605  
 125011357.618    97411469.8454   23788866.390 6  23788866.55943  23788872.76943
      5891.727        4590.952  
 125024963.342    97422079.3874   23791452.757 6  23791451.88344  23791459.21844
      6510.897        5073.412  
 117205966.301    91160220.173    21941198.254 7  21941197.125 7  21941203.131 7
      6818.336        5303.141  
 123023968.603    95862854.8524   23410678.626 6  23410678.45744  23410682.81244
      6009.831        4682.979  
 11  5 30 15 32 10.0000000  0 15G27G 9R10R11G15R20G17G12R22R 2R21G 4
                                G25R12G14                           
 109088995.558    85004429.4494   20758945.504 8  20758945.16046  20758949.29646
      2347.333        1829.086  
 103055838.443    80303271.9894   19610874.095 8  19610873.71447  19610877.36047
      2971.893        2315.767  
 112900544.321    87811552.371    21179856.884 7  21179856.584 7  21179863.943 6
       454.476         353.479  
 102574901.080    79780496.149    19195493.412 7  19195493.018 7  19195496.921 6
      3758.051        2922.919  
 122080426.702    95127619.5124   23231137.748 7  23231137.35745  23231142.35645
      -213.558        -166.400  
 108356746.656    84277490.652    20263257.773 7  20263257.443 6  20263261.265 7
      1516.814        1179.748  
 118270686.997    92158997.9144   22506164.230 7  22506164.81445  22506167.81445
       950.922         740.975  
 109519065.715    85339553.9834   20840781.206 8  20840781.12146  20840784.06546
      5074.935        3954.497  
 124634490.622    96937967.457    23348234.085 7  23348233.702 6  23348241.578 6
      8019.807        6237.620  
 119854631.299    93220287.590    22460706.174 6  22460705.255 6  22460710.600 7
      1816.686        1412.983  
 106900604.655    83144940.370    19976926.469 8  19976925.830 8  19976927.490 7
      5849.201        4549.382  
 124981905.201    97388519.9354   23783262.763 6  23783262.28343  23783267.95143
      5889.218        4588.984  
 124992412.300    97396714.9514   23785257.648 6  23785257.27744  23785264.49044
      6509.662        5072.455  
 117171877.672    91133706.792    21934816.066 7  21934815.981 7  21934821.377 7
      6817.324        5302.376  
 122993925.208    95839444.4134   23404961.974 6  23404961.31244  23404965.55344
      6007.325        4681.038  
 11  5 30 15 32 15.0000000  0 15G27G 9R10R11G15R20G17G12R22R 2R21G 4
                                G25R12G14                           
 109077264.768    84995288.5704   20756713.140 8  20756712.85046  20756716.92946
      2345.055        1827.310  
 103040987.126    80291699.5354   19608048.155 8  19608047.65047  19608051.26647
      2968.608        2313.202  
 112898277.045    87809788.922    21179431.695 7  21179431.524 7  21179438.631 6
       452.409         351.866  
 102556117.779    79765886.915    19191978.203 7  19191978.058 7  19191981.870 6
      3755.223        2920.724  
 122081496.544    95128453.1474   23231341.104 7  23231341.29345  23231345.87945
      -214.551        -167.180  
 108349173.296    84271600.262    20261841.337 7  20261841.255 6  20261844.998 7
      1512.460        1176.354  
 118265938.186    92155297.5324   22505260.740 7  22505260.92145  22505263.99945
       948.571         739.149  
 109493696.343    85319785.6494   20835953.671 8  20835953.46646  20835956.40746
      5072.700        3952.751  
 124594392.876    96906780.374    23340722.852 7  23340722.163 6  23340729.788 6
      8019.255        6237.204  
 119845558.418    93213230.895    22459005.317 6  22459004.901 6  22459010.309 7
      1812.525        1409.746  
 106871368.674    83122201.276    19971462.429 8  19971462.390 8  19971463.992 7
      5845.233        4546.288  
 124952462.784    97365577.7924   23777659.667 6  23777659.30943  23777665.24243
      5887.432        4587.631  
 124959866.214    97371354.3784   23779063.686 7  23779063.38744  23779071.16944
      6508.861        5071.844  
 117137793.587    91107196.949    21928435.226 7  21928434.719 7  21928440.248 7
      6816.384        5301.641  
 122963893.738    95816043.2684   23399246.985 7  23399246.56544  23399250.65144
      6005.341        4679.490  
 11  5 30 15 32 20.0000000  0 15G27G 9R10R11G15R20G17G12R22R 2R21G 4
                                G25R12G14                           
 110640967.411    86213758.1614   21054276.002 8  21054275.57146  21054279.74146
      2342.821        1825.580  
 104601575.256    81507742.2324   19905018.130 8  19905017.71647  19905021.36347
      2965.260        2310.595  
 114494082.948    89050971.288    21478801.651 7  21478800.993 7  21478807.703 6
       450.384         350.299  
 104139352.733    80997291.876    19488259.119 8  19488258.960 7  19488262.701 6
      3752.192        2918.380  
 123657992.271    96356891.3654   23531338.734 7  23531338.43945  23531343.06445
      -215.863        -168.191  
 109944747.992    85512602.800    20560222.156 7  20560221.826 6  20560225.627 7
      1508.126        1172.993  
 119836622.644    93379207.5004   22804152.280 7  22804152.41545  22804155.27645
       946.058         737.187  
 111043762.878    86527629.7024   21130921.693 8  21130921.31146  21130924.23546
      5070.609        3951.125  
 126154619.239    98120289.816    23633006.061 7  23633004.940 6  23633012.866 6
      8018.312        6236.456  
 121436258.032    94450441.696    22757102.198 7  22757101.551 6  22757107.047 7
      1808.585        1406.681  
 108446408.504    84347232.263    20265796.561 8  20265796.234 8  20265797.913 7
      5841.177        4543.137  
 126498456.120    98570247.9484   24071852.920 7  24071851.98643  24071858.31443
      5885.644        4586.223  
 126502751.247    98573602.4674   24072665.976 7  24072664.91844  24072672.48844
      6507.667        5070.903  
 118705158.094    92326258.237    22221848.553 7  22221847.951 7  22221853.796 7
      6815.401        5300.861  
 124509300.021    97020255.9594   23693327.896 6  23693327.67044  23693331.76944
      6002.784        4677.530  
 11  5 30 15 32 25.0000000  0 15G27G 9R10R11G15R20G17G12R22R 2R21G 4
                                G25R12G14                           
 110629258.740    86204634.5164   21052047.785 8  21052047.49146  21052051.63346
      2340.630        1823.870  
 104586756.829    81496195.4044   19902198.599 8  19902197.86747  19902201.46847
      2962.167        2308.190  
 114491836.126    89049223.756    21478379.818 7  21478379.189 7  21478386.377 6
       448.278         348.663  
 104120598.409    80982705.180    19484749.525 7  19484749.440 7  19484753.132 6
      3749.339        2916.153  
 123659074.208    96357734.4214   23531544.382 7  23531544.24345  23531548.88445
      -216.898        -168.994  
 109937217.527    85506745.770    20558813.358 7  20558813.569 6  20558817.414 7
      1503.917        1169.712  
 119831898.400    93375526.2634   22803253.367 7  22803253.36645  22803256.42045
       943.594         735.284  
 111018415.095    86507878.1884   21126097.999 8  21126097.79246  21126100.74746
      5068.439        3949.435  
 126114528.694    98089108.323    23625494.469 6  23625494.701 6  23625502.634 6
      8017.852        6236.100  
 121427226.452    94443417.130    22755409.450 6  22755409.264 6  22755414.568 7
      1804.369        1403.405  
 108417212.326    84324524.128    20260340.651 8  20260340.343 8  20260341.988 7
      5837.213        4540.053  
 126469033.295    98547321.0764   24066253.316 6  24066253.05543  24066259.90743
      5883.551        4584.579  
 126470214.331    98548249.0414   24066474.380 7  24066473.70844  24066481.31244
      6506.765        5070.201  
 118671082.471    92299754.986    22215469.660 7  22215468.988 7  22215475.163 7
      6814.661        5300.302  
 124479291.907    96996873.0154   23687618.147 6  23687617.39244  23687621.21644
      6000.595        4675.788  
 11  5 30 15 32 30.0000000  0 15G27G 9R10R11G15R20G17G12R22R 2R21G 4
                                G25R12G14                           
 110617561.022    86195519.4124   21049821.726 8  21049821.48846  21049825.60846
      2338.404        1822.127  
 104571954.759    81484661.3244   19899381.396 8  19899381.05547  19899384.71047
      2958.832        2305.582  
 114489599.421    89047484.088    21477960.018 7  21477959.598 7  21477966.922 6
       446.298         347.116  
 104101858.418    80968129.635    19481242.561 7  19481242.478 7  19481246.155 6
      3746.688        2914.090  
 123660162.052    96358582.0784   23531750.733 7  23531750.97745  23531755.92945
      -218.174        -170.002  
 109929708.439    85500905.369    20557409.237 7  20557409.308 6  20557413.099 7
      1499.760        1166.476  
 119827186.332    93371854.5244   22802356.670 7  22802356.70845  22802359.84245
       940.959         733.213  
 110993078.009    86488135.0114   21121276.020 8  21121276.31246  21121279.19346
      5066.293        3947.760  
 126074441.688    98057929.589    23617984.933 6  23617984.569 6  23617992.891 6
      8016.978        6235.414  
 121418215.392    94436408.519    22753720.866 6  22753720.050 6  22753725.497 7
      1800.144        1400.106  
 108388036.067    84301831.488    20254888.501 8  20254887.989 8  20254889.581 7
      5833.250        4536.966  
 126439620.163    98524401.7724   24060654.979 6  24060655.82343  24060662.54443
      5881.651        4583.097  
 126437681.892    98522899.1074   24060284.086 7  24060283.20144  24060290.62144
      6506.044        5069.625  
 118637010.911    92273254.895    22209091.542 7  22209091.187 7  22209097.192 7
      6813.816        5299.626  
 124449295.355    96973499.0934   23681909.892 6  23681909.11844  23681913.27444
      5997.992        4673.737  
 11  5 30 15 32 35.0000000  0 15G27G 9R10R11G15R20G17G12R22R 2R21G 4
                                G25R12G14                           
 110605874.306    86186412.8774   21047598.284 8  21047597.61846  21047601.74346
      2336.292        1820.486  
 104557169.055    81473139.9964   19896567.940 8  19896567.43746  19896571.10347
      2955.447        2302.943  
 114487372.862    89045752.311    21477542.551 7  21477541.839 7  21477549.456 6
       444.256         345.530  
 104083132.920    80953565.355    19477738.494 7  19477738.276 7  19477741.983 6
      3743.696        2911.753  
 123661255.846    96359434.3684   23531958.969 7  23531959.09945  23531964.05445
      -219.379        -170.943  
 109922220.770    85495081.626    20556008.766 7  20556009.155 6  20556012.894 7
      1495.143        1162.895  
 119822486.446    93368192.2684   22801462.431 7  22801462.37345  22801465.57845
       938.856         731.595  
 110967751.703    86468400.2294   21116456.843 8  21116456.84246  21116459.75446
      5064.129        3946.077  
 126034358.380    98026753.729    23610476.280 7  23610475.878 6  23610483.872 6
      8016.246        6234.850  
 121409224.948    94429415.942    22752035.577 6  22752034.832 6  22752040.985 7
      1795.749        1396.698  
 108358879.704    84279154.324    20249439.705 8  20249439.424 8  20249441.097 7
      5829.294        4533.898  
 126410216.865    98501490.1204   24055059.781 6  24055060.10243  24055066.79643
      5879.614        4581.516  
 126405154.044    98497552.7334   24054093.806 7  24054093.05944  24054100.35844
      6504.923        5068.764  
 118602943.584    92246758.094    22202713.928 7  22202713.712 7  22202719.648 7
      6812.900        5298.928  
 124419310.473    96950134.2514   23676203.620 6  23676202.99044  23676207.24744
      5995.683        4671.982  
 11  5 30 15 32 40.0000000  0 15G27G 9R10R11G15R20G17G12R22R 2R21G 4
                                G25R12G14                           
 110594198.926    86177315.1764   21045376.268 8  21045375.96846  21045380.05446
      2333.959        1818.670  
 104542400.064    81461631.6904   19893757.391 8  19893757.01047  19893760.65647
      2952.151        2300.379  
 114485156.783    89044028.682    21477126.803 7  21477125.807 7  21477133.593 6
       442.142         343.892  
 104064422.163    80939012.546    19474237.002 7  19474236.745 7  19474240.591 6
      3740.598        2909.355  
 123662355.906    96360291.5464   23532168.501 7  23532168.55545  23532173.37745
      -220.583        -171.863  
 109914754.760    85489274.726    20554612.642 7  20554612.768 6  20554616.844 7
      1491.005        1159.670  
 119817799.099    93364539.7894   22800570.520 7  22800570.34745  22800573.55245
       936.102         729.422  
 110942436.469    86448674.0774   21111639.643 8  21111639.56046  21111642.46246
      5061.985        3944.404  
 125994278.970    97995580.901    23602968.251 7  23602967.851 6  23602975.680 6
      8015.587        6234.336  
 121400255.358    94422439.584    22750354.740 7  22750354.496 6  22750360.149 7
      1791.829        1393.655  
 108329743.510    84256492.846    20243995.085 8  20243994.677 8  20243996.462 7
      5825.242        4530.753  
 126380823.561    98478586.2594   24049467.106 6  24049466.85843  24049473.10943
      5877.707        4580.023  
 126372631.017    98472210.1294   24047904.029 7  24047903.75344  24047911.58144
      6504.170        5068.180  
 118568880.753    92220264.790    22196337.452 7  22196337.048 7  22196343.259 7
      6812.029        5298.243  
 124389337.544    96926778.7294   23670499.521 6  23670499.06344  23670503.27444
      5993.448        4670.212  
 11  5 30 15 32 45.0000000  0 15G27G 9R10R11G15R20G17G12R22R 2R21G 4
                                G25R12G14                           
 110582534.679    86168226.1514   21043156.745 8  21043156.27846  21043160.39446
      2331.730        1816.933  
 104527647.609    81450136.2704   19890950.032 8  19890949.70047  19890953.32847
      2948.860        2297.818  
 114482950.935    89042313.012    21476712.530 7  21476711.922 7  21476719.579 6
       440.287         342.440  
 104045726.033    80924471.111    19470738.268 7  19470737.849 7  19470741.640 6
      3737.706        2907.100  
 123663462.048    96361153.4544   23532378.839 7  23532379.15145  23532383.94545
      -221.778        -172.807  
 109907310.229    85483484.536    20553219.963 7  20553220.581 6  20553224.531 7
      1486.881        1156.468  
 119813124.059    93360896.8984   22799680.692 7  22799680.56645  22799683.92745
       933.823         727.651  
 110917132.122    86428956.4074   21106824.719 8  21106824.36246  21106827.21746
      5059.775        3942.679  
 125954203.425    97964411.068    23595461.672 7  23595460.632 6  23595468.275 6
      8014.655        6233.621  
 121391306.426    94415479.298    22748678.803 6  22748677.698 6  22748683.145 7
      1787.716        1390.454  
 108300627.416    84233847.007    20238553.786 8  20238553.595 8  20238555.411 7
      5821.275        4527.654  
 126351440.179    98455690.1354   24043875.832 6  24043875.50443  24043881.81443
      5875.537        4578.356  
 126340112.716    98446871.2104   24041715.552 6  24041715.33044  24041723.72344
      6503.173        5067.417  
 118534822.268    92193774.871    22189961.607 7  22189961.452 7  22189967.331 7
      6811.250        5297.628  
 124359376.439    96903432.4184   23664798.030 6  23664797.38443  23664801.84243
      5991.238        4668.508  
 11  5 30 15 32 50.0000000  0 15G27G 9R10R11G15R20G17G12R22R 2R21G 4
                                G25R12G14                           
 110570881.469    86159145.7264   21040939.242 8  21040938.73146  21040942.91346
      2329.633        1815.297  
 104512911.575    81438653.6464   19888146.068 8  19888145.54147  19888149.17847
      2945.543        2295.229  
 114480755.333    89040605.311    21476300.932 7  21476299.964 7  21476307.802 6
       438.181         340.813  
 104027044.344    80909940.907    19467242.126 7  19467241.850 7  19467245.767 6
      3734.978        2904.985  
 123664574.190    96362020.0474   23532590.800 7  23532590.84545  23532595.70045
      -222.944        -173.731  
 109899887.082    85477710.974    20551832.924 7  20551832.652 6  20551836.322 7
      1482.524        1153.078  
 119808461.217    93357263.5104   22798793.491 7  22798793.29045  22798796.59145
       931.496         725.843  
 110891838.569    86409247.1444   21102011.163 8  21102011.19646  21102013.95446
      5057.849        3941.173  
 125914131.484    97933244.046    23587954.373 7  23587953.812 6  23587961.255 6
      8014.232        6233.273  
 121382378.078    94408535.025    22747005.174 7  22747004.793 6  22747009.680 7
      1783.738        1387.353  
 108271531.309    84211216.704    20233116.746 8  20233116.125 8  20233118.049 7
      5817.253        4524.528  
 126322066.592    98432801.6444   24038286.008 6  24038286.29943  24038292.16243
      5873.648        4576.864  
 126307599.026    98421535.8704   24035529.307 7  24035528.60344  24035536.63544
      6502.304        5066.729  
 118500768.017    92167288.232    22183587.446 7  22183586.761 7  22183592.157 7
      6810.458        5297.029  
 124329427.057    96880095.2544   23659098.676 6  23659098.42843  23659103.00443
      5988.636        4666.464  
 11  5 30 15 32 55.0000000  0 15G27G 9R10R11G15R20G17G12R22R 2R21G 4
                                G25R12G14                           
 110559239.013    86150073.6824   21038723.575 8  21038723.28446  21038727.39946
      2327.465        1813.613  
 104498191.651    81427183.5724   19885344.735 8  19885344.42947  19885348.11747
      2942.433        2292.806  
 114478569.687    89038905.345    21475890.013 7  21475889.969 7  21475897.858 6
       436.250         339.307  
 104008376.879    80895421.769    19463748.560 7  19463748.562 7  19463752.450 6
      3732.060        2902.713  
 123665692.042    96362891.0854   23532803.627 7  23532803.67145  23532808.45945
      -224.012        -174.556  
 109892485.045    85471953.833    20550448.429 7  20550448.334 6  20550452.098 7
      1478.254        1149.760  
 119803810.332    93353639.4334   22797908.393 7  22797908.30045  22797911.29945
       928.975         723.890  
 110866555.502    86389546.0574   21097199.856 7  21097199.87846  21097202.71446
      5055.604        3939.435  
 125874063.028    97902079.731    23580446.957 7  23580447.168 6  23580454.892 6
      8013.337        6232.579  
 121373469.962    94401606.490    22745335.764 7  22745335.467 6  22745340.197 7
      1779.686        1384.201  
 108242454.885    84188601.713    20227682.566 8  20227682.378 8  20227684.248 7
      5813.357        4521.499  
 126292702.540    98409920.5684   24032698.185 6  24032698.23143  24032704.29443
      5871.850        4575.451  
 126275089.630    98396203.8834   24029343.104 7  24029342.38644  24029350.30144
      6501.408        5066.025  
 118466717.706    92140804.660    22177212.392 7  22177212.438 7  22177217.607 7
      6809.710        5296.437  
 124299489.086    96856766.9734   23653401.901 6  23653401.45443  23653405.82743
      5986.479        4664.793  
 11  5 30 15 33  0.0000000  0 15G27G 9R10R11G15R20G17G12R22R 2R21G 4
                                G25R12G14                           
 110547607.383    86141010.0694   21036510.365 8  21036509.85846  21036513.93746
      2325.144        1811.802  
 104483487.977    81415726.1654   19882546.897 8  19882546.46647  19882549.96447
      2939.091        2290.202  
 114476393.918    89037213.065    21475483.050 7  21475482.462 7  21475489.620 6
       433.972         337.525  
 103989723.651    80880913.701    19460257.548 7  19460257.824 7  19460261.784 6
      3729.206        2900.490  
 123666815.557    96363766.5384   23533017.552 7  23533017.45945  23533022.17045
      -225.294        -175.553  
 109885104.019    85466213.035    20549067.921 7  20549067.873 6  20549071.823 7
      1474.042        1146.488  
 119799171.368    93350024.6534   22797025.943 7  22797025.49345  22797028.60745
       926.622         722.052  
 110841283.019    86369853.2194   21092390.693 8  21092390.70246  21092393.51946
      5053.367        3937.682  
 125833998.019    97870918.103    23572941.669 6  23572941.492 6  23572949.491 6
      8012.957        6232.293  
 121364582.186    94394693.778    22743670.263 7  22743669.819 6  22743674.586 7
      1775.364        1380.831  
 108213398.254    84166002.112    20222252.909 8  20222252.601 8  20222254.410 7
      5809.323        4518.365  
 126263348.147    98387047.0294   24027112.193 6  24027111.95743  24027118.37843
      5869.812        4573.878  
 126242584.576    98370875.2734   24023156.824 6  24023156.57944  24023164.58844
      6500.603        5065.394  
 118432671.414    92114324.213    22170839.231 7  22170838.737 7  22170844.149 7
      6808.842        5295.767  
 124269562.634    96833447.6634   23647707.108 6  23647706.81043  23647710.78343
      5984.188        4663.008  
 11  5 30 15 33  5.0000000  0 15G27G 9R10R11G15R20G17G12R22R 2R21G 4
                                G25R12G14                           
 110535986.671    86131954.9684   21034299.056 8  21034298.48446  21034302.63646
      2323.077        1810.190  
 104468800.626    81404281.4724   19879751.952 8  19879751.54347  19879755.09547
      2935.773        2287.617  
 114474228.304    89035528.696    21475076.053 7  21475076.160 7  21475083.350 6
       432.040         336.025  
 103971084.917    80866416.908    19456769.931 7  19456769.796 7  19456773.762 6
      3726.225        2898.184  
 123667944.878    96364646.5194   23533232.037 7  23533231.99145  23533237.14945
      -226.490        -176.482  
 109877744.305    85460488.812    20547691.939 7  20547691.579 6  20547695.444 7
      1469.694        1143.094  
 119794544.473    93346419.2764   22796145.447 7  22796145.21745  22796148.02545
       924.184         720.147  
 110816021.203    86350168.6924   21087583.742 8  21087583.51246  21087586.26046
      5051.213        3935.999  
 125793936.739    97839759.381    23565436.754 6  23565436.542 6  23565444.543 6
      8011.751        6231.354  
 121355714.770    94387796.895    22742008.474 7  22742007.792 6  22742012.852 7
      1771.398        1377.749  
 108184361.527    84143417.999    20216826.894 8  20216826.377 8  20216828.011 7
      5805.321        4515.251  
 126234003.504    98364181.0894   24021528.474 6  24021528.01343  24021534.13443
      5867.858        4572.355  
 126210084.067    98345550.2194   24016972.443 7  24016971.70944  24016980.22444
      6499.570        5064.585  
 118398629.349    92087847.058    22164466.315 7  22164466.077 7  22164471.731 7
      6808.009        5295.117  
 124239647.812    96810137.4074   23642014.449 6  23642014.24644  23642018.32944
      5981.640        4661.021  
 11  5 30 15 33 10.0000000  0 15G27G 9R10R11G15R20G17G12R22R 2R21G 4
                                G25R12G14                           
 110524377.099    86122908.5474   21032089.712 8  21032089.25946  21032093.41346
      2320.824        1808.437  
 104454129.819    81392849.6774   19876960.346 8  19876959.80547  19876963.36347
      2932.439        2285.018  
 114472073.035    89033852.359    21474672.021 7  21474671.429 7  21474679.019 6
       430.184         334.595  
 103952460.757    80851931.450    19453284.701 7  19453284.684 7  19453288.606 6
      3723.260        2895.877  
 123669080.121    96365531.1114   23533447.805 7  23533447.81545  23533453.12945
      -227.516        -177.280  
 109870406.087    85454781.309    20546320.009 7  20546319.281 6  20546323.256 7
      1465.500        1139.836  
 119789929.912    93342823.5134   22795267.247 7  22795267.12845  22795269.92945
       921.741         718.253  
 110790770.272    86330492.6464   21082778.653 8  21082778.50746  21082781.23646
      5049.104        3934.371  
 125753879.241    97808603.597    23557932.964 6  23557932.424 6  23557940.341 6
      8011.155        6230.894  
 121346867.901    94380916.000    22740349.377 6  22740349.249 6  22740354.868 7
      1767.494        1374.722  
 108155344.944    84120849.548    20211404.269 8  20211403.845 8  20211405.574 7
      5801.378        4512.187  
 126204668.886    98341322.9654   24015945.832 6  24015945.99743  24015952.27843
      5865.924        4570.859  
 126177588.236    98320228.8144   24010788.689 7  24010787.81544  24010796.19944
      6498.704        5063.920  
 118364591.613    92061373.268    22158093.903 7  22158093.328 7  22158099.792 7
      6807.056        5294.357  
 124209744.888    96786836.4364   23636324.070 6  23636323.80444  23636328.15344
      5979.265        4659.168  
 11  5 30 15 33 15.0000000  0 15G27G 9R10R11G15R20G17G12R22R 2R21G 4
                                G25R12G14                           
 110512778.617    86113870.7674   21029882.455 8  21029882.12446  21029886.23346
      2318.655        1806.746  
 104439475.507    81381430.7334   19874171.631 8  19874171.17147  19874174.72147
      2929.342        2282.602  
 114469927.977    89032183.968    21474269.367 7  21474269.001 7  21474276.608 6
       428.015         332.907  
 103933851.109    80837457.280    19449802.426 7  19449802.190 7  19449805.921 6
      3720.639        2893.821  
 123670221.271    96366420.2964   23533665.263 7  23533665.04245  23533670.25745
      -228.859        -178.343  
 109863089.181    85449090.379    20544951.282 7  20544950.902 6  20544955.006 7
      1461.355        1136.609  
 119785327.569    93339237.2664   22794391.545 7  22794391.38745  22794394.24845
       919.363         716.387  
 110765530.209    86310825.0704   21077975.233 8  21077975.53946  21077978.21346
      5047.036        3932.748  
 125713825.630    97777450.839    23550429.995 6  23550429.077 6  23550436.779 6
      8010.622        6230.460  
 121338041.669    94374051.154    22738695.807 6  22738695.174 6  22738701.247 7
      1763.201        1371.377  
 108126348.395    84098296.687    20205986.192 8  20205985.190 8  20205987.070 7
      5797.312        4509.020  
 126175344.188    98318472.5674   24010365.277 6  24010365.45343  24010371.95843
      5864.136        4569.451  
 126145097.043    98294911.0224   24004605.903 7  24004605.10244  24004613.81444
      6497.907        5063.297  
 118330558.257    92034902.894    22151721.737 7  22151721.701 7  22151728.437 7
      6806.331        5293.824  
 124179853.728    96763544.6134   23630636.012 6  23630635.84644  23630640.13744
      5976.942        4657.360  
 11  5 30 15 33 20.0000000  0 15G27G 9R10R11G15R20G17G12R22R 2R21G 4
                                G25R12G14                           
 110501190.820    86104841.3134   21027677.391 8  21027676.99946  21027681.20346
      2316.580        1805.129  
 104424837.261    81370024.3064   19871386.225 8  19871385.65747  19871389.18447
      2926.144        2280.109  
 114467792.437    89030522.992    21473868.996 7  21473868.590 7  21473876.055 6
       426.151         331.448  
 103915255.622    80822994.127    19446322.353 7  19446322.199 7  19446326.030 6
      3717.781        2891.605  
 123671367.933    96367313.7864   23533883.835 7  23533883.35545  23533888.55745
      -229.778        -179.056  
 109855793.128    85443415.671    20543585.572 7  20543586.515 6  20543590.553 7
      1457.315        1133.470  
 119780736.955    93335660.1624   22793518.113 7  22793517.80645  22793520.56945
       916.821         714.407  
 110740300.589    86291165.6304   21073174.730 8  21073174.59546  21073177.20146
      5044.930        3931.113  
 125673775.436    97746300.724    23542926.938 6  23542926.437 6  23542934.006 6
      8009.825        6229.845  
 121329235.544    94367201.944    22737046.889 7  22737045.551 6  22737050.823 7
      1759.162        1368.239  
 108097371.610    84075759.190    20200570.879 8  20200570.215 8  20200572.026 7
      5793.417        4505.984  
 126146029.044    98295629.6164   24004787.917 6  24004787.61243  24004793.42243
      5862.086        4567.854  
 126112610.133    98269596.5654   23998424.473 7  23998423.48344  23998431.64744
      6496.882        5062.517  
 118296528.701    92008435.476    22145352.462 7  22145351.735 7  22145358.192 7
      6805.542        5293.197  
 124149973.999    96740261.7074   23624950.663 6  23624949.85344  23624954.24744
      5974.920        4655.786  
 11  5 30 15 33 25.0000000  0 15G27G 9R10R11G15R20G17G12R22R 2R21G 4
                                G25R12G14                           
 110489613.891    86095820.3244   21025474.511 8  21025474.01346  21025478.23646
      2314.343        1803.382  
 104410215.252    81358630.5324   19868603.450 8  19868603.18947  19868606.69447
      2922.856        2277.558  
 114465667.049    89028869.897    21473470.422 7  21473469.647 7  21473477.342 6
       424.112         329.863  
 103896674.547    80808542.176    19442845.350 7  19442845.077 7  19442848.809 6
      3714.863        2889.335  
 123672520.337    96368211.7484   23534103.072 7  23534102.93845  23534107.83045
      -231.020        -180.008  
 109848518.202    85437757.393    20542225.812 7  20542226.078 6  20542230.237 7
      1452.855        1129.987  
 119776158.278    93332092.3624   22792646.687 7  22792646.39145  22792649.37345
       914.602         712.672  
 110715081.549    86271514.4324   21068375.652 8  21068375.50446  21068378.23346
      5042.838        3929.474  
 125633729.015    97715153.549    23535425.020 6  23535424.499 6  23535431.735 6
      8008.952        6229.179  
 121320449.745    94360368.539    22735399.819 7  22735399.314 6  22735404.602 7
      1755.164        1365.122  
 108068414.676    84053237.135    20195159.936 8  20195158.883 8  20195160.550 7
      5789.493        4502.934  
 126116723.690    98272794.2864   23999211.384 7  23999210.96443  23999216.81043
      5859.997        4566.228  
 126080127.671    98244285.5684   23992243.016 7  23992242.66944  23992250.27944
      6496.048        5061.837  
 118262503.352    91981971.324    22138982.192 7  22138982.085 7  22138988.641 7
      6804.634        5292.497  
 124120105.890    96716987.8684   23619266.567 6  23619265.97844  23619270.53643
      5972.592        4653.973  
 11  5 30 15 33 30.0000000  0 15G27G 9R10R11G15R20G17G12R22R 2R21G 4
                                G25R12G14                           
 110478047.994    86086807.9364   21023273.344 7  21023273.02246  21023277.27646
      2312.037        1801.591  
 104395609.693    81347249.5764   19865824.197 8  19865823.75647  19865827.35847
      2919.537        2274.970  
 114463551.884    89027224.762    21473073.219 7  21473072.920 7  21473080.670 6
       422.205         328.394  
 103878107.956    80794101.495    19439370.151 7  19439370.398 7  19439374.259 6
      3711.961        2887.066  
 123673678.537    96369114.2324   23534323.251 7  23534323.48545  23534328.26345
      -232.160        -180.903  
 109841264.551    85432115.661    20540870.180 7  20540869.756 6  20540873.745 7
      1448.506        1126.623  
 119771591.679    93328533.9684   22791777.856 7  22791777.31545  22791780.53145
       912.019         710.651  
 110689873.304    86251871.6474   21063578.580 8  21063578.49046  21063581.29146
      5040.643        3927.782  
 125593686.324    97684009.269    23527923.665 6  23527922.998 6  23527930.743 6
      8008.258        6228.658  
 121311684.356    94353550.991    22733756.300 7  22733756.444 6  22733762.366 7
      1751.055        1361.946  
 108039477.781    84030730.668    20189751.982 8  20189751.335 8  20189753.058 7
      5785.425        4499.785  
 126087428.250    98249966.6774   23993636.465 7  23993636.60443  23993642.06843
      5858.133        4564.793  
 126047649.813    98218978.1614   23986062.406 7  23986062.29944  23986069.98244
      6495.091        5061.101  
 118228482.264    91955510.489    22132614.583 7  22132613.804 7  22132619.776 7
      6803.838        5291.893  
 124090249.533    96693723.1794   23613584.937 6  23613584.58844  23613588.98244
      5970.244        4652.146  
 11  5 30 15 33 35.0000000  0 15G27G 9R10R11G15R20G17G12R22R 2R21G 4
                                G25R12G14                           
 110466492.798    86077803.8834   21021074.295 8  21021074.17346  21021078.39746
      2309.917        1799.935  
 104381020.218    81335881.1544   19863047.870 8  19863047.44547  19863051.05347
      2916.117        2272.301  
 114461446.453    89025587.197    21472678.887 7  21472677.984 7  21472685.449 6
       420.063         326.718  
 103859555.601    80779671.886    19435898.220 7  19435898.674 7  19435902.534 6
      3709.084        2884.825  
 123674842.247    96370021.0054   23534544.806 7  23534544.70745  23534549.88545
      -233.251        -181.759  
 109834031.837    85426490.214    20539517.127 7  20539517.010 6  20539521.217 7
      1444.453        1123.458  
 119767036.826    93324984.7344   22790910.400 7  22790910.57145  22790913.59945
       909.811         708.942  
 110664675.544    86232237.0354   21058783.676 8  21058783.45146  21058786.35346
      5038.434        3926.054  
 125553647.079    97652867.687    23520423.190 6  23520422.156 6  23520429.945 6
      8007.581        6228.114  
 121302939.057    94346749.088    22732118.988 7  22732117.777 6  22732123.269 7
      1747.189        1358.928  
 108010560.667    84008239.586    20184348.102 8  20184347.538 8  20184349.283 7
      5781.399        4496.641  
 126058142.418    98227146.5664   23988063.748 7  23988063.30543  23988069.01643
      5855.993        4563.120  
 126015176.251    98193674.0874   23979883.453 7  23979882.97844  23979890.20244
      6494.331        5060.508  
 118194465.256    91929052.816    22126246.385 7  22126245.943 7  22126251.518 7
      6802.983        5291.209  
 124060404.680    96670467.4574   23607905.911 6  23607905.44244  23607909.74344
      5967.776        4650.200  
 11  5 30 15 33 40.0000000  0 15G27G 9R10R11G15R20G17G12R22R 2R21G 4
                                G25R12G14                           
 110454948.438    86068808.2754   21018877.734 8  21018877.31546  21018881.56846
      2307.784        1798.278  
 104366446.945    81324525.3564   19860274.595 8  19860274.20447  19860277.82947
      2913.035        2269.908  
 114459350.925    89023957.338    21472285.596 7  21472285.109 7  21472292.278 6
       418.246         325.318  
 103841017.529    80765253.386    19432430.112 7  19432429.635 7  19432433.383 6
      3706.257        2882.640  
 123676011.586    96370932.1624   23534767.013 7  23534767.15445  23534772.08145
      -234.270        -182.546  
 109826820.130    85420881.106    20538169.720 7  20538168.384 6  20538172.463 7
      1440.424        1120.335  
 119762493.923    93321444.8004   22790045.906 7  22790045.85345  22790049.12345
       907.396         707.068  
 110639488.359    86212610.6554   21053990.433 8  21053990.57746  21053993.45346
      5036.348        3924.432  
 125513611.512    97621728.951    23512921.789 6  23512922.257 6  23512930.216 6
      8006.687        6227.416  
 121294214.011    94339962.943    22730483.266 6  22730482.716 6  22730487.834 7
      1742.981        1355.659  
 107981663.409    83985763.945    20178948.165 8  20178947.471 8  20178949.078 7
      5777.514        4493.628  
 126028866.339    98204334.0614   23982491.336 6  23982491.87843  23982498.18043
      5854.282        4561.765  
 125982707.121    98168373.4754   23973704.543 7  23973703.86744  23973711.48544
      6493.422        5059.816  
 118160452.358    91902598.337    22119879.352 7  22119878.915 7  22119884.186 7
      6802.190        5290.593  
 124030571.453    96647220.7924   23602229.313 6  23602228.60144  23602232.69544
      5965.413        4648.388  
 11  5 30 15 33 45.0000000  0 15G27G 9R10R11G15R20G17G12R22R 2R21G 4
                                G25R12G14                           
 110443415.053    86059821.2194   21016683.012 8  21016682.64946  21016686.85646
      2305.684        1796.641  
 104351890.099    81313182.3594   19857504.560 8  19857504.12147  19857507.73847
      2909.790        2267.377  
 114457265.500    89022335.329    21471894.637 7  21471894.156 7  21471900.862 6
       416.036         323.582  
 103822493.988    80750846.187    19428963.517 7  19428963.190 7  19428966.972 6
      3703.312        2880.353  
 123677186.680    96371847.8004   23534990.804 7  23534990.72145  23534995.68845
      -235.495        -183.508  
 109819629.641    85415288.502    20536823.936 7  20536823.770 6  20536827.842 7
      1436.062        1116.943  
 119757963.031    93317914.2354   22789183.679 7  22789183.62145  22789186.82745
       905.121         705.297  
 110614311.948    86192992.6794   21049199.675 8  21049199.55446  21049202.46146
      5034.255        3922.789  
 125473579.810    97590593.226    23505422.719 6  23505422.927 6  23505430.907 6
      8005.897        6226.812  
 121285509.347    94333192.645    22728851.431 6  22728850.536 6  22728856.679 7
      1738.833        1352.421  
 107952786.166    83963303.877    20173551.357 8  20173550.996 8  20173552.489 7
      5773.511        4490.509  
 125999600.189    98181529.2814   23976922.179 6  23976922.30243  23976928.83843
      5852.201        4560.183  
 125950242.566    98143076.4414   23967526.349 6  23967526.05344  23967534.13744
      6492.520        5059.104  
 118126443.719    91876147.178    22113513.330 7  22113512.409 7  22113518.079 7
      6801.518        5290.072  
 124000749.974    96623983.2874   23596554.492 6  23596553.54544  23596558.08444
      5963.278        4646.724  
 11  5 30 15 33 50.0000000  0 15G27G 9R10R11G15R20G17G12R22R 2R21G 4
                                G25R12G14                           
 110431892.593    86050842.6784   21014490.542 8  21014489.99546  21014494.21046
      2303.281        1794.760  
 104337349.552    81301852.0624   19854737.539 8  19854737.14447  19854740.80447
      2906.522        2264.825  
 114455190.070    89020721.096    21471505.227 7  21471504.848 7  21471511.844 6
       413.990         321.983  
 103803984.898    80736450.229    19425499.911 7  19425499.430 7  19425503.244 6
      3700.363        2878.058  
 123678367.376    96372767.8144   23535215.418 7  23535215.43745  23535220.57745
      -236.684        -184.428  
 109812460.069    85409712.165    20535482.866 7  20535483.054 6  20535487.165 7
      1431.742        1113.577  
 119753444.079    93314392.9654   22788323.892 7  22788323.70345  22788326.90045
       902.583         703.309  
 110589146.193    86173383.0054   21044410.994 8  21044410.65746  21044413.58746
      5032.005        3921.035  
 125433551.812    97559460.394    23497924.785 6  23497924.280 6  23497931.874 6
      8005.343        6226.367  
 121276825.000    94326438.140    22727223.307 6  22727223.170 6  22727229.352 7
      1734.772        1349.263  
 107923928.982    83940859.405    20168158.632 8  20168158.389 8  20168159.981 7
      5769.416        4487.318  
 125970343.893    98158732.1884   23971355.091 6  23971354.97843  23971361.77943
      5850.138        4558.567  
 125917782.490    98117782.8874   23961349.642 7  23961349.21044  23961356.97744
      6491.449        5058.251  
 118092439.228    91849699.251    22107146.830 7  22107146.710 7  22107152.575 7
      6800.318        5289.127  
 123970940.256    96600754.9364   23590881.944 6  23590881.17144  23590885.49444
      5960.714        4644.705  
 11  5 30 15 33 55.0000000  0 15G27G 9R10R11G15R20G17G12R22R 2R21G 4
                                G25R12G14                           
 110420381.086    86041872.6694   21012299.912 8  21012299.44446  21012303.58946
      2301.121        1793.080  
 104322825.374    81290534.5204   19851973.528 8  19851973.28947  19851976.98947
      2903.104        2262.162  
 114453124.702    89019114.693    21471117.485 7  21471117.179 7  21471124.539 6
       411.886         320.356  
 103785490.280    80722065.525    19422038.255 7  19422038.469 7  19422042.270 6
      3697.419        2875.775  
 123679553.794    96373692.2854   23535441.181 7  23535441.34745  23535446.10845
      -237.808        -185.296  
 109805311.654    85404152.284    20534146.201 7  20534146.386 6  20534150.367 7
      1427.609        1110.367  
 119748937.080    93310881.0124   22787466.075 7  22787466.06945  22787469.34145
       900.356         701.575  
 110563991.159    86153781.6834   21039623.977 8  21039623.87946  21039626.67446
      5029.937        3919.435  
 125393527.739    97528330.596    23490426.443 6  23490426.156 6  23490433.787 6
      8004.280        6225.534  
 121268160.898    94319699.388    22725601.172 6  22725599.662 6  22725605.278 7
      1730.759        1346.147  
 107895091.747    83918430.451    20162769.905 8  20162769.288 8  20162771.110 7
      5765.502        4484.283  
 125941097.495    98135942.7964   23965789.774 6  23965789.94743  23965796.10343
      5848.337        4557.176  
 125885326.937    98092492.8684   23955173.529 7  23955173.05544  23955181.02544
      6490.618        5057.593  
 118058439.056    91823254.687    22100781.840 7  22100781.729 7  22100787.552 7
      6799.527        5288.525  
 123941142.283    96577535.7434   23585211.658 7  23585210.95744  23585215.13944
      5958.395        4642.916  
 11  5 30 15 34  0.0000000  0 15G27G 9R10R11G15R20G17G12R22R 2R21G 4
                                G25R12G14                           
 110408880.379    86032911.0804   21010111.165 8  21010110.88146  21010115.11246
      2299.178        1791.572  
 104308317.387    81279229.5944   19849212.748 8  19849212.48547  19849216.14447
      2900.006        2259.747  
 114451069.234    89017515.977    21470732.039 7  21470731.505 7  21470739.017 6
       410.113         318.992  
 103767009.892    80707691.892    19418580.424 7  19418580.063 7  19418583.816 6
      3694.717        2873.667  
 123680745.740    96374621.0554   23535667.926 7  23535668.25245  23535672.95045
      -238.850        -186.103  
 109798184.280    85398608.772    20532813.430 7  20532813.613 6  20532817.596 7
      1423.453        1107.135  
 119744441.891    93307378.2664   22786610.715 7  22786610.60345  22786613.84045
       898.001         699.738  
 110538846.646    86134188.5634   21034838.945 8  21034838.91446  21034841.80646
      5027.957        3917.898  
 125353507.274    97497203.614    23482929.302 6  23482928.793 6  23482936.575 6
      8003.922        6225.265  
 121259516.914    94312976.293    22723981.380 6  22723980.470 6  22723985.310 7
      1726.963        1343.196  
 107866274.412    83896016.972    20157384.898 8  20157384.168 8  20157385.897 7
      5761.604        4481.245  
 125911860.871    98113161.0244   23960226.950 7  23960226.83343  23960232.67843
      5846.542        4555.757  
 125852875.816    98067206.2914   23948998.526 6  23948998.11044  23949005.80744
      6489.890        5057.051  
 118024442.985    91796813.289    22094417.728 7  22094417.403 7  22094423.114 7
      6798.886        5288.025  
 123911355.944    96554325.6154   23579542.879 7  23579542.59644  23579546.92644
      5956.107        4641.117  
 11  5 30 15 34  5.0000000  0 15G27G 9R10R11G15R20G17G12R22R 2R21G 4
                                G25R12G14                           
 110397390.575    86023957.9824   21007924.878 8  21007924.54346  21007928.68246
      2296.863        1789.766  
 104293825.700    81267937.3694   19846455.106 8  19846454.79047  19846458.44547
      2896.696        2257.177  
 114449023.675    89015924.980    21470348.265 7  21470347.766 7  21470355.250 6
       408.017         317.356  
 103748543.989    80693329.524    19415124.484 7  19415124.454 7  19415128.310 6
      3691.769        2871.368  
 123681943.266    96375554.1774   23535896.244 7  23535896.05945  23535900.77544
      -240.169        -187.127  
 109791077.787    85393081.498    20531485.125 7  20531484.577 6  20531488.539 7
      1419.038        1103.701  
 119739958.569    93303884.7604   22785757.580 7  22785757.56245  22785760.71445
       895.549         697.843  
 110513712.827    86114603.7694   21030056.180 8  21030056.12846  21030059.00246
      5025.725        3916.154  
 125313490.616    97466079.598    23475432.692 6  23475432.516 6  23475439.834 6
      8002.936        6224.508  
 121250893.153    94306268.917    22722363.662 6  22722363.422 6  22722369.622 7
      1722.708        1339.886  
 107837477.113    83873619.077    20152003.272 8  20152002.649 8  20152004.491 7
      5757.399        4477.978  
 125882634.163    98090386.9884   23954664.505 6  23954665.23843  23954671.05643
      5844.318        4554.038  
 125820429.186    98041923.2284   23942824.535 7  23942823.72644  23942831.04744
      6488.730        5056.163  
 117990451.100    91770375.156    22088053.398 7  22088053.585 7  22088059.683 7
      6797.920        5287.280  
 123881581.316    96531124.6164   23573876.975 6  23573876.62544  23573881.05944
      5953.698        4639.250  
 11  5 30 15 34 10.0000000  0 15G27G 9R10R11G15R20G17G12R22R 2R21G 4
                                G25R12G14                           
 110385911.543    86015013.2814   21005740.595 8  21005740.05846  21005744.27946
      2294.727        1788.099  
 104279350.185    81256657.7474   19843700.620 8  19843700.12347  19843703.90247
      2893.451        2254.634  
 114446987.838    89014341.544    21469966.430 7  21469965.771 7  21469973.089 6
       406.183         315.930  
 103730092.332    80678978.235    19411671.372 7  19411671.430 7  19411675.295 6
      3688.785        2869.060  
 123683146.270    96376491.5714   23536125.230 7  23536125.01645  23536129.80645
      -241.162        -187.923  
 109783992.069    85387570.381    20530159.737 7  20530159.678 6  20530163.466 7
      1415.074        1100.605  
 119735487.036    93300400.4444   22784906.798 7  22784906.87145  22784909.94945
       893.321         696.101  
 110488589.565    86095027.2104   21025275.246 8  21025275.36946  21025278.19546
      5023.531        3914.437  
 125273477.578    97434958.383    23467937.036 6  23467936.486 6  23467944.037 6
      8002.292        6223.995  
 121242289.482    94299577.166    22720751.549 6  22720751.056 6  22720757.571 7
      1718.665        1336.737  
 107808699.803    83851236.728    20146625.716 8  20146624.936 8  20146626.814 7
      5753.405        4474.869  
 125853417.240    98067620.5814   23949105.500 7  23949105.20443  23949111.17943
      5842.455        4552.542  
 125787986.934    98016643.5594   23936651.011 7  23936650.23144  23936657.23444
      6487.858        5055.473  
 117956463.280    91743940.201    22081690.161 7  22081690.319 7  22081697.111 7
      6797.380        5286.847  
 123851818.328    96507932.6884   23568213.457 7  23568213.16344  23568217.45144
      5951.450        4637.500  
 11  5 30 15 34 15.0000000  0 15G27G 9R10R11G15R20G17G12R22R 2R21G 4
                                G25R12G14                           
 110374443.222    86006076.9224   21003558.075 8  21003557.67346  21003561.88846
      2292.625        1786.466  
 104264890.784    81245390.6814   19840949.090 8  19840948.67547  19840952.34847
      2890.207        2252.112  
 114444961.730    89012765.676    21469586.835 7  21469585.764 7  21469593.095 6
       404.174         314.365  
 103711654.902    80664638.014    19408221.154 7  19408220.947 7  19408224.964 6
      3686.065        2866.942  
 123684354.651    96377433.1554   23536354.854 7  23536355.13745  23536360.00445
      -242.113        -188.657  
 109776927.247    85382075.519    20528838.912 7  20528838.543 6  20528842.316 7
      1410.762        1097.259  
 119731027.180    93296925.2274   22784057.908 7  22784058.08645  22784061.27945
       890.671         694.051  
 110463476.823    86075458.8424   21020496.521 8  21020496.62646  21020499.42746
      5021.530        3912.882  
 125233468.258    97403840.062    23460442.269 6  23460441.564 6  23460448.829 6
      8001.384        6223.291  
 121233705.870    94292901.024    22719144.541 7  22719143.355 6  22719148.942 7
      1714.729        1333.695  
 107779942.288    83828869.780    20141251.216 8  20141250.847 8  20141252.738 7
      5749.454        4471.804  
 125824209.981    98044861.6984   23943547.850 7  23943547.00543  23943553.46943
      5840.757        4551.208  
 125755548.979    97991367.2414   23930478.283 7  23930477.17744  23930484.48044
      6487.230        5054.981  
 117922479.570    91717508.444    22075328.985 7  22075328.530 7  22075335.645 7
      6796.520        5286.180  
 123822066.875    96484749.7404   23562551.600 7  23562551.66944  23562555.49144
      5948.970        4635.549  
 11  5 30 15 34 20.0000000  0 15G27G 9R10R11G15R20G17G12R22R 2R21G 4
                                G25R12G14                           
 110362985.779    85997149.0454   21001377.717 8  21001377.37746  21001381.61946
      2290.310        1784.654  
 104250447.628    81234136.2744   19838200.689 8  19838200.22747  19838203.91147
      2886.963        2249.578  
 114442945.628    89011197.588    21469208.064 7  21469207.524 7  21469215.090 6
       402.254         312.876  
 103693231.963    80650309.059    19404773.545 7  19404773.488 7  19404777.322 6
      3683.098        2864.627  
 123685568.611    96378379.0894   23536585.728 7  23536585.96545  23536590.84145
      -243.187        -189.485  
 109769883.379    85376596.951    20527521.426 7  20527521.287 6  20527525.170 7
      1406.653        1094.063  
 119726579.125    93293459.2104   22783212.149 7  22783211.60145  22783214.68445
       888.333         692.190  
 110438374.706    86055898.7564   21015719.855 8  21015719.82946  21015722.71046
      5019.258        3911.105  
 125193462.795    97372724.746    23452948.126 6  23452947.411 6  23452954.620 6
      8000.653        6222.712  
 121225142.360    94286240.509    22717539.210 7  22717538.683 6  22717544.189 7
      1710.501        1330.391  
 107751204.723    83806518.345    20135881.157 8  20135880.524 8  20135882.390 7
      5745.403        4468.652  
 125795012.646    98022110.5434   23937991.073 7  23937990.95943  23937997.03443
      5838.197        4549.259  
 125723115.531    97966094.4304   23924305.874 7  23924305.22444  23924312.57844
      6486.168        5054.168  
 117888500.114    91691080.000    22068968.990 7  22068968.280 7  22068974.929 7
      6795.363        5285.285  
 123792327.185    96461575.9564   23556893.055 7  23556892.26044  23556896.05044
      5946.761        4633.831  
 11  5 30 15 34 25.0000000  0 15G27G 9R10R11G15R20G17G12R22R 2R21G 4
                                G25R12G14                           
 110351539.122    85988229.5694   20999199.477 8  20999199.21046  20999203.42746
      2288.274        1783.068  
 104236020.675    81222894.4884   19835455.049 8  19835454.86747  19835458.61047
      2883.759        2247.081  
 114440939.448    89009637.218    21468831.963 7  21468831.166 7  21468839.079 6
       400.254         311.311  
 103674823.355    80635991.255    19401328.343 7  19401328.578 7  19401332.442 6
      3680.311        2862.465  
 123686788.025    96379329.2644   23536817.907 7  23536817.92645  23536822.91645
      -244.242        -190.323  
 109762860.394    85371134.627    20526208.549 7  20526207.856 6  20526211.601 7
      1402.515        1090.840  
 119722142.828    93290002.3544   22782367.766 7  22782367.48245  22782370.44845
       886.245         690.585  
 110413283.161    86036346.9044   21010945.147 8  21010945.11446  21010947.95346
      5017.267        3909.556  
 125153461.065    97341612.329    23445454.428 6  23445453.865 6  23445460.913 6
      7999.943        6222.174  
 121216598.886    94279595.578    22715937.812 6  22715937.318 6  22715943.067 7
      1706.687        1327.420  
 107722487.138    83784182.450    20130514.531 8  20130513.936 8  20130515.655 7
      5741.568        4465.664  
 125765825.184    97999367.0694   23932436.522 7  23932436.76443  23932442.47143
      5836.633        4548.058  
 125690686.417    97940825.0084   23918134.457 7  23918133.78644  23918141.66544
      6485.457        5053.593  
 117854524.723    91664654.699    22062608.798 7  22062608.339 7  22062614.624 7
      6794.794        5284.839  
 123762599.211    96438411.3014   23551235.974 7  23551235.54744  23551239.10544
      5944.375        4631.974  
 11  5 30 15 34 30.0000000  0 15G27G 9R10R11G15R20G17G12R22R 2R21G 4
                                G25R12G14                           
 110340103.303    85979318.5374   20997023.366 8  20997023.02446  20997027.23946
      2286.191        1781.455  
 104221609.943    81211665.3474   19832712.912 8  19832712.57447  19832716.29546
      2880.410        2244.480  
 114438943.089    89008084.478    21468457.010 7  21468456.932 7  21468464.417 6
       398.269         309.772  
 103656429.119    80621684.627    19397886.215 7  19397886.216 7  19397890.243 6
      3677.333        2860.144  
 123688012.947    96380283.7334   23537051.048 7  23537051.05345  23537056.13545
      -245.489        -191.274  
 109755858.178    85365688.458    20524898.267 7  20524898.309 6  20524902.297 7
      1398.330        1087.592  
 119717718.309    93286554.6714   22781525.835 7  22781525.54845  22781528.53845
       883.788         688.663  
 110388202.207    86016803.3094   21006172.236 8  21006172.39146  21006175.23046
      5015.237        3907.979  
 125113463.093    97310502.835    23437960.756 6  23437960.785 6  23437967.872 6
      7999.144        6221.550  
 121208075.482    94272966.264    22714341.269 7  22714340.204 6  22714345.993 7
      1702.736        1324.351  
 107693789.537    83761862.099    20125151.737 8  20125151.030 8  20125152.837 7
      5737.620        4462.598  
 125736647.600    97976631.3104   23926884.451 7  23926884.32443  23926890.36943
      5834.681        4546.500  
 125658261.821    97915559.1144   23911964.264 7  23911963.43544  23911971.54144
      6484.462        5052.841  
 117820553.560    91638232.689    22056249.159 7  22056248.722 7  22056254.656 7
      6793.902        5284.153  
 123732882.938    96415255.7654   23545580.871 6  23545580.71344  23545584.53444
      5942.105        4630.216  
 11  5 30 15 34 35.0000000  0 15G27G 9R10R11G15R20G17G12R22R 2R21G 4
                                G25R12G14                           
 110328678.646    85970416.2064   20994849.508 8  20994848.99546  20994853.22746
      2283.891        1779.657  
 104207215.773    81200449.1124   19829973.852 8  19829973.48247  19829977.18847
      2877.308        2242.052  
 114436956.897    89006539.652    21468084.624 7  21468084.145 7  21468091.639 6
       396.303         308.228  
 103638049.552    80607389.409    19394446.740 7  19394446.724 7  19394450.710 6
      3674.400        2857.865  
 123689243.627    96381242.6954   23537285.651 7  23537285.32345  23537290.26245
      -246.558        -192.134  
 109748877.063    85360258.701    20523593.470 7  20523592.809 6  20523596.668 7
      1394.223        1084.393  
 119713305.860    93283116.3934   22780685.931 7  22780685.95045  22780688.84945
       881.123         686.590  
 110363132.192    85997268.2374   21001401.593 8  21001401.65846  21001404.54146
      5012.915        3906.161  
 125073469.291    97279396.587    23430469.094 6  23430468.663 6  23430475.441 6
      7998.377        6220.955  
 121199572.487    94266352.822    22712746.866 6  22712746.114 6  22712752.519 7
      1698.730        1321.226  
 107665112.351    83739557.627    20119792.601 8  20119792.017 8  20119793.986 7
      5733.537        4459.417  
 125707480.324    97953903.5784   23921334.717 6  23921334.04343  23921340.30243
      5832.532        4544.823  
 125625842.022    97890296.9584   23905794.848 7  23905794.03344  23905802.67044
      6483.575        5052.145  
 117786586.909    91611814.186    22049891.252 7  22049890.031 7  22049895.683 7
      6793.028        5283.469  
 123703178.700    96392109.6044   23539927.734 6  23539927.96344  23539931.82544
      5939.697        4628.331  
 11  5 30 15 34 40.0000000  0 15G27G 9R10R11G15R20G17G12R22R 2R21G 4
                                G25R12G14                           
 110317264.751    85961522.2614   20992677.507 8  20992677.08446  20992681.24946
      2281.545        1777.829  
 104192837.802    81189245.4974   19827237.847 8  19827237.50847  19827241.15047
      2873.850        2239.367  
 114434980.551    89005002.483    21467713.578 7  21467713.137 7  21467720.196 6
       394.029         306.470  
 103619684.365    80593105.374    19391009.972 7  19391009.958 7  19391013.923 6
      3671.318        2855.459  
 123690479.684    96382205.8424   23537521.096 7  23537520.83445  23537525.66345
      -247.831        -193.108  
 109741916.873    85354845.217    20522291.740 6  20522291.263 6  20522295.139 7
      1389.767        1080.937  
 119708905.067    93279687.2054   22779848.233 7  22779848.47845  22779851.54245
       878.789         684.768  
 110338072.703    85977741.3664   20996633.100 8  20996633.01546  20996635.82846
      5010.629        3904.382  
 125033479.306    97248293.303    23422977.172 7  23422976.964 6  23422984.062 6
      7997.523        6220.300  
 121191089.523    94259754.960    22711157.112 6  22711156.559 6  22711162.844 7
      1694.557        1317.983  
 107636455.070    83717268.640    20114437.313 8  20114436.898 8  20114438.776 7
      5729.290        4456.114  
 125678322.846    97931183.4704   23915785.587 7  23915785.48543  23915791.43843
      5830.400        4543.145  
 125593426.606    97865038.2164   23899626.485 7  23899625.71744  23899633.91544
      6482.342        5051.184  
 117752624.405    91585398.909    22043532.634 7  22043532.042 7  22043537.474 7
      6791.866        5282.558  
 123673486.157    96368972.5614   23534277.244 6  23534277.31744  23534281.23644
      5937.225        4626.409  
 11  5 30 15 34 45.0000000  0 15G27G 9R10R11G15R20G17G12R22R 2R21G 4
                                G25R12G14                           
 110305861.572    85952636.6644   20990507.594 8  20990507.06146  20990511.24246
      2279.516        1776.250  
 104178475.924    81178054.4244   19824505.107 8  19824504.43747  19824508.21747
      2870.699        2236.910  
 114433014.044    89003472.969    21467345.030 7  21467344.504 7  21467351.710 6
       392.256         305.087  
 103601333.434    80578832.429    19387576.075 7  19387576.008 7  19387579.834 6
      3668.674        2853.414  
 123691721.084    96383173.1554   23537757.007 7  23537757.10445  23537761.86545
      -248.883        -193.926  
 109734977.404    85349447.849    20520993.523 7  20520993.535 6  20520997.582 7
      1385.703        1077.764  
 119704515.890    93276267.0634   22779013.278 7  22779013.15945  22779016.34845
       876.585         683.049  
 110313023.683    85958222.6574   20991866.416 8  20991866.32746  20991869.12146
      5008.694        3902.875  
 124993493.020    97217192.904    23415486.347 7  23415485.876 6  23415493.080 6
      7996.638        6219.587  
 121182626.451    94253172.569    22709571.718 6  22709571.028 6  22709576.795 7
      1690.448        1314.796  
 107607817.739    83694995.165    20109085.592 8  20109085.233 8  20109087.186 7
      5725.321        4453.021  
 125649175.137    97908470.9914   23910239.569 6  23910239.08743  23910245.10043
      5828.416        4541.602  
 125561015.513    97839782.8404   23893458.883 7  23893457.97044  23893465.73944
      6481.601        5050.600  
 117718665.983    91558986.798    22037175.191 7  22037174.929 7  22037180.142 7
      6791.018        5281.911  
 123643805.251    96345844.5914   23528629.181 6  23528629.03543  23528633.18543
      5934.670        4624.424  
 11  5 30 15 34 50.0000000  0 15G27G 9R10R11G15R20G17G12R22R 2R21G 4
                                G25R12G14                           
 110294469.050    85943759.3694   20988339.675 8  20988339.20846  20988343.35946
      2277.500        1774.675  
 104164130.119    81166875.8734   19821774.852 8  19821774.60147  19821778.27247
      2867.543        2234.450  
 114431057.140    89001950.925    21466977.375 7  21466977.544 7  21466984.882 6
       390.435         303.671  
 103582996.650    80564570.484    19384144.817 7  19384144.499 7  19384148.334 6
      3665.888        2851.250  
 123692967.782    96384144.5934   23537994.247 7  23537994.39445  23537999.56345
      -250.032        -194.834  
 109728058.434    85344066.429    20519700.301 7  20519699.616 6  20519703.495 7
      1381.573        1074.563  
 119700138.237    93272855.8984   22778180.191 7  22778179.94245  22778183.27345
       874.329         681.295  
 110287985.101    85938712.0814   20987101.570 8  20987101.60446  20987104.34446
      5006.618        3901.256  
 124953510.389    97186095.350    23407997.270 7  23407996.204 6  23408003.090 6
      7996.050        6219.138  
 121174183.178    94246605.578    22707989.962 6  22707988.922 6  22707994.553 7
      1686.606        1311.815  
 107579200.250    83672737.122    20103738.099 8  20103737.302 8  20103739.220 7
      5721.516        4450.072  
 125620037.205    97885766.1264   23904694.384 6  23904694.04343  23904699.69443
      5826.414        4540.054  
 125528608.692    97814530.7734   23887292.135 7  23887291.52444  23887298.55544
      6480.958        5050.104  
 117684711.622    91532577.851    22030818.867 7  22030818.871 7  22030824.275 7
      6790.415        5281.438  
 123614135.871    96322725.5984   23522983.400 6  23522982.83243  23522987.47343
      5932.732        4622.931  
 11  5 30 15 34 55.0000000  0 15G27G 9R10R11G15R20G17G12R22R 2R21G 4
                                G25R12G14                           
 110283087.345    85934890.5074   20986173.786 8  20986173.37546  20986177.49246
      2275.341        1773.000  
 104149800.518    81155709.9534   19819048.055 8  19819047.75247  19819051.48547
      2864.396        2232.002  
 114429109.960    89000436.441    21466612.424 7  21466611.852 7  21466619.438 6
       388.482         302.161  
 103564674.371    80550319.827    19380715.750 7  19380715.847 7  19380719.604 6
      3663.183        2849.139  
 123694219.850    96385120.2194   23538232.244 7  23538232.55245  23538237.86345
      -250.956        -195.553  
 109721160.141    85338701.085    20518409.515 7  20518409.621 6  20518413.618 7
      1377.598        1071.468  
 119695772.274    93269453.8434   22777349.329 7  22777349.20545  22777352.50945
       872.120         679.577  
 110262957.155    85919209.7854   20982339.252 8  20982339.06246  20982341.73246
      5004.729        3899.794  
 124913531.633    97155000.809    23400507.123 7  23400506.724 6  23400513.728 6
      7995.247        6218.510  
 121165759.956    94240054.166    22706411.248 7  22706410.312 6  22706416.244 7
      1682.558        1308.677  
 107550602.755    83650494.633    20098394.008 8  20098393.051 8  20098395.246 7
      5717.582        4447.018  
 125590909.209    97863069.0034   23899151.348 7  23899151.21943  23899156.93243
      5824.684        4538.729  
 125496206.336    97789282.1914   23881126.461 7  23881126.03044  23881132.40844
      6480.218        5049.532  
 117650761.500    91506172.206    22024464.240 7  22024463.697 7  22024469.008 7
      6789.688        5280.868  
 123584478.282    96299615.7904   23517339.858 6  23517339.17343  23517343.89043
      5930.531        4621.213  
 11  5 30 15 35  0.0000000  0 15G27G 9R10R11G15R20G17G12R22R 2R21G 4
                                G25R12G14                           
 110271716.019    85926029.7334   20984009.670 8  20984009.43846  20984013.59846
      2273.196        1771.315  
 104135486.761    81144556.3754   19816324.558 8  19816323.96847  19816327.71246
      2861.077        2229.411  
 114427172.320    88998929.378    21466248.852 7  21466248.438 7  21466255.794 6
       386.658         300.730  
 103546365.974    80536079.961    19377289.903 8  19377289.576 7  19377293.274 6
      3660.291        2846.873  
 123695476.856    96386099.6894   23538472.177 7  23538471.68045  23538477.00045
      -251.911        -196.297  
 109714282.267    85333351.627    20517123.279 7  20517123.515 6  20517127.487 7
      1373.458        1068.251  
 119691417.619    93266060.6014   22776520.830 7  22776520.44445  22776523.85745
       869.766         677.734  
 110237939.431    85899715.4574   20977578.365 8  20977578.28246  20977581.05146
      5002.435        3897.998  
 124873556.355    97123908.967    23393018.951 7  23393017.923 6  23393025.081 6
      7994.627        6218.028  
 121157356.324    94233517.998    22704836.301 7  22704835.566 6  22704841.522 7
      1678.957        1305.865  
 107522024.913    83628267.429    20093053.124 8  20093052.612 8  20093054.712 7
      5713.550        4443.875  
 125561790.783    97840379.3394   23893610.631 7  23893610.41443  23893615.94743
      5822.686        4537.162  
 125463808.056    97764036.7854   23874960.951 7  23874960.69044  23874966.93944
      6479.134        5048.673  
 117616815.165    91479769.498    22018108.844 7  22018108.775 7  22018114.602 7
      6788.765        5280.152  
 123554832.033    96276514.8274   23511698.362 6  23511697.77343  23511702.20743
      5928.183        4619.391  
 11  5 30 15 35  5.0000000  0 15G27G 9R10R11G15R20G17G12R22R 2R21G 4
                                G25R12G14                           
 110260355.508    85917177.3844   20981847.755 8  20981847.59746  20981851.84846
      2271.055        1769.666  
 104121189.220    81133415.4324   19813603.549 8  19813603.18847  19813606.92247
      2857.864        2226.914  
 114425244.468    88997429.931    21465887.949 7  21465887.023 7  21465894.290 6
       384.501         299.057  
 103528071.952    80521851.279    19373866.244 7  19373866.244 7  19373869.851 6
      3657.225        2844.510  
 123696739.224    96387083.3344   23538712.396 7  23538711.99045  23538717.31645
      -252.885        -197.052  
 109707425.170    85328018.328    20515840.954 7  20515841.204 6  20515845.233 7
      1369.399        1065.089  
 119687074.603    93262676.4264   22775694.175 7  22775693.97645  22775697.34145
       867.526         676.005  
 110212932.280    85880229.3714   20972819.714 8  20972819.50146  20972822.35246
      5000.379        3896.412  
 124833584.974    97092820.159    23385530.615 7  23385530.007 6  23385537.139 6
      7993.768        6217.376  
 121148972.694    94226997.380    22703265.400 7  22703264.834 7  22703270.558 7
      1674.527        1302.409  
 107493467.174    83606055.858    20087716.677 8  20087715.990 8  20087717.892 7
      5709.521        4440.740  
 125532682.302    97817697.4234   23888071.304 7  23888071.04643  23888075.99543
      5820.705        4535.634  
 125431414.201    97738794.8144   23868796.766 7  23868796.57544  23868802.72744
      6478.280        5048.022  
 117582873.067    91453370.094    22011754.849 7  22011754.441 7  22011760.603 7
      6788.014        5279.564  
 123525197.596    96253423.0554   23506059.534 6  23506058.61243  23506063.10143
      5925.516        4617.290  
 11  5 30 15 35 10.0000000  0 15G27G 9R10R11G15R20G17G12R22R 2R21G 4
                                G25R12G14                           
 110249005.725    85908333.3954   20979688.251 8  20979687.83046  20979692.08646
      2268.857        1767.937  
 104106907.823    81122287.0714   19810885.966 8  19810885.53146  19810889.28046
      2854.755        2224.481  
 114423326.331    88995938.034    21465527.317 7  21465526.878 7  21465534.518 6
       382.673         297.644  
 103509792.291    80507633.764    19370445.339 7  19370445.371 7  19370449.044 6
      3654.496        2842.388  
 123698006.850    96388071.0784   23538953.403 7  23538953.24045  23538958.39945
      -254.084        -197.995  
 109700588.764    85322701.119    20514562.920 6  20514562.484 6  20514566.784 7
      1365.179        1061.802  
 119682743.231    93259301.3334   22774870.122 7  22774869.70345  22774873.30645
       865.157         674.156  
 110187935.643    85860751.4774   20968062.942 8  20968062.83746  20968065.58546
      4998.248        3894.728  
 124793617.497    97061734.384    23378043.184 7  23378042.854 6  23378049.287 6
      7993.200        6216.923  
 121140608.828    94220492.146    22701698.759 7  22701698.248 7  22701702.784 7
      1671.018        1299.684  
 107464929.393    83583859.813    20082383.391 8  20082382.952 8  20082384.921 7
      5705.636        4437.708  
 125503583.759    97795023.2444   23882533.851 7  23882533.54743  23882538.89543
      5818.562        4533.948  
 125399024.723    97713556.2694   23862633.031 7  23862633.12444  23862639.61044
      6477.462        5047.348  
 117548935.057    91426973.879    22005401.458 7  22005400.918 7  22005407.279 7
      6787.199        5278.934  
 123495574.863    96230340.4214   23500422.252 6  23500421.53044  23500426.14144
      5923.387        4615.612  
 11  5 30 15 35 15.0000000  0 15G27G 9R10R11G15R20G17G12R22R 2R21G 4
                                G25R12G14                           
 110237666.691    85899497.7814   20977530.441 8  20977530.09946  20977534.23146
      2266.610        1766.186  
 104092642.567    81111171.2884   19808171.321 8  19808170.89947  19808174.67747
      2851.486        2221.936  
 114421417.990    88994453.762    21465169.079 7  21465169.080 7  21465176.477 6
       380.826         296.201  
 103491526.951    80493427.387    19367027.490 7  19367027.303 7  19367030.924 6
      3651.610        2840.139  
 123699279.767    96389062.9444   23539195.372 7  23539195.52845  23539200.58045
      -255.023        -198.719  
 109693773.016    85317399.978    20513287.621 7  20513287.881 6  20513292.092 7
      1361.150        1058.668  
 119678423.431    93255935.2474   22774047.890 7  22774047.76545  22774051.32345
       862.812         672.317  
 110162949.518    85841281.7724   20963308.409 7  20963308.18846  20963310.89646
      4996.223        3893.157  
 124753653.846    97030651.581    23370556.375 7  23370556.190 6  23370562.925 6
      7992.211        6216.145  
 121132264.893    94214002.426    22700134.515 7  22700134.236 7  22700138.663 7
      1666.706        1296.336  
 107436411.632    83561679.336    20077054.093 8  20077053.847 8  20077055.699 7
      5701.704        4434.655  
 125474495.145    97772356.8104   23876998.171 7  23876998.04443  23877003.17343
      5816.688        4532.482  
 125366639.649    97688321.1664   23856470.607 7  23856470.07344  23856477.37644
      6476.716        5046.779  
 117515001.253    91400580.928    21999048.560 7  21999048.203 7  21999054.964 7
      6786.504        5278.400  
 123465963.877    96207266.9324   23494787.775 6  23494786.95244  23494791.29544
      5921.306        4614.004  
 11  5 30 15 35 20.0000000  0 15G27G 9R10R11G15R20G17G12R22R 2R21G 4
                                G25R12G14                           
 110226338.418    85890670.5534   20975374.681 8  20975374.40046  20975378.55446
      2264.525        1764.573  
 104078393.491    81100068.1104   19805459.799 8  19805459.38847  19805463.16847
      2848.320        2219.478  
 114419519.419    88992977.091    21464813.193 7  21464813.161 7  21464820.254 6
       378.748         294.581  
 103473275.986    80479232.196    19363612.167 7  19363611.852 7  19363615.593 6
      3648.872        2838.018  
 123700557.916    96390058.8954   23539438.692 7  23539438.74645  23539443.79945
      -256.099        -199.561  
 109686978.093    85312115.035    20512017.193 6  20512017.359 6  20512021.401 7
      1356.936        1055.398  
 119674115.271    93252578.2324   22773228.234 7  22773228.07545  22773231.63245
       860.341         670.410  
 110137973.959    85821820.3024   20958555.779 8  20958555.51446  20958558.20146
      4994.152        3891.548  
 124713694.093    96999571.813    23363070.157 7  23363070.071 6  23363077.167 6
      7991.462        6215.578  
 121123940.799    94207528.131    22698574.343 7  22698573.538 6  22698578.707 7
      1663.048        1293.479  
 107407913.948    83539514.478    20071728.472 8  20071728.318 8  20071730.181 7
      5697.517        4431.404  
 125445416.472    97749698.1184   23871464.747 6  23871464.31143  23871470.18343
      5814.703        4530.928  
 125334258.992    97663089.5144   23850308.468 7  23850308.19844  23850315.21744
      6475.777        5046.060  
 117481071.743    91374191.321    21992697.673 7  21992696.932 7  21992702.939 7
      6785.411        5277.536  
 123436364.659    96184202.6124   23489155.540 6  23489154.55344  23489158.53044
      5918.695        4611.969  
 11  5 30 15 35 25.0000000  0 15G27G 9R10R11G15R20G17G12R22R 2R21G 4
                                G25R12G14                           
 110215020.620    85881851.4884   20973221.303 8  20973220.64346  20973224.85146
      2262.353        1762.874  
 104064160.322    81088977.3284   19802751.093 8  19802750.97247  19802754.72647
      2844.904        2216.803  
 114417630.179    88991507.671    21464458.386 7  21464458.544 7  21464466.189 6
       376.863         293.126  
 103455039.096    80465047.947    19360199.234 7  19360199.214 7  19360202.961 6
      3645.779        2835.607  
 123701841.085    96391058.7494   23539682.606 7  23539682.49345  23539687.71244
      -257.116        -200.350  
 109680203.477    85306845.888    20510750.666 7  20510750.313 6  20510754.450 7
      1352.756        1052.142  
 119669818.375    93249229.9964   22772410.752 8  22772410.53645  22772413.98445
       858.029         668.598  
 110113008.681    85802366.8404   20953804.794 8  20953804.73746  20953807.42846
      4991.932        3889.815  
 124673737.990    96968494.883    23355585.517 7  23355585.001 6  23355592.044 6
      7990.949        6215.182  
 121115636.356    94201069.107    22697016.916 7  22697017.038 6  22697022.778 7
      1658.699        1290.097  
 107379436.032    83517364.994    20066407.174 8  20066406.637 8  20066408.458 7
      5693.517        4428.297  
 125416347.513    97727047.0054   23865933.475 6  23865932.80143  23865938.77443
      5812.546        4529.262  
 125301882.483    97637861.0694   23844147.642 7  23844147.29744  23844154.02144
      6474.765        5045.266  
 117447146.104    91347804.725    21986346.785 7  21986345.977 7  21986351.728 7
      6784.671        5276.969  
 123406776.931    96161147.2544   23483524.646 6  23483523.87144  23483528.34244
      5916.440        4610.198  
 11  5 30 15 35 30.0000000  0 15G27G 9R10R11G15R20G17G12R22R 2R21G 4
                                G25R12G14                           
 110203713.434    85873040.6904   20971069.426 8  20971068.93646  20971073.17146
      2260.278        1761.250  
 104049943.164    81077899.0234   19800045.796 8  19800045.46247  19800049.25247
      2841.810        2214.397  
 114415750.547    88990045.727    21464105.866 7  21464105.951 7  21464113.912 6
       375.009         291.658  
 103436816.404    80450874.742    19356789.086 7  19356789.060 7  19356792.703 6
      3643.147        2833.553  
 123703129.370    96392062.5954   23539927.543 7  23539927.75544  23539932.73044
      -258.066        -201.072  
 109673449.317    85301592.645    20509487.360 7  20509487.224 6  20509491.279 7
      1348.782        1049.048  
 119665532.912    93245890.6694   22771595.162 7  22771595.01345  22771598.58545
       855.859         666.904  
 110088053.782    85782921.4704   20949055.820 8  20949055.87346  20949058.70246
      4990.042        3888.339  
 124633785.712    96937420.944    23348100.189 7  23348100.637 6  23348107.369 6
      7990.198        6214.588  
 121107351.609    94194625.407    22695465.090 7  22695464.874 6  22695470.562 7
      1655.036        1287.256  
 107350978.052    83495231.015    20061089.166 8  20061088.600 8  20061090.394 7
      5689.504        4425.166  
 125387288.412    97704403.5544   23860404.231 7  23860403.85843  23860409.16643
      5810.851        4527.950  
 125269510.243    97612635.9644   23837987.527 7  23837986.99244  23837993.66344
      6473.996        5044.673  
 117413224.536    91321421.285    21979996.540 7  21979996.417 7  21980001.493 7
      6784.048        5276.482  
 123377200.834    96138100.9514   23477896.228 6  23477895.97944  23477900.55144
      5914.024        4608.321  
 11  5 30 15 35 35.0000000  0 15G27G 9R10R11G15R20G17G12R22R 2R21G 4
                                G25R12G14                           
 110192416.869    85864238.1714   20968919.664 8  20968919.30546  20968923.47746
      2258.346        1759.743  
 104035742.051    81066833.2184   19797343.330 8  19797343.11347  19797346.86847
      2838.841        2212.089  
 114413880.554    88988591.276    21463755.811 7  21463755.288 7  21463762.961 6
       373.045         290.152  
 103418608.005    80436712.652    19353381.496 7  19353381.395 7  19353385.208 6
      3640.411        2831.428  
 123704422.782    96393070.4304   23540173.558 7  23540173.81644  23540178.93544
      -259.197        -201.963  
 109666715.640    85296355.342    20508228.534 7  20508228.197 6  20508232.122 7
      1344.892        1046.026  
 119661258.826    93242560.2104   22770781.976 7  22770781.73045  22770785.13445
       853.647         665.180  
 110063109.320    85763484.2354   20944309.124 8  20944309.06646  20944311.92946
      4987.886        3886.659  
 124593837.199    96906349.912    23340616.644 7  23340617.084 6  23340623.709 6
      7989.421        6213.976  
 121099086.619    94188197.069    22693916.751 7  22693916.017 7  22693921.584 7
      1651.156        1284.235  
 107322540.006    83473112.539    20055774.950 8  20055774.273 8  20055776.043 7
      5685.693        4422.208  
 125358239.173    97681767.7984   23854876.227 7  23854876.00243  23854881.26643
      5808.906        4526.432  
 125237142.292    97587414.1964   23831827.208 6  23831827.39644  23831834.00944
      6473.307        5044.136  
 117379307.132    91295041.070    21973647.814 7  21973647.029 7  21973652.657 7
      6783.071        5275.726  
 123347636.394    96115063.7374   23472270.557 6  23472270.21344  23472274.19344
      5911.817        4606.621  
 11  5 30 15 35 40.0000000  0 15G27G 9R10R11G15R20G17G12R22R 2R21G 4
                                G25R12G14                           
 110181131.056    85855444.0304   20966771.943 8  20966771.61746  20966775.80146
      2256.059        1757.965  
 104021557.085    81055779.9964   19794644.087 8  19794643.79747  19794647.55347
      2835.364        2209.378  
 114412020.289    88987144.396    21463406.657 7  21463406.004 7  21463413.489 6
       370.985         288.545  
 103400413.919    80422561.698    19349977.346 7  19349976.753 7  19349980.578 6
      3637.267        2828.975  
 123705721.385    96394082.3094   23540421.047 7  23540420.87844  23540426.15844
      -260.349        -202.868  
 109660002.513    85291134.021    20506972.684 7  20506972.743 6  20506976.699 7
      1340.456        1042.580  
 119656996.279    93239238.7394   22769970.732 7  22769970.50345  22769974.12745
       851.153         663.239  
 110038175.401    85744055.2084   20939564.806 8  20939564.46246  20939567.16346
      4985.737        3884.981  
 124553892.600    96875281.931    23333134.077 7  23333134.212 6  23333140.967 6
      7988.455        6213.238  
 121090841.347    94181784.076    22692371.559 7  22692371.376 7  22692376.600 7
      1647.138        1281.115  
 107294122.094    83451009.726    20050464.046 8  20050463.616 8  20050465.641 7
      5681.509        4418.952  
 125329199.941    97659139.8374   23849350.343 7  23849350.19243  23849354.99543
      5806.726        4524.731  
 125204778.760    97562195.8804   23825668.356 7  23825668.40244  23825675.18644
      6472.136        5043.200  
 117345393.909    91268664.120    21967297.962 7  21967298.027 7  21967304.037 7
      6782.041        5274.917  
 123318083.750    96092035.7094   23466647.329 6  23466646.54244  23466650.63144
      5909.367        4604.678  
 11  5 30 15 35 45.0000000  0 15G27G 9R10R11G15R20G17G12R22R 2R21G 4
                                G25R12G14                           
 110169855.932    85846658.2174   20964626.403 8  20964626.03046  20964630.22446
      2254.019        1756.377  
 104007388.212    81044739.3164   19791947.887 8  19791947.56647  19791951.25347
      2832.335        2207.015  
 114410169.623    88985704.977    21463058.411 7  21463058.574 7  21463065.915 6
       369.189         287.156  
 103382234.117    80408421.854    19346574.758 7  19346574.668 7  19346578.254 6
      3634.552        2826.865  
 123707025.094    96395098.1744   23540669.249 7  23540669.03545  23540674.15845
      -261.211        -203.545  
 109653309.883    85285928.640    20505721.300 7  20505721.244 6  20505725.194 7
      1336.495        1039.496  
 119652745.201    93235926.2054   22769161.877 7  22769161.60845  22769165.18245
       848.966         661.542  
 110013251.942    85724634.3324   20934822.016 7  20934821.64346  20934824.38346
      4983.593        3883.320  
 124513951.922    96844217.003    23325651.913 7  23325651.680 6  23325658.828 6
      7987.789        6212.714  
 121082615.802    94175386.423    22690831.152 7  22690829.791 7  22690835.106 7
      1643.123        1277.984  
 107265724.153    83428922.449    20045157.278 8  20045156.956 8  20045158.545 7
      5677.622        4415.923  
 125300170.611    97636519.6004   23843825.845 7  23843825.64743  23843830.95843
      5804.790        4523.203  
 125172419.578    97536980.9534   23819511.366 7  23819510.95244  23819517.59044
      6471.334        5042.580  
 117311484.796    91242290.391    21960950.191 7  21960949.540 7  21960956.095 7
      6781.359        5274.384  
 123288542.852    96069016.8224   23461026.049 7  23461025.50344  23461029.15344
      5907.078        4602.924  
 11  5 30 15 35 50.0000000  0 15G27G 9R10R11G15R20G17G12R22R 2R21G 4
                                G25R12G14                           
 110158591.353    85837880.6204   20962482.992 8  20962482.47446  20962486.58846
      2251.950        1754.770  
 103993235.323    81033711.0904   19789254.611 8  19789254.34947  19789258.08947
      2829.144        2204.528  
 114408328.457    88984272.951    21462713.780 7  21462713.436 7  21462720.463 6
       367.396         285.748  
 103364068.516    80394293.054    19343175.496 7  19343175.388 7  19343178.908 6
      3631.855        2824.775  
 123708333.830    96396117.9534   23540918.411 7  23540918.19945  23540923.35645
      -262.104        -204.230  
 109646637.621    85280739.099    20504473.470 6  20504473.408 6  20504477.464 7
      1332.531        1036.416  
 119648505.456    93232622.5024   22768354.860 7  22768354.79445  22768358.43745
       846.857         659.910  
 109988338.883    85705221.5614   20930080.832 8  20930080.83046  20930083.58446
      4981.641        3881.802  
 124474014.997    96813155.000    23318170.608 7  23318169.995 6  23318177.221 6
      7987.135        6212.204  
 121074409.882    94169004.031    22689291.389 7  22689291.354 6  22689297.113 7
      1639.459        1275.146  
 107237346.112    83406850.644    20039854.325 8  20039853.955 8  20039855.370 7
      5673.731        4412.900  
 125271151.166    97613907.0674   23838302.968 7  23838303.42043  23838308.31243
      5802.916        4521.771  
 125140064.653    97511769.3284   23813355.073 7  23813354.61944  23813360.63944
      6470.632        5042.062  
 117277579.761    91215919.816    21954602.683 7  21954602.624 7  21954608.926 7
      6780.818        5273.972  
 123259013.596    96046007.0214   23455407.466 7  23455406.68344  23455410.01244
      5904.768        4601.109  
 11  5 30 15 35 55.0000000  0 15G27G 9R10R11G15R20G17G12R22R 2R21G 4
                                G25R12G14                           
 110147336.853    85829110.8764   20960341.246 8  20960340.79246  20960344.98246
      2249.975        1753.229  
 103979097.938    81022694.9444   19786564.511 8  19786564.09547  19786567.85347
      2825.887        2201.993  
 114406496.339    88982847.965    21462370.722 7  21462369.899 7  21462377.126 6
       365.540         284.319  
 103345916.637    80380174.926    19339778.532 7  19339778.540 7  19339781.817 6
      3629.050        2822.591  
 123709647.079    96397141.2454   23541168.133 7  23541168.19845  23541173.46645
      -263.103        -204.996  
 109639985.224    85275565.012    20503229.681 7  20503229.267 6  20503233.496 7
      1328.584        1033.350  
 119644276.553    93229327.2494   22767549.967 7  22767549.93045  22767553.54545
       844.624         658.169  
 109963435.701    85685816.4944   20925341.984 8  20925341.87746  20925344.69446
      4979.706        3880.289  
 124434081.473    96782095.638    23310689.817 7  23310689.151 6  23310696.436 6
      7986.507        6211.728  
 121066223.036    94162636.473    22687755.954 6  22687756.642 6  22687762.866 7
      1635.400        1272.001  
 107208987.445    83384793.905    20034555.033 8  20034554.321 8  20034555.926 7
      5669.772        4409.825  
 125242141.148    97591301.8674   23832782.803 7  23832782.62443  23832788.06043
      5801.178        4520.396  
 125107713.480    97486560.6364   23807199.071 7  23807198.14044  23807204.79044
      6469.816        5041.416  
 117243678.341    91189552.043    21948256.652 7  21948256.403 7  21948262.055 7
      6779.809        5273.192  
 123229495.463    96023005.8874   23449790.266 7  23449789.57544  23449792.89444
      5902.535        4599.383  
 11  5 30 15 36  0.0000000  0 15G27G 9R10R11G15R20G17G12R22R 2R21G 4
                                G25R12G14                           
 110136093.053    85820349.4704   20958201.551 8  20958201.18746  20958205.35646
      2247.678        1751.442  
 103964976.644    81011691.3354   19783877.315 8  19783876.90847  19783880.65547
      2822.707        2199.519  
 114404673.840    88981430.453    21462028.104 7  21462027.723 7  21462035.013 6
       363.561         282.789  
 103327779.048    80366067.914    19336384.707 7  19336384.213 7  19336387.735 6
      3626.096        2820.312  
 123710965.415    96398168.5064   23541419.184 7  23541419.17945  23541424.34745
      -264.092        -205.775  
 109633353.256    85270406.809    20501989.686 7  20501989.124 6  20501993.338 7
      1324.230        1029.962  
 119640059.094    93226040.9094   22766747.050 7  22766747.37545  22766750.89545
       842.400         656.423  
 109938543.052    85666419.6284   20920605.141 8  20920605.03646  20920607.80546
      4977.450        3878.528  
 124394151.825    96751039.294    23303209.409 7  23303208.902 7  23303216.197 6
      7985.534        6210.974  
 121058055.887    94156284.244    22686227.256 6  22686226.350 6  22686232.547 7
      1631.327        1268.812  
 107180648.921    83362752.835    20029259.036 8  20029258.486 8  20029260.165 7
      5665.660        4406.632  
 125213141.097    97568704.4374   23827264.676 7  23827264.21743  23827269.89143
      5798.963        4518.667  
 125075366.691    97461355.3644   23801043.185 7  23801042.45344  23801049.46344
      6468.885        5040.691  
 117209781.090    91163187.513    21941910.253 7  21941910.459 7  21941916.269 7
      6778.985        5272.551  
 123199989.144    96000013.9504   23444175.178 7  23444174.43544  23444177.93044
      5900.160        4597.527  
 11  5 30 15 36  5.0000000  0 15G27G 9R10R11G15R20G17G12R22R 2R21G 4
                                G25R12G14                           
 110124859.551    85811596.0894   20956063.941 8  20956063.49446  20956067.70846
      2245.588        1749.793  
 103950871.055    81000699.9714   19781193.041 8  19781192.73547  19781196.42047
      2819.526        2197.031  
 114402860.553    88980020.108    21461687.156 7  21461687.485 7  21461694.648 6
       361.811         281.403  
 103309655.379    80351971.729    19332992.717 7  19332992.646 7  19332996.083 6
      3623.398        2818.193  
 123712288.417    96399199.4044   23541670.871 7  23541671.04145  23541676.20845
      -265.035        -206.521  
 109626741.296    85265264.173    20500752.882 7  20500752.796 6  20500756.814 7
      1320.195        1026.826  
 119635852.640    93222763.1484   22765946.760 7  22765946.84745  22765950.45245
       840.399         654.867  
 109913660.485    85647030.6194   20915869.806 8  20915869.97646  20915872.81046
      4975.447        3876.966  
 124354225.836    96719985.788    23295730.407 7  23295729.376 6  23295736.452 6
      7984.904        6210.481  
 121049908.038    94149947.031    22684699.383 6  22684699.355 6  22684705.496 7
      1627.558        1265.876  
 107152330.072    83340727.071    20023966.776 8  20023966.370 8  20023968.165 7
      5661.734        4403.564  
 125184150.655    97546114.4994   23821748.227 7  23821747.69043  23821753.47843
      5797.209        4517.305  
 125043023.883    97436153.2024   23794888.598 7  23794887.53444  23794895.27844
      6468.229        5040.179  
 117175887.682    91136825.972    21935565.155 7  21935565.082 7  21935571.625 7
      6778.201        5271.924  
 123170494.202    95977030.8774   23438562.222 7  23438561.88144  23438565.31444
      5897.881        4595.738  
 11  5 30 15 36 10.0000000  0 15G27G 9R10R11G15R20G17G12R22R 2R21G 4
                                G25R12G14                           
 110113636.806    85802851.0924   20953928.235 8  20953927.87646  20953932.13446
      2243.420        1748.110  
 103936781.619    80989721.1884   19778511.770 8  19778511.62047  19778515.28447
      2816.225        2194.458  
 114401057.122    88978617.434    21461349.980 7  21461349.623 7  21461356.861 6
       359.753         279.819  
 103291546.170    80337886.788    19329603.899 7  19329603.620 7  19329607.266 6
      3620.331        2815.812  
 123713616.585    96400234.3234   23541923.205 7  23541923.73545  23541928.94245
      -266.237        -207.456  
 109620149.803    85260137.454    20499520.552 7  20499520.131 6  20499524.261 7
      1316.258        1023.757  
 119631657.718    93219494.3714   22765148.704 7  22765148.70645  22765152.20645
       837.873         652.895  
 109888788.473    85627649.8354   20911137.172 8  20911137.06146  20911139.76346
      4973.362        3875.347  
 124314303.864    96688935.410    23288251.376 7  23288250.657 6  23288257.288 6
      7983.873        6209.686  
 121041779.877    94143625.132    22683176.647 7  22683176.271 6  22683181.953 7
      1623.638        1262.832  
 107124031.374    83318716.981    20018678.804 8  20018678.155 8  20018679.851 7
      5657.761        4400.477  
 125155170.381    97523532.4824   23816232.980 7  23816232.78843  23816238.21443
      5794.963        4515.553  
 125010685.520    97410954.4914   23788734.540 7  23788733.73144  23788741.70644
      6467.314        5039.469  
 117141998.523    91110467.752    21929221.584 7  21929220.883 7  21929227.763 7
      6777.507        5271.398  
 123141011.155    95954057.0824   23432951.547 6  23432951.25444  23432954.69044
      5895.444        4593.854  
 11  5 30 15 36 15.0000000  0 15G27G 9R10R11G15R20G17G12R22R 2R21G 4
                                G25R12G14                           
 110102424.161    85794113.9614   20951794.681 8  20951794.25046  20951798.39846
      2241.579        1746.687  
 103922707.711    80978754.5064   19775833.761 8  19775833.41347  19775837.13047
      2813.301        2192.179  
 114399262.669    88977221.737    21461013.367 7  21461012.841 7  21461020.769 6
       358.007         278.454  
 103273450.729    80323812.559    19326217.648 7  19326217.399 7  19326221.060 6
      3617.796        2813.853  
 123714949.236    96401272.7344   23542176.965 7  23542177.12045  23542182.59245
      -266.769        -207.862  
 109613578.075    85255026.107    20498291.594 6  20498291.141 6  20498295.288 7
      1312.244        1020.636  
 119627473.564    93216233.9884   22764352.890 7  22764352.56245  22764355.95845
       835.778         651.265  
 109863926.377    85608276.7724   20906406.133 8  20906405.96146  20906408.63947
      4971.417        3873.835  
 124274385.333    96657887.703    23280773.775 7  23280772.717 7  23280779.385 6
      7983.395        6209.297  
 121033670.820    94137318.091    22681658.073 7  22681657.247 6  22681662.524 7
      1620.032        1260.023  
 107095752.179    83296722.058    20013394.292 8  20013393.594 8  20013395.262 7
      5653.857        4397.445  
 125126199.479    97500957.7594   23810719.406 7  23810719.55543  23810725.38543
      5793.271        4514.240  
 124978350.971    97385758.7524   23782581.725 7  23782580.79444  23782588.07744
      6466.610        5038.904  
 117108112.949    91084112.324    21922878.380 7  21922877.964 7  21922884.120 7
      6776.677        5270.749  
 123111539.361    95931092.0484   23427343.332 6  23427342.70744  23427346.50344
      5893.131        4592.018  
 11  5 30 15 36 20.0000000  0 15G27G 9R10R11G15R20G17G12R22R 2R21G 4
                                G25R12G14                           
 110091221.784    85785384.8354   20949662.851 8  20949662.47546  20949666.72446
      2239.508        1745.073  
 103908649.484    80967800.0444   19773158.779 8  19773158.23347  19773161.93747
      2810.083        2189.674  
 114397477.301    88975833.106    21460678.409 7  21460678.320 7  21460685.746 6
       356.010         276.900  
 103255369.127    80309749.092    19322833.765 7  19322833.641 7  19322837.445 6
      3614.991        2811.667  
 123716286.546    96402314.7764   23542431.854 7  23542431.74545  23542436.98145
      -268.011        -208.835  
 109607026.441    85249930.390    20497066.397 7  20497066.136 6  20497069.998 7
      1308.255        1017.530  
 119623300.361    93212982.1414   22763558.519 7  22763558.52945  22763561.82545
       833.496         649.472  
 109839074.328    85588911.5444   20901676.852 8  20901676.78846  20901679.51646
      4969.381        3872.244  
 124234470.398    96626842.796    23273296.152 7  23273295.182 6  23273301.851 6
      7982.634        6208.716  
 121025580.897    94131025.927    22680141.901 7  22680141.393 7  22680146.803 7
      1616.131        1256.995  
 107067492.723    83274742.486    20008113.160 8  20008112.740 8  20008114.349 7
      5649.842        4394.319  
 125097238.231    97478390.5734   23805207.820 6  23805208.34743  23805214.14943
      5791.272        4512.677  
 124946020.389    97360566.1004   23776429.468 7  23776428.75844  23776435.67144
      6465.693        5038.212  
 117074231.249    91057759.892    21916535.931 7  21916535.437 7  21916541.177 7
      6775.825        5270.091  
 123082078.918    95908135.8694   23421737.187 6  23421736.80844  23421740.16744
      5890.949        4590.337  
 11  5 30 15 36 25.0000000  0 15G27G 9R10R11G15R20G17G12R22R 2R21G 4
                                G25R12G14                           
 110080029.844    85776663.8424   20947532.972 8  20947532.74246  20947536.91246
      2237.241        1743.305  
 103894607.110    80956857.9304   19770486.398 8  19770486.00547  19770489.79046
      2806.854        2187.155  
 114395701.236    88974451.715    21460345.672 7  21460344.973 7  21460352.401 6
       354.230         275.514  
 103237301.622    80295696.586    19319452.687 7  19319452.431 7  19319455.962 6
      3612.104        2809.419  
 123717628.649    96403360.5604   23542687.853 7  23542687.32745  23542692.13645
      -268.771        -209.433  
 109600494.995    85244850.377    20495844.950 7  20495844.821 6  20495848.512 7
      1304.221        1014.388  
 119619138.266    93209738.9424   22762766.729 7  22762766.57145  22762769.85145
       831.409         647.860  
 109814232.469    85569554.2574   20896949.830 8  20896949.53146  20896952.25846
      4967.337        3870.651  
 124194559.237    96595800.821    23265818.563 7  23265818.393 6  23265825.200 6
      7981.839        6208.083  
 121017510.410    94124748.880    22678629.339 7  22678628.940 7  22678634.759 7
      1612.090        1253.842  
 107039253.134    83252778.366    20002836.318 8  20002835.519 8  20002837.113 7
      5645.991        4391.330  
 125068286.777    97455831.0144   23799698.600 7  23799698.85243  23799704.85843
      5789.248        4511.109  
 124913693.928    97335376.6634   23770277.731 7  23770277.31944  23770283.84044
      6464.939        5037.600  
 117040353.538    91031410.560    21910193.989 7  21910193.696 7  21910199.226 7
      6775.169        5269.571  
 123052630.105    95885188.7484   23416133.173 6  23416132.81144  23416136.46144
      5888.563        4588.504  
 11  5 30 15 36 30.0000000  0 15G27G 9R10R11G15R20G17G12R22R 2R21G 4
                                G25R12G14                           
 110068848.026    85767950.7364   20945405.567 8  20945404.91446  20945409.15646
      2235.380        1741.855  
 103880580.258    80945927.9164   19767817.002 8  19767816.77847  19767820.47947
      2803.844        2184.805  
 114393934.313    88973077.432    21460014.208 7  21460013.023 7  21460021.167 6
       352.504         274.181  
 103219247.950    80281654.848    19316074.224 7  19316074.024 7  19316077.631 6
      3609.432        2807.328  
 123718975.229    96404409.8354   23542943.930 7  23542943.78345  23542948.48845
      -269.581        -210.066  
 109593983.232    85239785.668    20494627.006 7  20494626.933 6  20494630.812 7
      1300.579        1011.564  
 119614987.003    93206504.1844   22761976.754 7  22761976.63945  22761979.93645
       829.074         646.028  
 109789400.563    85550204.7244   20892224.421 8  20892224.12646  20892226.87746
      4965.414        3869.143  
 124154651.537    96564761.538    23258342.461 7  23258342.093 6  23258349.014 6
      7981.331        6207.686  
 121009458.973    94118486.638    22677120.601 7  22677119.845 6  22677125.831 7
      1608.392        1250.968  
 107011033.059    83230829.425    19997562.516 8  19997561.713 8  19997563.394 7
      5642.115        4388.313  
 125039344.840    97433278.8764   23794190.989 6  23794191.43343  23794197.62043
      5787.514        4509.738  
 124881371.310    97310190.2134   23764127.112 7  23764126.36144  23764133.15544
      6464.153        5037.009  
 117006479.495    91005064.083    21903852.905 7  21903852.295 7  21903858.026 7
      6774.495        5269.053  
 123023192.549    95862250.3984   23410531.500 6  23410531.07044  23410534.60944
      5886.415        4586.821  
 11  5 30 15 36 35.0000000  0 15G27G 9R10R11G15R20G17G12R22R 2R21G 4
                                G25R12G14                           
 110057676.670    85759245.7774   20943279.672 7  20943279.11346  20943283.34646
      2233.263        1740.211  
 103866569.315    80935010.3014   19765150.862 8  19765150.52347  19765154.30746
      2800.534        2182.233  
 114392176.794    88971710.458    21459683.259 7  21459683.013 7  21459691.606 6
       350.587         272.677  
 103201208.353    80267624.045    19312698.038 7  19312698.200 7  19312701.880 6
      3606.587        2805.132  
 123720326.515    96405462.7654   23543200.708 7  23543200.93945  23543205.88845
      -270.680        -210.921  
 109587491.655    85234736.663    20493413.099 6  20493413.069 6  20493416.901 7
      1296.230        1008.174  
 119610846.817    93203278.0664   22761188.961 7  22761188.73145  22761192.05445
       826.998         644.407  
 109764578.925    85530863.1894   20887500.879 8  20887500.82246  20887503.46046
      4963.241        3867.459  
 124114747.700    96533725.263    23250867.561 7  23250866.944 6  23250873.617 6
      7980.334        6206.909  
 121001426.888    94112239.461    22675613.925 6  22675613.958 6  22675620.494 7
      1604.535        1247.967  
 106982832.932    83208895.999    19992292.289 8  19992291.813 8  19992293.400 7
      5637.979        4385.095  
 125010412.766    97410734.4244   23788685.501 6  23788685.90443  23788692.22143
      5785.390        4508.080  
 124849052.828    97285007.0014   23757976.460 7  23757976.18544  23757983.41644
      6463.204        5036.246  
 116972609.519    90978720.762    21897511.855 7  21897511.317 7  21897517.653 7
      6773.659        5268.404  
 122993766.607    95839321.1014   23404931.765 6  23404931.52144  23404935.00344
      5883.942        4584.920  
 11  5 30 15 36 40.0000000  0 15G27G 9R10R11G15R20G17G12R22R 2R21G 4
                                G25R12G14                           
 110046515.750    85750548.9584   20941155.540 8  20941155.24046  20941159.52246
      2231.074        1738.495  
 103852574.241    80924105.0474   19762487.728 8  19762487.38747  19762491.17847
      2797.382        2179.776  
 114390428.602    88970350.735    21459355.765 7  21459355.334 7  21459363.244 6
       348.618         271.141  
 103183182.921    80253604.266    19309325.511 7  19309325.004 7  19309328.592 6
      3603.610        2802.811  
 123721682.572    96406519.4244   23543458.383 7  23543458.88345  23543463.75945
      -271.620        -211.635  
 109581020.247    85229703.342    20492203.543 7  20492202.800 6  20492206.656 7
      1292.223        1005.060  
 119606717.772    93200060.6234   22760403.453 7  22760403.04545  22760406.32245
       824.552         642.527  
 109739767.538    85511529.6444   20882779.371 8  20882779.26346  20882781.97946
      4961.249        3865.914  
 124074847.664    96502691.947    23243392.724 7  23243392.184 6  23243398.868 6
      7979.633        6206.366  
 120993414.108    94106007.281    22674112.888 6  22674111.910 6  22674119.027 7
      1600.739        1245.026  
 106954652.725    83186978.068    19987026.739 8  19987025.748 8  19987027.421 7
      5633.909        4381.925  
 124981490.603    97388197.6744   23783182.515 7  23783182.17343  23783188.13643
      5783.263        4506.431  
 124816738.531    97259827.0314   23751827.902 7  23751827.23444  23751834.47344
      6462.266        5035.529  
 116938743.494    90952380.526    21891170.602 7  21891170.461 7  21891178.180 7
      6772.768        5267.706  
 122964352.314    95816400.8784   23399334.602 6  23399333.99244  23399337.50444
      5881.602        4583.089  
 11  5 30 15 36 45.0000000  0 15G27G 9R10R11G15R20G17G12R22R 2R21G 4
                                G25R12G14                           
 110035365.106    85741860.1374   20939033.871 8  20939033.39646  20939037.49046
      2228.957        1736.846  
 103838594.869    80913212.0294   19759827.738 8  19759827.19147  19759831.00447
      2794.209        2177.304  
 114388689.599    88968998.168    21459030.048 7  21459029.393 7  21459036.846 6
       346.870         269.789  
 103165171.397    80239595.305    19305954.297 7  19305954.284 7  19305958.117 6
      3600.708        2800.546  
 123723043.175    96407579.6174   23543717.195 7  23543717.54445  23543722.59545
      -272.624        -212.414  
 109574568.660    85224685.439    20490996.793 7  20490996.360 6  20491000.151 7
      1288.150        1001.891  
 119602599.615    93196851.6694   22759619.534 7  22759619.37945  22759622.79145
       822.292         640.753  
 109714966.286    85492203.9984   20878059.351 8  20878059.61246  20878062.34646
      4959.058        3864.198  
 124034951.329    96471661.507    23235918.596 7  23235918.046 6  23235924.804 6
      7978.824        6205.745  
 120985420.639    94099790.121    22672615.722 6  22672614.774 6  22672620.493 7
      1596.569        1241.770  
 106926492.211    83165075.446    19981764.333 8  19981763.221 8  19981764.984 7
      5630.052        4378.931  
 124952578.107    97365668.4664   23777681.229 7  23777680.81343  23777686.17343
      5781.390        4504.997  
 124784428.223    97234650.1784   23745679.611 7  23745678.87244  23745685.99644
      6461.535        5034.952  
 116904881.373    90926043.345    21884831.585 7  21884831.517 7  21884839.002 7
      6771.908        5267.034  
 122934949.454    95793489.5654   23393739.481 7  23393738.50044  23393742.33944
      5879.394        4581.351  
 11  5 30 15 36 50.0000000  0 15G27G 9R10R11G15R20G17G12R22R 2R21G 4
                                G25R12G14                           
 110024224.942    85733179.4874   20936913.933 8  20936913.43746  20936917.66746
      2227.026        1735.349  
 103824631.395    80902331.4004   19757170.533 8  19757169.99747  19757173.76247
      2791.072        2174.861  
 114386959.972    88967652.894    21458705.254 7  21458704.839 7  21458712.036 6
       344.961         268.306  
 103147174.014    80225597.340    19302586.427 7  19302586.269 7  19302590.028 6
      3598.115        2798.540  
 123724408.551    96408643.5304   23543977.101 7  23543977.26545  23543982.56545
      -273.539        -213.131  
 109568137.071    85219683.091    20489793.815 7  20489793.321 6  20489797.485 7
      1284.405         998.979  
 119598492.564    93193651.3634   22758838.077 7  22758837.93345  22758841.18445
       820.329         639.221  
 109690175.345    85472886.3854   20873342.109 8  20873342.07246  20873344.86146
      4957.128        3862.698  
 123995058.863    96440634.077    23228445.239 7  23228444.625 6  23228451.793 6
      7977.910        6205.031  
 120977446.375    94093587.915    22671121.408 7  22671121.003 6  22671125.876 7
      1592.950        1238.959  
 106898351.660    83143188.357    19976505.100 8  19976504.502 8  19976506.086 7
      5626.077        4375.837  
 124923675.525    97343146.9914   23772180.798 7  23772180.87943  23772186.33543
      5779.352        4503.402  
 124752122.127    97209476.6104   23739531.889 7  23739531.13544  23739538.33944
      6460.684        5034.300  
 116871023.332    90899709.337    21878495.209 7  21878494.527 7  21878500.862 7
      6771.301        5266.574  
 122905558.313    95770587.3904   23388146.429 6  23388145.19544  23388149.27044
      5876.932        4579.433  
