     2.10           OBSERVATION DATA    M (MIXED)           RINEX VERSION / TYPE
Pinnacle 1.00                           30-MAY-11 20:31     PGM / RUN BY / DATE
build April 19, 2002                                        COMMENT
-Unknown-           -Unknown-                               OBSERVER / AGENCY
         Begin Pinnacle project                             COMMENT
VG_GPS                                                      COMMENT
                                                            COMMENT
                                                            COMMENT
May 30, 2011 8:29:02 pm                                     COMMENT
                                                            COMMENT
                                                            COMMENT
C:\data\VG_GPS\projekt\Pinnacle.dbd                         COMMENT
         End Pinnacle project                               COMMENT
                                                            COMMENT
1005                                                        MARKER NAME
1005                                                        MARKER NUMBER
8QG4AWP4FEO         TPS HIPER           3.3 Dec,22,2008 p6  REC # / TYPE / VERS
-Unknown-           TPSPG_A1                                ANT # / TYPE
  3916136.5466  1193312.7974  4875246.9198                  APPROX POSITION XYZ
        1.2700        0.0000        0.0000                  ANTENNA: DELTA H/E/N
     1     1                                                WAVELENGTH FACT L1/2
     7    L1    L2    C1    P1    P2    D1    D2            # / TYPES OF OBSERV
     5.000                                                  INTERVAL
  2011     5    30    16    45   45.0000000     GPS         TIME OF FIRST OBS
  2011     5    30    18    17   30.0000000     GPS         TIME OF LAST OBS
    15                                                      LEAP SECONDS
    16                                                      # OF SATELLITES
   R 5   294   294   294   294   294   294   294            PRN / # OF OBS
   R11  1023   839  1023  1016   839  1023   839            PRN / # OF OBS
   R12  1102  1102  1102  1102  1102  1102  1102            PRN / # OF OBS
   R13  1102  1102  1102  1102  1102  1102  1102            PRN / # OF OBS
   R20   156   156   156   156   156   156   156            PRN / # OF OBS
   R21  1102  1102  1102  1102  1102  1102  1102            PRN / # OF OBS
   R22  1102  1102  1102  1102  1102  1102  1102            PRN / # OF OBS
   R23   818   804   818   811   804   818   804            PRN / # OF OBS
   G 2  1102  1091  1102  1091  1091  1102  1091            PRN / # OF OBS
   G 4  1102  1101  1102  1101  1101  1102  1101            PRN / # OF OBS
   G 9   910   799   910   799   799   910   799            PRN / # OF OBS
   G14  1101  1062  1101  1062  1062  1101  1062            PRN / # OF OBS
   G25  1102  1102  1102  1102  1102  1102  1102            PRN / # OF OBS
   G27   615   560   615   560   560   615   560            PRN / # OF OBS
   G29  1099  1089  1099  1089  1089  1099  1089            PRN / # OF OBS
   G31   843   843   843   843   843   843   843            PRN / # OF OBS
SE TPS d6deae16                                             COMMENT
                                                            END OF HEADER
 11  5 30 16 45 45.0000000  0 13R21R12R11R22G 9G25G27G14G 4G 2G29R20
                                R13                                 
 105063849.146    81716345.702    19633692.426 8  19633691.604 8  19633692.293 7
      1619.737        1259.796  
 105276128.850    81881453.086    19707912.743 8  19707912.316 8  19707917.006 7
      4911.164        3819.788  
 107422602.893    83550935.648    20102675.225 7  20102674.912 7  20102680.212 6
       666.080         518.065  
 107880552.859    83907114.665    20209662.442 8  20209661.541 8  20209665.477 8
      5791.638        4504.591  
 111291647.136    86720777.1394   21178094.891 7  21178093.87143  21178098.37243
       -52.331         -40.792  
 113594573.206    88515268.5824   21616329.336 8  21616328.32646  21616333.27946
      5088.595        3965.133  
 118056081.017                    22465325.443 6                                
       191.100                  
 117272452.376    91381145.8384   22316203.944 7  22316203.78844  22316207.28845
      2931.923        2284.630  
 119358393.605                    22713145.965 7                                
      2946.902                  
 121448353.129                    23110853.887 7                                
      5231.204                  
 124079750.472                    23611588.458 5                                
      6428.471                  
 123552234.231    96096203.524    23104889.961 5  23104889.604 5  23104896.912 6
     -1274.632        -991.375  
 126528010.993    98410694.830    23694631.594 5  23694630.893 5  23694638.821 6
      6922.914        5384.476  
 11  5 30 16 45 50.0000000  0 13R21R12R11R22G 9G25G27G14G 4G 2G29R20
                                R13                                 
 105055748.251    81710044.998    19632178.994 8  19632177.943 8  19632178.698 7
      1620.771        1260.593  
 105251567.408    81862349.746    19703314.639 8  19703314.310 8  19703319.168 7
      4913.440        3821.570  
 107419267.611    83548341.531    20102050.821 7  20102051.078 7  20102056.058 6
       668.044         519.596  
 107851590.587    83884588.470    20204235.996 8  20204235.656 8  20204239.883 8
      5793.362        4505.948  
 111291902.724    86720976.2984   21178143.275 7  21178142.74343  21178147.32243
       -49.904         -38.893  
 113569121.838    88495436.3574   21611486.023 8  21611484.96546  21611490.27046
      5091.976        3967.787  
 118055117.595    91991020.4564   22465141.640 6  22465141.93841  22465144.80641
       194.358         151.407  
 117257788.970    91369719.7934   22313413.394 7  22313413.20645  22313416.99145
      2933.604        2285.950  
 119343656.062    92995071.5934   22710342.157 7  22710342.00044  22710348.09944
      2948.266        2297.380  
 121422189.896                    23105874.547 6                                
      5234.266                  
 124047598.542                    23605470.275 4                                
      6432.942                  
 123558597.909    96101153.038    23106080.295 5  23106079.837 5  23106087.095 6
     -1270.685        -988.291  
 126493384.644    98383763.264    23688145.383 5  23688145.976 5  23688153.027 6
      6927.312        5387.887  
 11  5 30 16 45 55.0000000  0 13R21R12R11R22G 9G25G27G14G 4G 2G29R20
                                R13                                 
 105047642.366    81703740.410    19630662.758 8  19630662.426 8  19630664.306 7
      1621.615        1261.254  
 105226994.850    81843237.756    19698714.270 8  19698713.781 8  19698719.594 7
      4915.583        3823.228  
 107415922.124    83545739.473    20101424.291 7  20101425.019 7  20101430.345 6
       670.186         521.249  
 107822620.088    83862055.863    20198809.029 8  20198808.581 8  20198812.995 7
      5794.953        4507.185  
 111292145.759    86721165.6804   21178190.023 7  21178189.67443  21178193.60143
       -47.253         -36.819  
 113543653.213    88475590.6694   21606639.115 8  21606638.39046  21606644.01846
      5095.354        3970.412  
 118054137.857    91990256.9864   22464953.995 6  22464955.45241  22464959.83741
       197.711         154.063  
 117243118.209    91358288.0314   22310621.960 7  22310621.37945  22310625.23845
      2935.013        2287.036  
 119328911.471    92983582.2964   22707536.593 7  22707536.17244  22707540.98144
      2949.460        2298.276  
 121396011.804                    23100893.785 7                                
      5237.108                  
 124015426.778                    23599348.333 5                                
      6436.428                  
 123564942.115    96106087.415    23107266.528 5  23107266.377 5  23107273.073 6
     -1266.771        -985.268  
 126458734.108    98356812.859    23681657.855 5  23681656.743 5  23681662.880 6
      6932.741        5392.135  
 11  5 30 16 46  0.0000000  0 13R21R12R11R22G 9G25G27G14G 4G 2G29R20
                                R13                                 
 105039530.732    81697431.372    19629147.118 8  19629146.645 8  19629148.019 7
      1622.866        1262.240  
 105202410.598    81824116.674    19694111.945 8  19694111.199 8  19694117.031 7
      4917.959        3825.076  
 107412565.804    83543128.979    20100796.707 7  20100796.909 7  20100802.484 6
       672.220         522.838  
 107793640.662    83839516.326    20193380.081 7  20193379.452 7  20193384.274 8
      5796.770        4508.599  
 111292375.614    86721344.7464   21178232.895 6  21178233.13543  21178237.97243
       -44.660         -34.813  
 113518166.630    88455731.0004   21601788.863 8  21601788.25646  21601793.99746
      5099.011        3973.272  
 118053141.195    91989480.4444   22464765.678 6  22464765.17141  22464770.18041
       201.004         156.664  
 117228439.497    91346850.0604   22307829.059 7  22307828.39845  22307832.39345
      2936.650        2288.315  
 119314159.156    92972086.9814   22704729.989 7  22704729.70144  22704733.85544
      2951.078        2299.523  
 121369818.263                    23095910.278 7                                
      5240.175                  
 123983234.838                    23593223.754 5                                
      6440.188                  
 123571266.165    96111006.101    23108450.198 5  23108449.589 5  23108455.982 6
     -1262.980        -982.315  
 126424058.631    98329843.021    23675163.645 5  23675163.918 5  23675170.538 6
      6937.580        5395.891  
 11  5 30 16 46  5.0000000  0 13R21R12R11R22G 9G25G27G14G 4G 2G29R20
                                R13                                 
 105031413.326    81691117.836    19627630.075 8  19627629.740 8  19627631.142 7
      1623.957        1263.097  
 105177814.481    81804986.363    19689507.307 8  19689506.968 8  19689512.679 7
      4920.347        3826.956  
 107409198.399    83540509.880    20100168.050 7  20100167.187 7  20100171.952 6
       674.571         524.660  
 107764652.265    83816969.804    20187949.940 7  20187949.349 7  20187953.866 8
      5798.420        4509.872  
 111292592.226    86721513.5284   21178274.490 6  21178274.30943  21178279.17343
       -42.252         -32.919  
 113492662.047    88435857.2934   21596935.695 8  21596935.04146  21596940.41046
      5102.593        3976.062  
 118052127.475    91988690.5904   22464573.765 6  22464574.24541  22464576.58941
       204.421         159.208  
 117213752.683    91335405.7824   22305034.219 7  22305033.64045  22305037.60645
      2938.252        2289.557  
 119299399.039    92960585.5944   22701921.943 8  22701921.32144  22701924.65344
      2952.760        2300.862  
 121343609.077                    23090922.182 7                                
      5243.391                  
 123951022.708                    23587094.255 5                                
      6444.548                  
 123577569.857    96115908.972    23109628.830 5  23109628.131 5  23109634.878 6
     -1258.484        -978.823  
 126389357.997    98302853.686    23668662.780 5  23668663.267 5  23668672.188 6
      6942.668        5399.843  
 11  5 30 16 46 10.0000000  0 13R21R12R11R22G 9G25G27G14G 4G 2G29R20
                                R13                                 
 105023290.269    81684799.910    19626111.900 8  19626111.097 8  19626113.397 7
      1625.056        1263.932  
 105153206.633    81785846.936    19684900.857 8  19684900.261 8  19684906.408 7
      4922.636        3828.717  
 107405820.255    83537882.441    20099535.880 7  20099535.480 7  20099539.987 6
       676.572         526.228  
 107735655.124    83794416.474    20182519.045 7  20182517.879 7  20182521.789 8
      5800.310        4511.358  
 111292795.697    86721672.0964   21178312.885 6  21178312.92843  21178318.43243
       -39.513         -30.801  
 113467139.606    88415969.6934   21592078.222 8  21592077.86046  21592083.29746
      5106.188        3978.849  
 118051096.840    91987887.4364   22464378.838 6  22464377.36041  22464379.81241
       207.756         161.950  
 117199057.995    91323955.3684   22302239.192 7  22302237.73945  22302241.06745
      2939.625        2290.622  
 119284631.319    92949078.2784   22699111.472 7  22699111.05744  22699113.64644
      2954.288        2302.029  
 121317384.523                    23085931.261 7                                
      5246.341                  
 123918790.673    96560116.4824   23580960.844 5  23580959.92441  23580966.45141
      6448.208        5024.577  
 123583853.239    96120796.048    23110804.304 6  23110803.761 5  23110809.344 6
     -1254.522        -975.738  
 126354632.748    98275845.175    23662161.152 5  23662161.446 5  23662168.038 6
      6947.517        5403.640  
 11  5 30 16 46 15.0000000  0 13R21R12R11R22G 9G25G27G14G 4G 2G29R20
                                R13                                 
 105015161.933    81678477.875    19624592.490 8  19624591.981 8  19624594.402 7
      1626.087        1264.746  
 105128587.583    81766698.777    19680291.799 8  19680291.280 8  19680297.789 7
      4924.985        3830.541  
 107402431.552    83535246.780    20098901.220 7  20098901.207 7  20098905.916 6
       678.684         527.868  
 107706649.604    83771856.630    20177084.627 8  20177084.356 8  20177087.800 7
      5802.086        4512.740  
 111292986.376    86721820.6554   21178349.511 6  21178348.77543  21178354.43043
       -36.755         -28.648  
 113441599.710    88396068.4834   21587219.104 8  21587218.34646  21587223.62346
      5109.869        3981.720  
 118050049.710    91987071.4544   22464179.812 6  22464178.54341  22464179.89041
       211.104         164.480  
 117184355.762    91312499.0944   22299441.148 7  22299440.31145  22299443.16545
      2941.356        2291.963  
 119269856.369    92937565.3114   22696299.194 7  22696299.05544  22696301.75144
      2955.624        2303.094  
 121291144.925                    23080938.523 7                                
      5249.481                  
 123886538.936    96534985.2694   23574823.121 6  23574823.12241  23574829.49641
      6452.622        5027.989  
 123590116.728    96125667.633    23111974.617 5  23111974.371 5  23111979.685 6
     -1250.828        -972.846  
 126319882.967    98248817.561    23655652.962 5  23655652.439 5  23655661.103 6
      6952.765        5407.734  
 11  5 30 16 46 20.0000000  0 13R21R12R11R22G 9G25G27G14G 4G 2G29R20
                                R13                                 
 105007027.736    81672151.283    19623072.734 8  19623072.095 8  19623074.074 7
      1627.434        1265.776  
 105103956.711    81747541.431    19675681.174 8  19675679.764 8  19675686.691 7
      4927.256        3832.304  
 107399031.917    83532602.608    20098264.171 7  20098264.262 7  20098269.994 6
       680.979         529.652  
 107677635.051    83749289.761    20171649.562 8  20171648.792 7  20171652.656 8
      5803.756        4514.030  
 111293163.878    86721958.9544   21178382.977 7  21178382.85243  21178388.11643
       -34.148         -26.578  
 113416041.862    88376153.2674   21582355.833 8  21582355.04646  21582360.32746
      5113.363        3984.442  
 118048985.547    91986242.2374   22463976.726 6  22463976.17941  22463978.05341
       214.341         167.016  
 117169645.569    91301036.5914   22296640.969 7  22296640.75845  22296644.19945
      2942.690        2293.017  
 119255073.639    92926046.3044   22693485.527 7  22693485.32444  22693489.01444
      2957.368        2304.433  
 121264889.836                    23075943.059 7                                
      5252.622                  
 123854267.015    96509838.3534   23568681.266 6  23568681.83841  23568689.90641
      6456.400        5031.003  
 123596359.924    96130523.440    23113141.825 5  23113140.760 5  23113147.153 6
     -1246.620        -969.591  
 126285108.085    98221770.474    23649142.523 5  23649142.026 5  23649147.990 6
      6957.373        5411.287  
 11  5 30 16 46 25.0000000  0 13R21R12R11R22G 9G25G27G14G 4G 2G29R20
                                R13                                 
 104998888.323    81665820.626    19621551.410 8  19621551.098 8  19621553.143 7
      1628.293        1266.457  
 105079314.660    81728375.394    19671067.660 8  19671066.619 8  19671073.291 7
      4929.472        3834.033  
 107395621.863    83529950.330    20097625.839 7  20097625.834 7  20097631.735 6
       682.932         531.177  
 107648612.190    83726716.427    20166212.584 8  20166211.756 8  20166215.449 7
      5805.353        4515.266  
 111293328.595    86722087.2694   21178413.571 6  21178413.82143  21178419.45443
       -31.584         -24.625  
 113390466.618    88356224.5094   21577488.169 8  21577488.10346  21577494.09446
      5116.791        3987.126  
 118047904.901    91985400.1384   22463770.897 6  22463770.37741  22463772.48541
       217.984         169.843  
 117154927.814    91289568.2204   22293839.661 7  22293839.54945  22293843.57745
      2944.367        2294.313  
 119240283.764    92914521.7194   22690670.697 7  22690670.76144  22690674.45244
      2958.692        2305.475  
 121238619.818                    23070943.685 7                                
      5255.617                  
 123821975.539    96484676.2064   23562536.925 6  23562536.75742  23562545.23942
      6460.352        5034.002  
 123602583.500    96135363.991    23114304.319 5  23114304.549 5  23114312.209 6
     -1242.746        -966.576  
 126250308.931    98194704.481    23642625.242 5  23642626.758 5  23642632.712 6
      6962.591        5415.348  
 11  5 30 16 46 30.0000000  0 13R21R12R11R22G 9G25G27G14G 4G 2G29R20
                                R13                                 
 104990743.785    81659485.989    19620029.928 8  19620029.226 8  19620031.169 7
      1629.428        1267.350  
 105054661.559    81709200.760    19666452.455 8  19666451.986 8  19666457.626 7
      4931.638        3835.725  
 107392201.565    83527290.078    20096986.348 7  20096986.373 7  20096991.518 6
       685.042         532.819  
 107619581.206    83704136.772    20160774.841 8  20160773.744 8  20160777.162 8
      5806.946        4516.521  
 111293480.700    86722205.8004   21178443.660 6  21178443.08543  21178448.16243
       -29.371         -22.879  
 113364874.038    88336282.2404   21572618.198 8  21572617.91846  21572624.35346
      5120.166        3989.732  
 118046807.858    91984545.3144   22463562.193 6  22463562.08041  22463565.46341
       221.099         172.212  
 117140202.726    91278094.1174   22291037.323 7  22291037.53145  22291041.83345
      2945.848        2295.471  
 119225486.787    92902991.6074   22687854.748 7  22687854.44144  22687858.75144
      2960.117        2306.580  
 121212334.429                    23065941.843 6                                
      5258.485                  
 123789664.625    96459498.8614   23556388.663 5  23556388.03642  23556396.50142
      6464.168        5037.025  
 123608787.198    96140189.070    23115466.227 5  23115466.188 5  23115471.771 6
     -1238.593        -963.348  
 126215485.534    98167619.630    23636105.991 6  23636105.266 5  23636111.089 6
      6967.015        5418.774  
 11  5 30 16 46 35.0000000  0 13R21R12R11R22G 9G25G27G14G 4G 2G29R20
                                R13                                 
 104982594.342    81653147.532    19618507.252 8  19618506.072 8  19618508.180 7
      1630.422        1268.094  
 105029997.736    81690017.786    19661836.166 8  19661835.457 8  19661840.552 7
      4933.831        3837.410  
 107388771.277    83524622.059    20096343.998 7  20096344.522 7  20096349.227 6
       687.025         534.355  
 107590542.281    83681550.945    20155334.135 8  20155333.539 8  20155337.268 8
      5808.506        4517.738  
 111293620.477    86722314.6744   21178468.738 6  21178469.20143  21178474.56343
       -26.553         -20.668  
 113339264.483    88316326.7304   21567744.752 8  21567743.90146  21567751.15446
      5123.602        3992.405  
 118045694.785    91983677.9344   22463350.759 5  22463351.12541  22463353.53641
       224.428         174.844  
 117125470.561    91266614.4934   22288233.717 7  22288233.47145  22288238.10245
      2947.425        2296.685  
 119210683.028    92891456.2114   22685038.612 7  22685037.84344  22685042.18044
      2961.353        2307.531  
 121186035.048                    23060937.606 7                                
      5261.282                  
 123757334.510    96434306.5774   23550235.719 5  23550236.06242  23550242.93042
      6467.945        5039.913  
 123614971.406    96144999.003    23116622.093 5  23116622.532 5  23116628.198 6
     -1234.820        -960.434  
 126180638.243    98140516.186    23629581.911 6  23629580.850 6  23629586.719 6
      6971.708        5422.428  
 11  5 30 16 46 40.0000000  0 13R21R12R11R22G 9G25G27G14G 4G 2G29R20
                                R13                                 
 104974439.835    81646805.137    19616983.613 8  19616982.357 8  19616984.442 7
      1631.454        1268.915  
 105005322.916    81670826.263    19657217.013 8  19657216.652 8  19657221.446 7
      4936.253        3839.307  
 107385330.734    83521946.077    20095699.914 7  20095700.221 7  20095705.425 6
       689.221         536.071  
 107561495.248    83658958.804    20149892.307 8  20149891.840 8  20149895.780 7
      5810.230        4519.067  
 111293747.709    86722413.8054   21178493.983 6  21178493.65443  21178498.45343
       -23.864         -18.554  
 113313637.728    88296357.8304   21562867.997 8  21562867.29846  21562874.34746
      5127.099        3995.144  
 118044565.317    91982797.8154   22463136.492 6  22463136.02441  22463139.54241
       227.204         177.074  
 117110731.147    91255129.2394   22285427.344 6  22285428.05045  22285433.61944
      2948.816        2297.787  
 119195872.225    92879915.3324   22682219.023 7  22682219.34944  22682223.79244
      2962.711        2308.602  
 121159720.947    94410198.2274   23055929.164 7  23055929.45044  23055935.64644
      5264.292        4102.032  
 123724985.099    96409099.2714   23544080.752 6  23544080.73142  23544087.35342
      6471.661        5042.860  
 123621136.065    96149793.714    23117775.613 5  23117775.123 5  23117781.526 6
     -1230.835        -957.310  
 126145766.670    98113393.870    23623050.838 6  23623050.477 6  23623056.376 6
      6976.853        5426.449  
 11  5 30 16 46 45.0000000  0 13R21R12R11R22G 9G25G27G14G 4G 2G29R20
                                R13                                 
 104966280.416    81640458.916    19615458.393 8  19615457.671 8  19615459.244 7
      1632.302        1269.557  
 104980637.238    81651626.293    19652595.833 8  19652595.773 8  19652600.257 7
      4938.143        3840.778  
 107381880.081    83519262.231    20095055.030 7  20095054.875 7  20095059.500 6
       691.098         537.508  
 107532440.283    83636360.508    20144449.196 8  20144448.714 8  20144452.951 8
      5811.777        4520.260  
 111293862.383    86722503.1584   21178516.146 6  21178515.23343  21178519.62143
       -21.729         -16.968  
 113287993.826    88276375.5834   21557988.067 8  21557987.34446  21557994.34646
      5130.489        3997.790  
 118043419.612    91981905.0774   22462917.681 5  22462916.18841  22462920.86841
       230.623         179.691  
 117095984.538    91243638.3814   22282621.649 7  22282621.61944  22282627.29644
      2949.632        2298.385  
 119181054.502    92868369.0574   22679400.638 7  22679399.87744  22679404.13744
      2964.314        2309.870  
 121133392.178    94389682.2944   23050918.671 7  23050918.45644  23050922.24744
      5267.167        4104.244  
 123692616.384    96383876.8984   23537921.525 6  23537921.29742  23537929.25342
      6475.662        5045.940  
 123627281.059    96154573.147    23118925.338 5  23118924.517 5  23118930.485 6
     -1226.693        -954.100  
 126110871.182    98086252.951    23616516.519 6  23616515.940 6  23616521.478 6
      6981.482        5430.030  
 11  5 30 16 46 50.0000000  0 13R21R12R11R22G 9G25G27G14G 4G 2G29R20
                                R13                                 
 104958116.425    81634109.147    19613932.229 8  19613932.391 8  19613933.885 7
      1633.168        1270.244  
 104955941.247    81632418.302    19647973.204 8  19647972.587 8  19647977.210 7
      4940.375        3842.525  
 107378419.668    83516570.798    20094408.099 7  20094407.746 7  20094411.647 6
       693.117         539.082  
 107503377.782    83613756.358    20139004.195 8  20139004.116 7  20139008.656 7
      5813.393        4521.538  
 111293965.033    86722583.1424   21178536.141 7  21178535.26443  21178538.95543
       -19.041         -14.842  
 113262333.322    88256380.3904   21553105.598 8  21553104.62546  21553111.42146
      5133.853        4000.416  
 118042258.258    91981000.0884   22462695.791 5  22462696.15141  22462699.62641
       233.398         181.949  
 117081231.183    91232142.2524   22279814.335 6  22279814.21944  22279819.65844
      2951.668        2300.034  
 119166230.494    92856817.8784   22676579.406 7  22676578.78244  22676582.32144
      2965.418        2310.715  
 121107049.310    94369155.3924   23045905.897 6  23045905.04544  23045908.92944
      5270.067        4106.525  
 123660228.998    96358639.9854   23531758.286 6  23531758.04542  23531766.07442
      6479.538        5049.041  
 123633406.944    96159337.703    23120071.525 5  23120070.041 5  23120076.092 6
     -1223.417        -951.548  
 126075952.140    98059093.680    23609977.537 6  23609977.300 6  23609982.534 6
      6986.354        5433.831  
 11  5 30 16 46 55.0000000  0 13R21R12R11R22G 9G25G27G14G 4G 2G29R20
                                R13                                 
 104949948.143    81627756.048    19612405.871 8  19612406.109 8  19612407.033 7
      1634.057        1270.946  
 104931235.128    81613202.434    19643348.021 8  19643347.235 8  19643351.843 7
      4942.212        3843.942  
 107374949.939    83513872.122    20093758.289 7  20093758.029 7  20093762.299 6
       694.836         540.423  
 107474308.008    83591146.540    20133559.270 8  20133558.477 8  20133562.984 7
      5814.726        4522.568  
 111294055.879    86722653.9514   21178554.233 7  21178553.27943  21178556.18443
       -16.726         -13.059  
 113236656.437    88236372.4344   21548219.131 8  21548218.75746  21548225.30446
      5136.993        4002.861  
 118041081.263    91980082.9484   22462470.867 5  22462472.23241  22462475.75141
       236.551         184.250  
 117066471.335    91220641.0644   22277006.159 7  22277005.57344  22277010.83444
      2952.503        2300.642  
 119151400.210    92845261.8184   22673756.649 7  22673756.27844  22673760.27144
      2966.673        2311.722  
 121080692.554    94348617.6704   23040889.540 7  23040889.15244  23040893.74944
      5272.759        4108.626  
 123627823.063    96333388.6404   23525591.982 6  23525591.86543  23525598.19543
      6483.011        5051.636  
 123639513.865    96164087.518    23121213.128 5  23121212.057 5  23121217.772 6
     -1219.633        -948.597  
 126041009.650    98031916.208    23603432.999 6  23603432.857 6  23603439.000 6
      6990.791        5437.279  
 11  5 30 16 47  0.0000000  0 13R21R12R11R22G 9G25G27G14G 4G 2G29R20
                                R13                                 
 104941775.627    81621399.631    19610879.175 8  19610878.711 8  19610879.419 7
      1634.967        1271.637  
 104906519.067    81593978.837    19638720.706 8  19638720.566 8  19638725.090 7
      4944.230        3845.510  
 107371470.916    83511166.200    20093106.754 7  20093106.956 7  20093111.289 6
       696.795         541.952  
 107445231.113    83568531.180    20128111.679 8  20128111.050 8  20128115.102 7
      5816.075        4523.610  
 111294135.118    86722715.6864   21178568.001 6  21178568.16743  21178570.78143
       -14.517         -11.283  
 113210963.288    88216351.7874   21543329.590 8  21543329.37846  21543335.68546
      5140.255        4005.387  
 118039888.797    91979153.7584   22462243.369 5  22462244.28241  22462249.39841
       240.257         187.184  
 117051705.113    91209134.9044   22274195.547 7  22274195.47544  22274200.86244
      2953.837        2301.687  
 119136563.902    92833701.0424   22670934.440 7  22670933.43344  22670937.43344
      2967.636        2312.449  
 121054322.063    94328069.2274   23035871.591 7  23035871.48944  23035875.57644
      5275.582        4110.860  
 123595398.756    96308122.9714   23519420.721 6  23519421.55843  23519428.74143
      6486.755        5054.653  
 123645601.991    96168822.725    23122351.435 5  23122351.112 5  23122356.677 6
     -1215.981        -945.772  
 126006044.083    98004720.780    23596886.392 6  23596885.337 6  23596891.640 6
      6995.555        5440.991  
 11  5 30 16 47  5.0000000  0 13R21R12R11R22G 9G25G27G14G 4G 2G29R20
                                R13                                 
 104933598.859    81615039.916    19609351.487 8  19609350.853 8  19609351.403 7
      1635.778        1272.265  
 104881792.976    81574747.436    19634092.374 8  19634092.048 8  19634095.791 7
      4946.210        3847.054  
 107367982.420    83508452.933    20092454.341 7  20092454.457 7  20092458.658 6
       698.797         543.516  
 107416147.130    83545910.302    20122663.042 8  20122662.534 7  20122666.442 7
      5817.597        4524.795  
 111294202.507    86722768.1664   21178580.411 6  21178580.35543  21178583.96243
       -12.311          -9.581  
 113185253.770    88196318.4044   21538437.515 8  21538437.09646  21538443.53946
      5143.542        4007.955  
 118038680.979    91978212.5904   22462014.357 6  22462013.96241  22462020.47641
       243.030         189.382  
 117036932.482    91197623.7394   22271384.881 6  22271384.82245  22271389.90544
      2955.196        2302.766  
 119121721.372    92822135.4234   22668108.878 7  22668108.94344  22668113.35144
      2969.202        2313.672  
 121027937.806    94307510.0704   23030851.891 7  23030851.04944  23030855.02944
      5278.080        4112.814  
 123562955.918    96282842.8444   23513247.739 6  23513246.96543  23513255.38243
      6490.522        5057.545  
 123651671.269    96173543.268    23123486.947 5  23123486.566 5  23123491.535 6
     -1211.868        -942.555  
 125971055.289    97977507.274    23590333.827 6  23590333.048 6  23590338.773 6
      7000.021        5444.481  
 11  5 30 16 47 10.0000000  0 13R21R12R11R22G 9G25G27G14G 4G 2G29R20
                                R13                                 
 104925418.021    81608677.043    19607822.892 8  19607822.099 8  19607822.463 7
      1636.702        1272.993  
 104857057.007    81555508.353    19629461.092 8  19629460.784 8  19629465.582 7
      4948.292        3848.683  
 107364484.775    83505732.543    20091800.090 7  20091799.891 7  20091804.430 6
       700.443         544.795  
 107387055.978    83523283.878    20117213.581 8  20117213.137 7  20117216.913 7
      5818.910        4525.821  
 111294258.175    86722811.5474   21178589.395 5  21178590.56243  21178595.02443
        -9.983          -7.809  
 113159528.052    88176272.3884   21533541.397 8  21533541.58246  21533547.99546
      5146.864        4010.552  
 118037457.715    91977259.4514   22461782.005 5  22461781.11641  22461786.03041
       245.840         191.507  
 117022153.513    91186107.6654   22268572.313 7  22268572.44745  22268577.62545
      2956.487        2303.767  
 119106872.898    92810565.1924   22665283.786 7  22665283.17944  22665287.22944
      2970.366        2314.573  
 121001539.814    94286940.1994   23025828.430 7  23025827.91444  23025831.93844
      5281.007        4115.073  
 123530494.793    96257548.4304   23507070.784 6  23507070.86343  23507077.09443
      6494.149        5060.375  
 123657721.817    96178249.229    23124616.812 5  23124617.406 5  23124622.389 6
     -1207.865        -939.462  
 125936043.352    97950275.786    23583776.771 6  23583776.046 6  23583783.281 6
      7004.835        5448.213  
 11  5 30 16 47 15.0000000  0 13R21R12R11R22G 9G25G27G14G 4G 2G29R20
                                R13                                 
 104917233.013    81602310.907    19606292.912 8  19606292.111 8  19606292.885 7
      1637.402        1273.533  
 104832311.212    81536261.625    19624828.808 8  19624828.109 8  19624833.208 7
      4950.107        3850.079  
 107360977.891    83503004.938    20091142.779 7  20091143.109 7  20091148.137 6
       702.363         546.279  
 107357957.938    83500652.055    20111762.590 8  20111762.001 8  20111765.278 7
      5820.320        4526.909  
 111294302.337    86722845.9554   21178600.252 6  21178599.20943  21178602.96343
        -7.367          -5.738  
 113133786.195    88156213.7864   21528643.098 8  21528642.96746  21528649.62846
      5150.032        4013.018  
 118036219.189    91976294.2534   22461547.482 5  22461546.08941  22461549.14841
       249.906         194.766  
 117007368.300    91174586.7194   22265759.418 6  22265759.22145  22265764.61545
      2957.488        2304.527  
 119092018.503    92798990.3224   22662456.696 7  22662456.81244  22662460.78544
      2971.564        2315.484  
 120975128.220    94266359.7444   23020802.483 7  23020802.20944  23020805.31744
      5283.805        4117.246  
 123498015.393    96232239.8564   23500890.261 6  23500890.18942  23500896.35343
      6497.478        5062.974  
 123663753.655    96182940.653    23125746.563 5  23125744.612 5  23125751.289 6
     -1204.791        -937.056  
 125901008.466    97923026.450    23577216.366 6  23577215.738 6  23577222.509 6
      7009.047        5451.479  
 11  5 30 16 47 20.0000000  0 13R21R12R11R22G 9G25G27G14G 4G 2G29R20
                                R13                                 
 104909044.244    81595941.869    19604762.285 8  19604761.735 8  19604763.078 7
      1638.170        1274.155  
 104807555.900    81517007.502    19620195.544 8  19620194.643 8  19620199.099 7
      4951.969        3851.535  
 107357462.069    83500270.405    20090486.592 7  20090485.908 7  20090490.007 6
       704.072         547.610  
 107328853.215    83478015.089    20106310.085 7  20106309.414 7  20106312.941 7
      5821.669        4527.958  
 111294335.219    86722871.5444   21178604.906 6  21178604.56843  21178609.94643
        -5.571          -4.307  
 113108028.486    88136142.8534   21523741.978 8  21523741.40446  21523747.50246
      5152.961        4015.293  
 118034965.581    91975317.5154   22461306.611 5  22461306.82541  22461311.52541
       252.030         196.424  
 116992577.094    91163061.1154   22262944.805 6  22262944.77145  22262949.73645
      2959.041        2305.743  
 119077158.470    92787411.0874   22659629.022 7  22659628.98244  22659634.12944
      2972.433        2316.182  
 120948703.345    94245768.9304   23015774.299 7  23015774.01044  23015776.83244
      5286.285        4119.183  
 123465518.061    96206917.2284   23494705.725 5  23494706.07942  23494712.32043
      6501.399        5066.048  
 123669767.038    96187617.712    23126870.181 5  23126868.817 5  23126875.265 6
     -1201.272        -934.308  
 125865950.776    97895759.367    23570646.285 6  23570649.004 6  23570655.859 6
      7013.922        5455.285  
 11  5 30 16 47 25.0000000  0 13R21R12R11R22G 9G25G27G14G 4G 2G29R20
                                R13                                 
 104900851.773    81589569.947    19603232.042 8  19603231.106 8  19603232.068 7
      1638.856        1274.669  
 104782791.359    81497746.193    19615560.188 8  19615559.176 8  19615563.359 7
      4953.753        3852.931  
 107353937.551    83497529.137    20089826.743 7  20089826.691 7  20089830.157 6
       705.841         548.981  
 107299742.136    83455373.151    20100857.550 7  20100856.557 7  20100859.848 7
      5822.653        4528.745  
 111294357.013    86722888.4784   21178610.166 6  21178608.97443  21178613.46243
        -3.714          -2.899  
 113082255.141    88116059.7314   21518838.009 8  21518836.91746  21518843.20846
      5156.344        4017.919  
 118033697.092    91974329.0624   22461063.486 5  22461064.75641  22461072.41941
       255.172         198.844  
 116977780.199    91151531.0474   22260129.532 6  22260128.68645  22260133.94145
      2959.832        2306.364  
 119062293.040    92775827.6334   22656800.401 7  22656800.10744  22656804.61144
      2973.617        2317.091  
 120922265.388    94225167.9474   23010743.911 7  23010743.59745  23010746.06245
      5288.812        4121.162  
 123433002.993    96181580.8474   23488518.385 5  23488518.15442  23488525.00842
      6504.395        5068.334  
 123675762.322    96192280.684    23127990.769 5  23127991.215 5  23127996.264 6
     -1197.465        -931.344  
 125830870.723    97868474.864    23564082.207 6  23564081.088 6  23564086.313 6
      7018.181        5458.547  
 11  5 30 16 47 30.0000000  0 13R21R12R11R22G 9G25G27G14G 4G 2G29R20
                                R13                                 
 104892656.226    81583195.631    19601699.209 8  19601699.355 8  19601700.245 7
      1639.501        1275.175  
 104758018.109    81478478.100    19610920.327 8  19610920.179 8  19610926.235 7
      4955.524        3854.279  
 107350404.908    83494781.516    20089165.552 7  20089165.262 7  20089169.496 6
       707.401         550.213  
 107270625.223    83432726.623    20095402.244 8  20095401.594 7  20095405.284 7
      5824.011        4529.792  
 111294368.173    86722897.1344   21178612.316 6  21178611.39143  21178615.32543
        -1.212          -0.976  
 113056466.778    88095964.8904   21513929.786 8  21513929.04846  21513936.65146
      5159.161        4020.125  
 118032414.504    91973329.6254   22460819.685 4  22460820.67141  22460828.84241
       257.798         200.872  
 116962978.103    91139996.9334   22257312.886 7  22257312.17445  22257317.23345
      2961.104        2307.358  
 119047422.672    92764240.3284   22653970.249 7  22653970.67744  22653974.83044
      2974.318        2317.647  
 120895814.959    94204557.2204   23005710.254 7  23005709.74244  23005712.64545
      5291.395        4123.171  
 123400470.707    96156230.9944   23482327.948 6  23482327.76942  23482334.62242
      6508.283        5071.395  
 123681739.968    96196929.965    23129107.766 5  23129109.096 5  23129113.958 6
     -1193.828        -928.533  
 125795768.625    97841173.252    23557507.128 6  23557506.670 6  23557513.121 6
      7022.620        5462.021  
 11  5 30 16 47 35.0000000  0 12R21R12R11R22G 9G25G14G 4G 2G29R20R13
 104884457.726    81576819.026    19600167.723 8  19600167.228 8  19600168.198 7
      1639.992        1275.557  
 104733236.238    81459203.310    19606281.879 8  19606281.073 8  19606286.206 7
      4957.330        3855.700  
 107346864.200    83492027.650    20088502.449 7  20088502.361 7  20088507.334 6
       708.845         551.341  
 107241502.434    83410075.572    20089946.557 7  20089945.885 7  20089949.726 7
      5825.231        4530.732  
 111294368.784    86722897.5864   21178613.252 5  21178611.32543  21178615.93243
         1.038           0.833  
 113030663.318    88075858.3004   21509019.784 8  21509019.10046  21509026.28246
      5162.249        4022.538  
 116948170.783    91128458.7764   22254495.727 7  22254495.15045  22254499.39445
      2962.054        2308.085  
 119032547.466    92752649.2874   22651139.875 7  22651139.83144  22651144.44344
      2975.088        2318.272  
 120869352.035    94183936.7804   23000675.098 7  23000673.99044  23000676.93144
      5293.660        4124.913  
 123367921.327    96130867.8734   23476134.680 6  23476134.65742  23476141.35542
      6511.766        5074.111  
 123687699.760    96201565.363    23130222.164 5  23130222.590 5  23130227.974 6
     -1190.416        -925.887  
 125760644.714    97813854.662    23550929.467 6  23550929.151 6  23550935.198 6
      7026.587        5465.133  
 11  5 30 16 47 40.0000000  0 13R21R12R11R22G 9G25G27G14G 4G 2G29R20
                                R13                                 
 104876256.203    81570440.064    19598634.905 8  19598634.556 8  19598635.562 7
      1640.559        1275.989  
 104708445.861    81439921.918    19601641.310 8  19601640.833 8  19601646.203 7
      4958.870        3856.892  
 107343315.443    83489267.497    20087838.902 7  20087838.426 7  20087843.384 6
       710.589         552.674  
 107212373.962    83387420.094    20084490.167 8  20084489.183 8  20084493.188 7
      5826.167        4531.449  
 111294358.991    86722889.9544   21178611.268 6  21178610.01743  21178614.46743
         2.895           2.242  
 113004844.985    88055740.1194   21504106.653 8  21504106.06546  21504112.83546
      5164.961        4024.640  
 118029783.516                    22460326.553 4                                
       263.399                  
 116933358.440    91116916.6724   22251677.337 7  22251676.27544  22251680.49645
      2962.975        2308.807  
 119017667.510    92741054.5074   22648307.080 7  22648307.43744  22648313.04944
      2976.252        2319.145  
 120842876.854    94163306.7704   22995635.825 7  22995635.46644  22995639.06144
      5296.303        4126.982  
 123335355.005    96105491.5244   23469937.913 6  23469938.19243  23469943.91143
      6514.842        5076.474  
 123693642.044    96206187.125    23131334.548 5  23131333.470 5  23131339.849 6
     -1186.915        -923.155  
 125725499.044    97786519.132    23544349.213 6  23544347.569 6  23544352.249 6
      7031.420        5468.877  
 11  5 30 16 47 45.0000000  0 13R21R12R11R22G 9G25G27G14G 4G 2G29R20
                                R13                                 
 104868052.149    81564059.118    19597101.743 8  19597101.314 8  19597102.056 7
      1641.184        1276.466  
 104683647.286    81420634.147    19596998.008 8  19596997.920 8  19597003.412 7
      4960.506        3858.165  
 107339758.959    83486501.335    20087173.365 7  20087172.970 7  20087177.661 6
       712.094         553.855  
 107183240.137    83364760.435    20079032.098 8  20079031.631 8  20079035.191 7
      5827.298        4532.346  
 111294339.014    86722874.4394   21178607.292 6  21178606.02143  21178610.72643
         5.110           3.966  
 112979012.036    88035610.5674   21499190.391 8  21499190.19646  21499197.11246
      5168.064        4027.052  
 118028458.534                    22460076.037 4                                
       266.386                  
 116918541.386    91105370.9104   22248857.994 7  22248857.30945  22248860.96745
      2964.010        2309.640  
 119002783.207    92729456.3434   22645476.275 7  22645475.47544  22645481.03544
      2977.215        2319.906  
 120816389.703    94142667.4294   22990594.511 7  22990594.63544  22990598.60344
      5298.822        4128.970  
 123302772.053    96080102.2204   23463738.554 6  23463737.77343  23463743.68643
      6518.063        5079.044  
 123699567.171    96210795.530    23132441.944 5  23132442.524 5  23132448.173 6
     -1183.205        -920.257  
 125690332.027    97759167.028    23537762.463 6  23537761.666 6  23537767.874 6
      7035.491        5472.034  
 11  5 30 16 47 50.0000000  0 13R21R12R11R22G 9G25G27G14G 4G 2G29R20
                                R13                                 
 104859845.643    81557676.282    19595568.774 8  19595568.106 8  19595569.446 7
      1641.491        1276.723  
 104658840.689    81401340.105    19592354.975 8  19592354.189 8  19592359.006 7
      4962.097        3859.408  
 107336195.016    83483729.351    20086506.289 7  20086506.197 7  20086510.436 6
       713.494         554.934  
 107154101.153    83342096.794    20073573.566 8  20073572.668 7  20073576.797 7
      5828.324        4533.132  
 111294309.113    86722851.1484   21178600.051 6  21178600.05543  21178605.19943
         6.745           5.253  
 112953164.656    88015469.7514   21494272.213 8  21494271.72046  21494278.46746
      5170.931        4029.316  
 118027120.072                    22459820.184 4                                
       269.134                  
 116903719.749    91093821.5644   22246037.041 7  22246036.65445  22246040.44945
      2964.466        2309.975  
 118987894.608    92717854.8304   22642643.350 7  22642643.00544  22642648.49245
      2978.345        2320.797  
 120789890.689    94122018.8534   22985552.236 6  22985551.98444  22985556.08744
      5300.991        4130.675  
 123270172.551    96054700.0344   23457535.059 6  23457534.49743  23457540.49543
      6521.421        5081.631  
 123705475.050    96215390.529    23133546.743 5  23133547.568 5  23133552.993 6
     -1179.412        -917.317  
 125655143.620    97731798.279    23531173.729 6  23531173.037 6  23531178.676 6
      7039.727        5475.333  
 11  5 30 16 47 55.0000000  0 12R21R12R11R22G 9G25G14G 4G 2G29R20R13
 104851636.655    81551291.493    19594034.800 8  19594034.367 8  19594035.059 7
      1641.937        1277.069  
 104634026.161    81382039.933    19587709.067 8  19587708.859 8  19587714.072 7
      4963.677        3860.644  
 107332623.554    83480951.562    20085837.131 7  20085837.540 7  20085841.642 6
       715.057         556.153  
 107124957.037    83319429.133    20068113.695 8  20068113.045 8  20068117.501 8
      5829.318        4533.922  
 111294269.290    86722820.1014   21178593.335 6  21178592.25843  21178597.54643
         8.680           6.770  
 112927302.956    87995317.7674   21489351.247 8  21489350.46846  21489357.20146
      5173.675        4031.430  
 116888893.570    91082268.7074   22243215.440 7  22243215.36445  22243219.19145
      2965.800        2311.021  
 118973001.880    92706250.1124   22639809.527 7  22639809.34744  22639814.11144
      2978.748        2321.110  
 120763379.931    94101361.1184   22980507.742 7  22980507.25944  22980511.04744
      5303.207        4132.355  
 123237556.580    96029285.0114   23451328.452 6  23451327.94443  23451333.85343
      6524.836        5084.276  
 123711365.882    96219972.282    23134648.672 5  23134648.569 5  23134654.173 6
     -1176.417        -914.980  
 125619934.211    97704413.189    23524576.242 6  23524577.653 6  23524584.604 6
      7043.758        5478.488  
 11  5 30 16 48  0.0000000  0 13R21R12R11R22G 9G25G27G14G 4G 2G29R20
                                R13                                 
 104843425.534    81544905.070    19592500.173 8  19592499.664 8  19592500.516 7
      1642.496        1277.494  
 104609204.000    81362733.810    19583062.701 8  19583061.901 8  19583067.558 7
      4965.293        3861.890  
 107329044.990    83478168.241    20085167.574 7  20085167.878 7  20085172.351 6
       716.445         557.240  
 107095808.159    83296757.798    20062653.648 8  20062652.796 7  20062657.015 7
      5830.307        4534.675  
 111294219.844    86722781.5304   21178584.232 5  21178582.58643  21178588.46443
        11.130           8.684  
 112901427.098    87975154.7614   21484427.197 8  21484426.30646  21484433.01046
      5176.602        4033.714  
 118024429.934                    22459299.937 4                                
       275.346                  
 116874063.169    91070712.5674   22240394.393 7  22240393.84245  22240397.58145
      2966.567        2311.595  
 118958105.206    92694642.3104   22636974.868 7  22636974.74644  22636978.74744
      2979.756        2321.881  
 120736857.624    94080694.4114   22975461.418 7  22975460.53745  22975464.02045
      5305.649        4134.288  
 123204924.438    96003857.3894   23445117.115 6  23445117.92243  23445124.10843
      6528.049        5086.794  
 123717239.856    96224540.916    23135744.938 5  23135745.821 5  23135752.932 6
     -1172.961        -912.309  
 125584703.771    97677011.743    23517979.730 6  23517979.366 6  23517987.608 6
      7048.598        5482.245  
 11  5 30 16 48  5.0000000  0 13R21R12R11R22G 9G25G27G14G 4G 2G29R20
                                R13                                 
 104835212.715    81538517.323    19590965.571 8  19590965.202 8  19590966.122 7
      1642.694        1277.658  
 104584374.727    81343422.153    19578414.679 8  19578414.231 8  19578419.842 8
      4966.563        3862.875  
 107325459.699    83475379.670    20084497.675 7  20084496.812 7  20084501.695 6
       717.806         558.286  
 107066654.890    83274083.040    20057192.057 8  20057191.217 7  20057196.049 7
      5830.995        4535.219  
 111294161.126    86722735.7724   21178574.946 6  21178572.30143  21178577.05943
        12.639           9.856  
 112875537.619    87954981.1464   21479499.921 8  21479499.47546  21479506.19146
      5179.236        4035.770  
 118023046.139                    22459042.003 3                                
       277.135                  
 116859228.968    91059153.4484   22237571.858 7  22237571.17045  22237574.93345
      2967.168        2312.070  
 118943205.133    92683031.8674   22634138.813 7  22634139.20844  22634143.24644
      2980.356        2322.332  
 120710324.361    94060019.1404   22970411.701 7  22970411.27645  22970415.28945
      5307.771        4135.930  
 123172276.635    95978417.5184   23438904.423 6  23438904.56143  23438911.42243
      6531.106        5089.158  
 123723097.552    96229096.889    23136844.240 5  23136842.883 5  23136848.428 6
     -1170.019        -910.009  
 125549453.005    97649594.497    23511378.143 6  23511378.810 6  23511385.938 6
      7052.248        5485.084  
 11  5 30 16 48 10.0000000  0 13R21R12R11R22G 9G25G27G14G 4G 2G29R20
                                R13                                 
 104826998.338    81532128.364    19589430.211 8  19589429.913 8  19589431.456 7
      1643.029        1277.916  
 104559538.485    81324105.078    19573765.153 8  19573764.739 8  19573770.340 7
      4968.001        3864.003  
 107321867.724    83472585.912    20083825.031 7  20083825.066 7  20083829.308 6
       719.239         559.415  
 107037497.504    83251405.079    20051728.934 8  20051728.752 7  20051733.860 7
      5832.021        4536.028  
 111294093.381    86722682.9554   21178561.265 6  21178559.64143  21178564.37543
        14.631          11.391  
 112849634.720    87934797.0784   21474570.754 8  21474570.16346  21474576.94746
      5182.007        4037.939  
 118021655.110                    22458777.391 3                                
       279.254                  
 116844391.271    91047591.5924   22234748.071 7  22234747.45545  22234751.48845
      2967.925        2312.666  
 118928301.732    92671418.8194   22631303.459 7  22631303.18644  22631307.76044
      2980.840        2322.757  
 120683780.295    94039335.4614   22965360.131 7  22965359.62345  22965364.10745
      5310.151        4137.773  
 123139613.366    95952965.6284   23432688.495 6  23432688.82743  23432695.98343
      6534.409        5091.697  
 123728939.057    96233640.267    23137933.583 5  23137934.685 5  23137940.546 6
     -1166.494        -907.278  
 125514182.106    97622161.588    23504774.195 6  23504774.221 6  23504780.489 6
      7056.269        5488.230  
 11  5 30 16 48 15.0000000  0 13R21R12R11R22G 9G25G27G14G 4G 2G29R20
                                R13                                 
 104818782.406    81525738.199    19587895.043 8  19587894.093 8  19587896.165 7
      1643.414        1278.207  
 104534695.227    81304782.548    19569114.863 8  19569114.047 8  19569119.313 8
      4969.239        3864.963  
 107318269.234    83469787.087    20083151.660 7  20083151.843 7  20083156.069 6
       720.308         560.232  
 107008335.922    83228723.863    20046266.679 8  20046266.012 7  20046270.947 8
      5832.684        4536.535  
 111294016.579    86722623.0944   21178545.617 6  21178544.80243  21178550.00843
        16.397          12.812  
 112823718.400    87914602.5454   21469639.124 8  21469638.53346  21469645.11246
      5184.520        4039.889  
 118020251.394                    22458509.819 4                                
       280.864                  
 116829549.847    91036026.8514   22231923.348 7  22231923.00145  22231927.13245
      2968.518        2313.128  
 118913395.106    92659803.2574   22628467.874 7  22628467.03344  22628470.68844
      2981.740        2323.432  
 120657225.405    94018643.3474   22960307.892 7  22960306.82144  22960310.53045
      5312.039        4139.237  
 123106934.509    95927501.6144   23426469.608 6  23426470.35243  23426477.12643
      6537.283        5093.991  
 123734764.311    96238171.035    23139024.766 5  23139023.278 5  23139031.051 6
     -1163.540        -904.961  
 125478890.893    97594712.852    23498165.292 6  23498165.193 6  23498171.412 6
      7060.471        5491.477  
 11  5 30 16 48 20.0000000  0 13R21R12R11R22G 9G25G27G14G 4G 2G29R20
                                R13                                 
 104810565.298    81519347.116    19586359.294 8  19586358.927 8  19586361.151 7
      1643.476        1278.246  
 104509845.387    81285454.894    19564462.367 8  19564462.026 8  19564467.437 7
      4970.536        3865.973  
 107314664.550    83466983.439    20082477.626 7  20082477.176 7  20082481.544 6
       721.409         561.117  
 106979170.619    83206039.756    20040803.118 8  20040802.429 7  20040807.324 8
      5833.376        4537.076  
 111293931.055    86722556.4484   21178528.433 5  21178528.16243  21178533.36843
        17.753          13.798  
 112797788.942    87894397.7704   21464704.962 8  21464704.37346  21464711.01046
      5187.033        4041.833  
 118018835.068                    22458241.617 4                                
       284.390                  
 116814705.215    91024459.5924   22229099.030 7  22229098.32945  22229102.52545
      2969.206        2313.675  
 118898485.573    92648185.4344   22625630.758 7  22625629.96044  22625633.57144
      2981.760        2323.452  
 120630660.107    93997943.1184   22955252.215 7  22955251.45844  22955254.86545
      5313.988        4140.764  
 123074240.578    95902025.8424   23420249.457 5  23420249.00043  23420255.49443
      6540.347        5096.366  
 123740573.750    96242689.461    23140111.633 5  23140110.263 5  23140117.679 6
     -1160.376        -902.505  
 125443579.902    97567248.770    23491553.386 6  23491552.851 6  23491559.677 6
      7063.969        5494.189  
 11  5 30 16 48 25.0000000  0 13R21R12R11R22G 9G25G27G14G 4G 2G29R20
                                R13                                 
 104802347.366    81512955.401    19584824.059 8  19584823.748 8  19584825.692 7
      1643.546        1278.311  
 104484989.281    81266122.376    19559808.818 8  19559808.497 8  19559813.899 7
      4971.733        3866.893  
 107311053.932    83464175.158    20081801.056 7  20081801.304 7  20081805.423 6
       722.656         562.071  
 106950001.853    83183352.944    20035338.636 7  20035337.829 7  20035343.176 8
      5834.021        4537.560  
 111293837.123    86722483.2704   21178509.880 6  21178509.45643  21178515.17943
        19.682          15.373  
 112771846.702    87874183.0464   21459768.887 8  21459768.20046  21459774.31646
      5189.785        4043.983  
 118017406.726                    22457968.512 5                                
       286.758                  
 116799857.601    91012890.0224   22226273.267 7  22226272.84345  22226276.70745
      2969.748        2314.072  
 118883573.350    92636565.5414   22622791.563 7  22622791.83144  22622796.70044
      2982.640        2324.124  
 120604084.618    93977234.9574   22950194.679 7  22950194.41344  22950197.87044
      5316.207        4142.489  
 123041531.811    95876538.5034   23414027.032 6  23414025.42643  23414031.12243
      6543.125        5098.498  
 123746367.554    96247195.736    23141195.121 5  23141195.059 5  23141201.678 6
     -1157.445        -900.245  
 125408249.373    97539769.481    23484937.900 6  23484936.471 6  23484943.395 6
      7068.015        5497.342  
 11  5 30 16 48 30.0000000  0 13R21R12R11R22G 9G25G27G14G 4G 2G29R20
                                R13                                 
 104794128.863    81506563.229    19583288.342 8  19583287.436 8  19583289.011 7
      1643.729        1278.444  
 104460127.367    81246785.307    19555155.114 8  19555154.469 8  19555160.017 8
      4972.971        3867.859  
 107307437.785    83461362.586    20081125.142 8  20081125.035 7  20081128.674 6
       723.613         562.800  
 106920830.054    83160663.740    20029873.191 7  20029872.921 7  20029877.452 7
      5834.578        4538.006  
 111293735.201    86722403.8244   21178490.589 6  21178490.13443  21178496.10843
        21.147          16.498  
 112745892.081    87853958.6724   21454830.275 8  21454829.40746  21454835.48646
      5192.105        4045.781  
 118015966.601                    22457693.563 5                                
       289.028                  
 116785007.427    91001318.4404   22223447.578 7  22223447.08145  22223450.75645
      2970.475        2314.668  
 118868658.900    92624943.9054   22619952.281 6  22619952.78344  22619958.47944
      2982.725        2324.171  
 120577499.431    93956519.2254   22945136.050 7  22945135.64344  22945138.49844
      5317.964        4143.891  
 123008808.564    95851039.9064   23407798.789 6  23407799.02843  23407803.62643
      6546.166        5100.888  
 123752146.015    96251690.089    23142275.949 5  23142275.969 5  23142281.424 6
     -1154.001        -897.589  
 125372899.657    97512275.270    23478318.078 6  23478316.864 6  23478324.184 6
      7071.817        5500.303  
 11  5 30 16 48 35.0000000  0 13R21R12R11R22G 9G25G27G14G 4G 2G29R20
                                R13                                 
 104785909.790    81500170.609    19581751.685 8  19581751.603 8  19581752.929 7
      1643.857        1278.566  
 104435259.534    81227443.654    19550499.282 8  19550499.252 8  19550504.858 7
      4974.042        3868.715  
 107303816.098    83458545.726    20080447.548 8  20080447.456 7  20080451.098 6
       724.890         563.796  
 106891655.282    83137972.271    20024407.978 7  20024407.614 7  20024411.698 7
      5835.256        4538.537  
 111293625.177    86722318.0614   21178471.450 6  21178469.74543  21178475.71543
        23.006          17.939  
 112719925.093    87833724.6494   21449889.005 8  21449888.36246  21449894.07646
      5194.534        4047.688  
 118014514.939                    22457419.359 4                                
       291.105                  
 116770154.691    90989744.8804   22220621.833 7  22220620.66045  22220624.40345
      2970.691        2314.828  
 118853742.265    92613320.5524   22617113.836 7  22617113.91044  22617120.41144
      2983.641        2324.920  
 120550904.518    93935795.9284   22940074.867 7  22940074.88744  22940077.29644
      5319.973        4145.416  
 122976070.991    95825530.1184   23401570.114 6  23401569.57643  23401573.89943
      6548.941        5103.077  
 123757909.363    96256172.678    23143352.391 5  23143352.626 5  23143359.182 6
     -1151.392        -895.524  
 125337530.996    97484766.317    23471693.203 6  23471693.238 6  23471700.696 6
      7075.724        5503.333  
 11  5 30 16 48 40.0000000  0 13R21R12R11R22G 9G25G27G14G 4G 2G29R20
                                R13                                 
 104777690.152    81493777.558    19580216.304 8  19580215.723 8  19580217.188 7
      1644.066        1278.720  
 104410385.943    81208097.522    19545842.866 8  19545842.733 8  19545848.397 7
      4975.257        3869.642  
 107300188.978    83455724.628    20079768.454 7  20079768.227 7  20079772.176 6
       726.000         564.655  
 106862477.413    83115278.379    20018941.945 7  20018941.649 7  20018946.009 8
      5835.863        4539.004  
 111293507.077    86722226.0144   21178449.087 6  21178447.91444  21178452.91343
        24.365          18.988  
 112693945.696    87813480.9824   21444945.449 8  21444944.55746  21444950.34646
      5197.037        4049.641  
 118013051.552                    22457139.308 4                                
       293.785                  
 116755299.426    90978169.3404   22217794.973 7  22217793.77545  22217797.47645
      2971.236        2315.268  
 118838823.355    92601695.4354   22614274.191 7  22614275.09244  22614281.57144
      2984.061        2325.250  
 120524299.903    93915065.0534   22935012.415 7  22935012.48145  22935014.35345
      5321.843        4146.871  
 122943318.933    95800009.0434   23395338.538 6  23395337.52943  23395341.25543
      6551.775        5105.253  
 123763657.325    96260643.289    23144426.672 5  23144426.965 5  23144435.115 6
     -1147.896        -892.804  
 125302143.152    97457242.434    23465067.532 6  23465067.356 6  23465073.540 6
      7079.358        5506.161  
 11  5 30 16 48 45.0000000  0 13R21R12R11R22G 9G25G27G14G 4G 2G29R20
                                R13                                 
 104769470.207    81487384.265    19578679.956 8  19578679.869 8  19578680.712 7
      1643.998        1278.665  
 104385506.728    81188747.026    19541186.131 8  19541185.938 8  19541190.764 7
      4976.429        3870.551  
 107296556.454    83452899.352    20079088.976 7  20079088.463 7  20079092.355 6
       727.147         565.552  
 106833296.742    83092582.316    20013475.535 7  20013474.572 7  20013479.411 7
      5836.458        4539.448  
 111293381.184    86722127.9054   21178425.749 6  21178424.00644  21178428.40443
        26.111          20.352  
 112667954.146    87793227.8154   21439999.294 8  21439998.28646  21440004.27146
      5199.505        4051.546  
 118011587.570                    22456859.170 3                                
       295.812                  
 116740441.829    90966591.9964   22214966.733 7  22214966.38945  22214970.32845
      2971.882        2315.762  
 118823902.432    92590068.7524   22611434.718 7  22611435.49744  22611442.19144
      2984.468        2325.524  
 120497685.788    93894326.7994   22929948.040 7  22929948.16045  22929949.88645
      5323.758        4148.375  
 122910552.790    95774476.9924   23389102.585 6  23389102.82843  23389106.24643
      6554.755        5107.598  
 123769390.398    96265102.332    23145499.378 5  23145499.356 5  23145506.403 6
     -1145.648        -891.077  
 125266736.472    97429703.912    23458435.412 6  23458435.693 6  23458442.867 6
      7083.329        5509.256  
 11  5 30 16 48 50.0000000  0 13R21R12R11R22G 9G25G27G14G 4G 2G29R20
                                R13                                 
 104761250.262    81480990.969    19577144.044 8  19577143.534 8  19577144.226 7
      1643.882        1278.570  
 104360622.250    81169392.435    19536528.227 8  19536527.677 8  19536531.997 7
      4977.334        3871.241  
 107292918.961    83450070.171    20078408.191 7  20078407.741 7  20078412.346 6
       727.962         566.191  
 106804113.656    83069884.370    20008008.693 7  20008007.520 7  20008012.202 8
      5836.852        4539.767  
 111293247.679    86722023.8744   21178400.991 7  21178399.24943  21178403.08643
        27.417          21.324  
 112641950.761    87772965.4414   21435050.833 8  21435050.01346  21435056.30646
      5201.848        4053.381  
 118010101.383                    22456578.964 4                                
       298.244                  
 116725582.198    90955013.0614   22212139.596 7  22212138.85345  22212142.54445
      2972.011        2315.831  
 118808979.916    92578440.7924   22608595.836 7  22608595.92244  22608602.24944
      2984.716        2325.758  
 120471062.539    93873581.3994   22924882.230 7  22924881.77244  22924883.23144
      5325.438        4149.677  
 122877772.751    95748934.1254   23382865.239 6  23382864.50343  23382868.17943
      6557.398        5109.638  
 123775108.750    96269549.928    23146568.150 5  23146568.879 5  23146575.504 6
     -1142.336        -888.482  
 125231311.161    97402150.896    23451802.242 6  23451801.609 6  23451808.687 6
      7086.766        5511.896  
 11  5 30 16 48 55.0000000  0 13R21R12R11R22G 9G25G27G14G 4G 2G29R20
                                R13                                 
 104753030.611    81474597.908    19575607.487 8  19575607.093 8  19575607.993 7
      1644.014        1278.672  
 104335732.907    81150034.055    19531869.111 8  19531868.364 8  19531872.681 7
      4978.385        3872.078  
 107289276.808    83447237.392    20077726.382 7  20077725.959 7  20077730.407 6
       728.859         566.880  
 106774928.387    83047184.719    20002541.272 7  20002540.680 7  20002544.956 7
      5837.332        4540.138  
 111293106.957    86721914.2154   21178373.316 6  21178372.36244  21178376.52544
        28.905          22.503  
 112615935.886    87752694.1094   21430100.547 8  21430099.68946  21430105.68146
      5204.113        4055.153  
 118008604.320    91954784.1054   22456293.182 4  22456289.46441  22456296.36641
       300.806         234.440  
 116710720.885    90943432.8134   22209309.947 7  22209310.26545  22209314.51345
      2972.363        2316.125  
 118794056.021    92566811.7924   22605756.216 7  22605755.96944  22605762.19144
      2985.226        2326.161  
 120444430.488    93852829.1604   22919814.300 7  22919814.03644  22919815.58645
      5327.335        4151.197  
 122844979.246    95723380.7334   23376623.792 6  23376623.97043  23376628.11743
      6560.265        5111.917  
 123780812.771    96273986.388    23147633.834 5  23147635.736 5  23147643.337 6
     -1139.349        -886.175  
 125195867.790    97374583.848    23445163.604 6  23445163.643 6  23445170.092 6
      7090.602        5514.911  
 11  5 30 16 49  0.0000000  0 13R21R12R11R22G 9G25G27G14G 4G 2G29R20
                                R13                                 
 104744811.397    81468205.190    19574071.243 8  19574070.569 8  19574072.105 7
      1643.708        1278.441  
 104310838.726    81130671.919    19527208.503 8  19527208.204 8  19527212.325 7
      4979.225        3872.724  
 107285630.150    83444401.082    20077043.611 7  20077043.428 7  20077048.271 6
       729.815         567.625  
 106745741.180    83024483.566    19997073.411 7  19997072.991 7  19997076.951 8
      5837.637        4540.382  
 111292959.125    86721799.0244   21178345.497 6  21178344.85644  21178349.25544
        30.271          23.577  
 112589909.631    87732413.9234   21425147.417 8  21425147.06746  21425153.27846
      5206.257        4056.825  
 118007096.612    91953609.2834   22456000.578 4  22456001.57841  22456008.59641
       302.543         235.725  
 116695857.971    90931851.3204   22206482.715 7  22206481.98345  22206486.40245
      2972.509        2316.258  
 118779130.871    92555181.8054   22602915.904 7  22602915.63144  22602921.15844
      2985.287        2326.192  
 120417789.815    93832070.1774   22914744.584 7  22914744.52445  22914745.91145
      5328.857        4152.366  
 122812172.338    95697816.9184   23370380.219 6  23370380.69843  23370385.11343
      6562.765        5113.818  
 123786502.409    96278411.654    23148699.438 5  23148699.394 5  23148705.329 6
     -1136.574        -884.002  
 125160406.388    97347002.755    23438522.896 6  23438523.435 6  23438530.078 6
      7093.949        5517.540  
 11  5 30 16 49  5.0000000  0 13R21R12R11R22G 9G25G27G14G 4G 2G29R20
                                R13                                 
 104736592.819    81461812.965    19572535.115 8  19572534.501 8  19572536.236 7
      1643.598        1278.353  
 104285940.002    81111306.248    19522548.158 8  19522547.472 8  19522551.557 7
      4980.092        3873.396  
 107281979.112    83441561.381    20076359.908 7  20076359.952 7  20076365.258 6
       730.478         568.146  
 106716552.267    83001781.098    19991604.429 7  19991604.492 7  19991608.363 7
      5837.881        4540.569  
 111292804.413    86721678.4724   21178316.380 6  21178315.65744  21178319.65844
        31.356          24.442  
 112563872.179    87712125.0004   21420192.906 8  21420192.41446  21420198.40346
      5208.518        4058.588  
 118005578.304    91952426.1674   22455715.123 5  22455714.09141  22455720.24141
       304.638         237.383  
 116680993.655    90920268.7364   22203654.500 7  22203653.58845  22203657.75245
      2972.881        2316.531  
 118764204.660    92543551.0004   22600075.938 7  22600075.35844  22600080.10644
      2985.332        2326.245  
 120391140.637    93811304.5974   22909673.106 7  22909673.07544  22909674.91244
      5330.640        4153.749  
 122779352.270    95672242.8514   23364134.745 6  23364134.67743  23364139.37943
      6565.144        5115.698  
 123792178.003    96282826.010    23149760.100 5  23149760.614 5  23149766.496 6
     -1134.285        -882.247  
 125124927.091    97319407.747    23431879.676 6  23431879.028 6  23431885.992 6
      7097.345        5520.166  
 11  5 30 16 49 10.0000000  0 13R21R12R11R22G 9G25G27G14G 4G 2G29R20
                                R13                                 
 104728375.428    81455421.668    19571000.507 8  19570999.175 8  19571000.968 7
      1643.371        1278.176  
 104261037.319    81091937.498    19517886.029 8  19517885.434 8  19517889.497 7
      4981.071        3874.162  
 107278324.325    83438718.751    20075676.814 7  20075676.238 7  20075681.239 6
       731.430         568.897  
 106687362.235    82979077.757    19986137.183 7  19986136.829 7  19986140.329 7
      5838.198        4540.808  
 111292643.295    86721552.9384   21178285.712 7  21178284.91144  21178289.26244
        32.903          25.611  
 112537824.197    87691827.8664   21415236.240 8  21415235.69646  21415241.70946
      5210.747        4060.327  
 118004050.023    91951235.2794   22455424.655 5  22455424.07041  22455429.18341
       306.955         239.176  
 116666128.562    90908685.5404   22200825.411 7  22200824.85645  22200828.90545
      2973.221        2316.788  
 118749278.024    92531919.8544   22597235.577 7  22597235.15044  22597239.44344
      2985.281        2326.188  
 120364483.643    93790532.9194   22904599.567 7  22904599.90644  22904602.43244
      5332.357        4155.058  
 122746519.588    95646658.9664   23357887.360 6  23357887.07143  23357891.31843
      6567.860        5117.783  
 123797840.085    96287229.837    23150817.936 5  23150819.480 5  23150825.120 6
     -1130.893        -879.573  
 125089430.564    97291799.345    23425233.286 6  23425231.489 6  23425238.517 6
      7101.259        5523.200  
 11  5 30 16 49 15.0000000  0 13R21R12R11R22G 9G25G27G14G 4G 2G29R20
                                R13                                 
 104720159.227    81449031.287    19569464.964 8  19569464.351 8  19569465.648 7
      1643.253        1278.089  
 104236130.703    81072565.703    19513223.414 8  19513223.058 8  19513227.076 7
      4981.873        3874.790  
 107274665.838    83435873.247    20074991.957 7  20074991.681 7  20074996.492 6
       732.291         569.553  
 106658171.040    82956373.491    19980669.048 8  19980668.679 7  19980671.981 8
      5838.471        4541.034  
 111292475.871    86721422.4704   21178253.159 7  21178252.83544  21178257.27544
        34.152          26.631  
 112511765.585    87671522.4584   21410277.398 8  21410276.91246  21410282.56546
      5212.963        4062.041  
 118002511.779    91950036.6454   22455130.840 5  22455131.34041  22455136.47941
       308.377         240.283  
 116651262.621    90897101.6884   22197996.087 6  22197995.46644  22197999.79244
      2973.311        2316.865  
 118734350.923    92520288.3374   22594396.503 7  22594395.38744  22594399.31244
      2985.684        2326.507  
 120337818.800    93769755.1194   22899526.303 7  22899525.67645  22899528.82745
      5333.953        4156.342  
 122713674.339    95621065.2804   23351636.909 6  23351636.92843  23351640.76043
      6570.787        5120.118  
 123803488.496    96291623.048    23151875.683 5  23151876.565 5  23151881.961 6
     -1128.067        -877.394  
 125053916.890    97264177.604    23418580.161 6  23418580.628 6  23418588.159 6
      7104.466        5525.706  
 11  5 30 16 49 20.0000000  0 13R21R12R11R22G 9G25G27G14G 4G 2G29R20
                                R13                                 
 104711943.976    81442641.662    19567930.354 8  19567929.297 8  19567930.862 7
      1642.860        1277.781  
 104211219.900    81053190.638    19508559.523 8  19508559.388 8  19508563.708 7
      4982.540        3875.310  
 107271003.244    83433024.576    20074306.712 7  20074306.196 7  20074311.114 6
       732.841         569.998  
 106628978.423    82933668.127    19975200.523 8  19975199.810 7  19975203.280 8
      5838.543        4541.101  
 111292301.884    86721286.8344   21178219.812 7  21178219.72944  21178224.24044
        35.428          27.612  
 112485696.153    87651208.6254   21405316.421 8  21405315.80246  21405321.30746
      5214.949        4063.604  
 118000963.293    91948830.0094   22454836.161 5  22454836.71341  22454840.89441
       310.649         242.050  
 116636395.701    90885517.0834   22195165.938 7  22195165.60144  22195170.56944
      2973.556        2317.065  
 118719423.166    92508656.3034   22591555.195 7  22591554.59444  22591558.55744
      2985.621        2326.477  
 120311145.858    93748971.0064   22894450.276 7  22894450.25445  22894453.93645
      5335.297        4157.382  
 122680816.311    95595461.5854   23345383.927 6  23345383.60043  23345388.43443
      6572.604        5121.521  
 123809123.333    96296005.676    23152929.169 5  23152930.596 5  23152936.538 6
     -1125.822        -875.636  
 125018385.723    97236542.249    23411927.774 6  23411926.717 6  23411933.867 6
      7107.644        5528.174  
 11  5 30 16 49 25.0000000  0 13R21R12R11R22G 9G25G27G14G 4G 2G29R20
                                R13                                 
 104703730.123    81436253.100    19566395.623 8  19566395.028 8  19566396.033 7
      1642.633        1277.602  
 104186305.538    81033812.802    19503895.552 8  19503895.142 8  19503899.713 7
      4983.288        3875.885  
 107267337.275    83430173.261    20073619.959 7  20073620.173 7  20073625.453 6
       733.581         570.561  
 106599785.077    82910962.200    19969732.009 8  19969731.265 7  19969734.266 8
      5838.831        4541.301  
 111292121.800    86721146.4874   21178186.507 7  21178185.52244  21178190.18744
        36.836          28.709  
 112459616.516    87630886.8344   21400353.544 8  21400352.92446  21400358.56446
      5216.958        4065.160  
 117999405.121    91947615.8494   22454540.182 5  22454539.56141  22454544.93941
       312.940         243.844  
 116621528.382    90873932.1494   22192336.146 7  22192336.08144  22192341.81244
      2973.480        2317.002  
 118704495.309    92497024.2074   22588712.339 6  22588713.65444  22588717.81044
      2985.456        2326.306  
 120284465.417    93728181.0614   22889374.222 7  22889373.24045  22889377.19145
      5336.870        4158.588  
 122647946.040    95569848.3954   23339128.842 6  23339128.38543  23339133.77343
      6575.327        5123.631  
 123814744.814    96300377.936    23153980.434 5  23153979.910 5  23153988.417 6
     -1122.996        -873.422  
 124982837.728    97208893.811    23405270.042 6  23405270.184 6  23405277.104 6
      7111.466        5531.128  
 11  5 30 16 49 30.0000000  0 13R21R12R11R22G 9G25G27G14G 4G 2G29R20
                                R13                                 
 104695517.931    81429865.824    19564859.988 8  19564860.096 8  19564861.066 7
      1642.247        1277.310  
 104161387.680    81014432.239    19499230.817 8  19499230.210 8  19499234.786 7
      4983.860        3876.328  
 107263668.027    83427319.387    20072933.572 7  20072933.220 7  20072938.733 6
       734.047         570.932  
 106570591.087    82888255.753    19964262.514 8  19964262.053 7  19964265.269 8
      5838.843        4541.324  
 111291935.760    86721001.5234   21178151.265 6  21178150.25444  21178154.93144
        37.790          29.418  
 112433526.719    87610557.1094   21395388.818 8  21395388.26646  21395394.38846
      5218.968        4066.718  
 117997837.409    91946394.2424   22454242.758 5  22454241.09241  22454246.37741
       314.362         244.930  
 116606660.656    90862346.8814   22189507.027 7  22189506.89944  22189512.40144
      2973.598        2317.092  
 118689567.461    92485392.1224   22585872.410 7  22585872.52944  22585877.02644
      2985.472        2326.345  
 120257777.607    93707385.3704   22884295.686 7  22884294.89345  22884298.89045
      5338.305        4159.712  
 122615063.643    95544225.7984   23332871.110 6  23332871.11043  23332875.60243
      6577.484        5125.298  
 123820352.951    96304739.787    23155028.456 5  23155029.175 5  23155037.401 6
     -1120.465        -871.487  
 124947272.940    97181232.298    23398609.661 6  23398609.721 6  23398616.449 6
      7114.574        5533.567  
 11  5 30 16 49 35.0000000  0 13R21R12R11R22G 9G25G27G14G 4G 2G29R20
                                R13                                 
 104687307.586    81423480.000    19563326.818 8  19563325.870 8  19563326.975 7
      1642.004        1277.118  
 104136466.680    80995049.242    19494564.998 8  19494564.843 8  19494569.538 7
      4984.649        3876.944  
 107259995.598    83424463.051    20072246.314 7  20072246.167 7  20072251.446 6
       734.710         571.444  
 106541396.671    82865548.987    19958792.577 8  19958792.435 7  19958796.496 8
      5838.946        4541.399  
 111291744.026    86720852.1344   21178115.423 7  21178113.90044  21178117.99344
        39.021          30.436  
 112407427.047    87590219.7144   21390421.643 8  21390421.73446  21390428.06946
      5221.127        4068.414  
 117996260.438    91945165.4494   22453941.227 5  22453940.83241  22453946.50741
       316.051         246.291  
 116591792.764    90850761.5114   22186677.904 6  22186677.50744  22186682.97544
      2973.713        2317.167  
 118674639.887    92473760.2394   22583031.271 7  22583031.97944  22583036.74544
      2985.646        2326.487  
 120231082.688    93686584.1494   22879215.991 7  22879215.39045  22879219.21145
      5339.731        4160.823  
 122582169.388    95518593.9304   23326611.527 6  23326611.39843  23326615.56442
      6580.162        5127.380  
 123825948.403    96309091.805    23156074.821 5  23156076.125 5  23156082.735 6
     -1117.623        -869.250  
 124911691.712    97153558.007    23391946.176 6  23391946.100 6  23391953.031 6
      7117.871        5536.101  
 11  5 30 16 49 40.0000000  0 13R21R12R11R22G 9G25G27G14G 4G 2G29R20
                                R13                                 
 104679099.128    81417095.637    19561792.137 8  19561792.025 8  19561792.721 7
      1641.502        1276.739  
 104111542.549    80975663.812    19489899.078 8  19489898.903 8  19489903.978 7
      4985.117        3877.311  
 107256320.226    83421604.406    20071558.425 7  20071558.196 7  20071563.927 6
       735.401         571.976  
 106512201.864    82842841.926    19953324.067 8  19953323.312 7  19953327.660 8
      5838.892        4541.360  
 111291546.659    86720698.3144   21178076.559 6  21178076.47444  21178080.40844
        39.874          31.084  
 112381317.538    87569874.6494   21385453.844 8  21385453.35246  21385459.64346
      5222.848        4069.754  
 117994674.124    91943929.3384   22453638.773 5  22453638.47241  22453644.15441
       318.128         247.877  
 116576924.831    90839176.0974   22183849.437 7  22183848.85245  22183853.80645
      2973.517        2317.034  
 118659712.558    92462128.5614   22580192.238 7  22580192.14144  22580196.39844
      2985.571        2326.413  
 120204380.691    93665777.4104   22874134.740 6  22874134.37445  22874138.19145
      5340.978        4161.812  
 122549263.401    95492952.9024   23320349.512 6  23320349.26543  23320353.73842
      6582.229        5129.033  
 123831530.884    96313433.730    23157119.324 5  23157118.911 5  23157126.323 6
     -1115.382        -867.533  
 124876094.134    97125871.038    23385280.328 6  23385280.134 6  23385286.662 6
      7121.192        5538.707  
 11  5 30 16 49 45.0000000  0 13R21R12R11R22G 9G25G27G14G 4G 2G29R20
                                R13                                 
 104670892.955    81410713.053    19560258.262 8  19560257.668 8  19560259.437 7
      1641.010        1276.358  
 104086615.738    80956276.294    19485232.845 8  19485232.522 8  19485237.524 7
      4985.633        3877.723  
 107252642.216    83418743.710    20070870.676 7  20070870.096 7  20070875.002 6
       735.825         572.318  
 106483007.232    82820134.988    19947854.513 8  19947854.010 7  19947858.954 8
      5839.064        4541.501  
 111291343.969    86720540.3854   21178037.594 6  21178037.48944  21178042.42244
        41.300          32.206  
 112355198.645    87549522.2694   21380483.814 8  21380483.00546  21380489.43846
      5224.635        4071.136  
 117993078.925    91942686.3304   22453336.359 6  22453335.02141  22453340.25941
       319.846         249.244  
 116562057.217    90827590.9344   22181019.440 7  22181019.41944  22181024.56744
      2973.487        2316.997  
 118644785.993    92450497.4654   22577352.964 7  22577352.12244  22577356.49144
      2985.239        2326.153  
 120177672.115    93644965.5324   22869052.938 7  22869051.82045  22869055.80245
      5342.304        4162.819  
 122516346.044    95467302.9884   23314086.119 6  23314085.97843  23314090.02843
      6584.627        5130.852  
 123837100.907    96317765.949    23158161.228 5  23158162.034 5  23158168.479 6
     -1112.997        -865.675  
 124840480.582    97098171.591    23378612.814 6  23378611.266 6  23378617.837 6
      7124.237        5541.078  
 11  5 30 16 49 50.0000000  0 13R21R12R11R22G 9G25G27G14G 4G 2G29R20
                                R13                                 
 104662689.317    81404332.439    19558725.060 8  19558724.571 8  19558725.916 7
      1640.295        1275.775  
 104061686.459    80936886.861    19480566.006 8  19480565.266 8  19480570.735 7
      4986.016        3878.013  
 107248961.741    83415881.102    20070180.922 7  20070181.467 7  20070186.152 6
       736.098         572.522  
 106453812.878    82797428.282    19942385.160 8  19942384.448 7  19942389.824 8
      5838.782        4541.276  
 111291136.259    86720378.5094   21177997.958 5  21177997.97144  21178002.19344
        41.451          32.249  
 112329070.585    87529162.7454   21375511.566 8  21375510.84146  21375516.95946
      5226.409        4072.516  
 117991475.163    91941436.6464   22453031.181 5  22453030.93041  22453035.37641
       321.885         250.783  
 116547190.176    90816006.2224   22178190.844 7  22178190.35945  22178195.54545
      2973.309        2316.852  
 118629860.316    92438867.0704   22574512.102 7  22574512.00644  22574516.59944
      2985.022        2326.029  
 120150957.114    93624148.6564   22863969.435 7  22863968.42845  22863972.01745
      5343.569        4163.813  
 122483417.541    95441644.4444   23307819.866 6  23307819.39743  23307823.80543
      6586.791        5132.628  
 123842658.702    96322088.670    23159198.225 5  23159201.690 5  23159207.347 5
     -1110.615        -863.796  
 124804851.198    97070459.864    23371939.810 6  23371939.240 6  23371944.624 6
      7127.206        5543.376  
 11  5 30 16 49 55.0000000  0 13R21R12R11R22G 9G25G27G14G 4G 2G29R20
                                R13                                 
 104654488.172    81397953.778    19557192.715 8  19557191.550 8  19557193.618 7
      1640.007        1275.563  
 104036754.910    80917495.658    19475898.817 8  19475898.199 8  19475903.520 7
      4986.502        3878.398  
 107245279.062    83413016.799    20069492.238 7  20069492.137 7  20069496.354 6
       736.829         573.090  
 106424618.996    82774721.958    19936916.259 8  19936915.751 7  19936920.641 8
      5838.682        4541.197  
 111290923.682    86720212.8544   21177956.108 6  21177956.81943  21177961.39243
        43.329          33.791  
 112302933.445    87508796.1454   21370538.062 8  21370537.42446  21370543.11146
      5228.210        4073.935  
 117989862.779    91940180.2304   22452724.259 6  22452723.67041  22452729.82842
       322.995         251.680  
 116532323.775    90804422.0264   22175362.955 7  22175361.28344  22175366.77545
      2973.184        2316.784  
 118614935.768    92427237.5454   22571673.028 7  22571672.20244  22571676.25544
      2984.764        2325.814  
 120124235.851    93603326.8944   22858884.437 7  22858883.24845  22858887.05045
      5344.965        4164.884  
 122450478.050    95415977.2924   23301549.705 5  23301550.94842  23301556.79342
      6588.591        5133.978  
 123848204.436    96326402.018    23160236.461 5  23160236.980 5  23160245.452 6
     -1108.022        -861.801  
 124769206.347    97042736.098    23365265.464 6  23365264.734 6  23365270.086 6
      7130.517        5545.967  
 11  5 30 16 50  0.0000000  0 13R21R12R11R22G 9G25G27G14G 4G 2G29R20
                                R13                                 
 104646289.885    81391577.326    19555659.890 8  19555659.640 8  19555661.415 7
      1639.420        1275.103  
 104011821.219    80898102.782    19471231.179 8  19471230.451 8  19471235.814 7
      4986.952        3878.754  
 107241594.241    83410150.836    20068802.730 7  20068802.955 7  20068806.693 6
       737.272         573.455  
 106395425.724    82752016.091    19931447.444 8  19931447.300 8  19931451.932 8
      5838.557        4541.103  
 111290706.352    86720043.4864   21177916.147 6  21177914.97743  21177919.76743
        43.888          34.197  
 112276787.429    87488422.6154   21365562.740 8  21365561.97046  21365567.95646
      5230.128        4075.434  
 117988242.075    91938917.3514   22452416.298 5  22452416.00642  22452421.76742
       324.953         253.202  
 116517458.281    90792838.5004   22172532.734 7  22172532.11945  22172537.67944
      2973.001        2316.635  
 118600012.456    92415608.9864   22568832.992 7  22568832.39344  22568836.52044
      2984.650        2325.708  
 120097508.528    93582500.4144   22853798.314 7  22853797.10145  22853800.94645
      5346.149        4165.833  
 122417527.693    95390301.6954   23295280.597 5  23295280.18842  23295286.78042
      6591.282        5136.087  
 123853738.178    96330706.018    23161269.692 5  23161272.223 4  23161280.406 6
     -1106.324        -860.479  
 124733546.035    97015000.321    23358585.180 6  23358585.003 6  23358592.618 6
      7133.840        5548.526  
 11  5 30 16 50  5.0000000  0 13R21R12R11R22G 9G25G27G14G 4G 2G29R20
                                R13                                 
 104638094.409    81385203.064    19554129.452 8  19554128.964 8  19554129.230 7
      1638.964        1274.750  
 103986885.447    80878708.285    19466562.696 8  19466562.024 8  19466567.957 7
      4987.416        3879.104  
 107237907.438    83407283.257    20068112.459 7  20068112.567 6  20068117.333 6
       737.978         573.977  
 106366233.213    82729310.804    19925979.309 8  19925978.609 7  19925983.296 8
      5838.346        4540.937  
 111290484.377    86719870.4884   21177875.043 6  21177873.14843  21177877.26443
        44.662          34.836  
 112250632.600    87468042.2304   21360585.360 8  21360584.84346  21360591.09146
      5231.845        4076.759  
 117986613.055    91937647.9364   22452106.311 6  22452106.12442  22452111.19542
       326.257         254.237  
 116502593.661    90781255.6784   22169705.080 7  22169704.14445  22169708.97645
      2972.735        2316.425  
 118585090.380    92403981.4024   22565992.772 7  22565992.46844  22565996.85244
      2984.257        2325.375  
 120070775.192    93561669.2714   22848711.762 8  22848710.50545  22848713.94445
      5347.276        4166.699  
 122384566.458    95364617.6924   23289009.052 6  23289008.01042  23289014.28942
      6593.085        5137.454  
 123859259.957    96335000.716    23162307.351 5  23162306.643 5  23162312.115 6
     -1103.490        -858.262  
 124697870.349    96987252.561    23351904.560 6  23351904.411 6  23351911.858 6
      7136.811        5550.844  
 11  5 30 16 50 10.0000000  0 13R21R12R11R22G 9G25G27G14G 4G 2G29R20
                                R13                                 
 104629902.073    81378831.243    19552598.497 8  19552598.251 8  19552598.143 7
      1638.024        1274.012  
 103961947.954    80859312.463    19461894.486 8  19461894.363 8  19461899.391 7
      4987.631        3879.250  
 107234218.844    83404414.369    20067423.196 7  20067422.054 7  20067426.767 6
       737.794         573.857  
 106337041.742    82706606.311    19920510.348 8  19920509.969 7  19920514.679 8
      5838.076        4540.705  
 111290257.873    86719694.0194   21177831.321 5  21177830.55043  21177833.79043
        45.685          35.644  
 112224469.261    87447655.2144   21355606.709 8  21355606.04546  21355612.42746
      5233.486        4078.016  
 117984976.026    91936372.3154   22451794.889 5  22451793.77142  22451799.12542
       327.917         255.516  
 116487730.268    90769673.8074   22166877.167 7  22166876.42645  22166880.55145
      2972.506        2316.183  
 118570169.919    92392355.0664   22563153.335 7  22563152.85744  22563157.00344
      2983.842        2325.082  
 120044036.214    93540833.7004   22843622.702 7  22843622.03945  22843625.27545
      5348.349        4167.531  
 122351594.975    95338925.5984   23282733.477 5  23282734.05842  23282739.89442
      6595.102        5139.118  
 123864769.955    96339286.274    23163336.997 5  23163336.588 5  23163342.664 6
     -1100.781        -856.150  
 124662179.703    96959493.178    23345220.768 6  23345220.746 6  23345228.800 6
      7139.696        5553.137  
 11  5 30 16 50 15.0000000  0 13R21R12R11R22G 9G25G27G14G 4G 2G29R20
                                R13                                 
 104621713.034    81372461.988    19551068.062 8  19551067.847 8  19551067.702 7
      1637.488        1273.604  
 103937008.970    80839915.484    19457226.596 8  19457225.869 8  19457230.898 7
      4987.974        3879.536  
 107230528.699    83401544.257    20066731.713 7  20066731.356 7  20066735.969 6
       738.130         574.116  
 106307851.634    82683902.925    19915042.348 8  19915041.749 7  19915046.185 8
      5837.932        4540.628  
 111290027.177    86719514.2324   21177786.115 6  21177786.21843  21177790.17843
        47.038          36.665  
 112198297.665    87427261.7654   21350626.949 8  21350626.10746  21350632.27046
      5235.163        4079.359  
 117983331.188    91935090.6464   22451482.111 6  22451480.83942  22451485.75342
       329.699         256.901  
 116472868.343    90758093.1044   22164048.419 7  22164048.06545  22164052.42045
      2972.449        2316.204  
 118555251.346    92380730.1984   22560314.366 7  22560314.07444  22560317.99944
      2983.459        2324.786  
 120017291.791    93519993.8924   22838533.051 7  22838532.56645  22838536.08745
      5349.392        4168.363  
 122318613.157    95313225.5294   23276457.708 6  23276457.89442  23276462.80642
      6597.432        5140.851  
 123870268.440    96343562.860    23164363.686 5  23164363.469 5  23164370.862 6
     -1097.909        -853.902  
 124626474.257    96931722.284    23338534.661 6  23338534.898 6  23338541.888 6
      7142.474        5555.259  
 11  5 30 16 50 20.0000000  0 13R21R12R11R22G 9G25G27G14G 4G 2G29R20
                                R13                                 
 104613527.706    81366095.623    19549538.644 8  19549537.988 8  19549538.071 7
      1636.690        1272.987  
 103912068.900    80820517.657    19452558.001 8  19452557.266 8  19452562.097 8
      4988.151        3879.671  
 107226837.331    83398673.204    20066041.409 7  20066040.425 7  20066045.029 6
       738.405         574.311  
 106278663.166    82661200.787    19909574.449 8  19909574.120 7  19909578.131 8
      5837.515        4540.280  
 111289792.657    86719331.4804   21177740.013 5  21177740.96243  21177745.46943
        47.115          36.710  
 112172118.173    87406862.1684   21345644.437 8  21345644.01146  21345650.61646
      5236.702        4080.547  
 117981678.897    91933803.1374   22451166.885 6  22451166.18342  22451171.26142
       331.116         258.027  
 116458008.254    90746513.7864   22161221.366 7  22161220.55745  22161224.11645
      2971.743        2315.652  
 118540334.948    92369107.0304   22557475.189 7  22557475.45344  22557479.81244
      2983.239        2324.589  
 119990542.281    93499150.1114   22833442.391 7  22833442.07845  22833445.65945
      5350.374        4169.116  
 122285621.614    95287517.8274   23270179.519 6  23270179.40442  23270184.53042
      6599.278        5142.304  
 123875755.955    96347830.913    23165391.010 5  23165389.994 5  23165396.812 6
     -1096.207        -852.582  
 124590754.326    96903940.128    23331847.144 6  23331846.060 6  23331852.000 6
      7145.321        5557.438  
 11  5 30 16 50 25.0000000  0 13R21R12R11R22G 9G25G27G14G 4G 2G29R20
                                R13                                 
 104605346.034    81359732.089    19548008.786 8  19548008.489 8  19548009.560 7
      1635.890        1272.361  
 103887127.709    80801118.943    19447888.073 8  19447888.013 8  19447893.296 7
      4988.228        3879.732  
 107223144.864    83395801.269    20065350.095 7  20065349.652 7  20065354.284 6
       738.551         574.426  
 106249476.280    82638499.864    19904106.735 8  19904106.046 8  19904110.230 7
      5837.130        4539.997  
 111289554.353    86719145.7644   21177693.964 5  21177694.11543  21177700.64743
        48.078          37.541  
 112145930.711    87386456.3534   21340661.337 8  21340660.76246  21340667.24046
      5238.193        4081.719  
 117980019.098    91932509.7884   22450850.580 5  22450849.34642  22450854.51642
       332.924         259.408  
 116443149.913    90734935.8574   22158393.219 7  22158392.88345  22158397.05245
      2971.326        2315.341  
 118525420.695    92357485.5304   22554637.040 7  22554637.03944  22554641.83344
      2982.804        2324.258  
 119963787.651    93478302.3564   22828351.620 7  22828350.71845  22828354.36245
      5351.313        4169.856  
 122252620.171    95261802.4554   23263899.050 5  23263898.88242  23263904.21642
      6601.116        5143.723  
 123881232.448    96352090.396    23166416.324 5  23166414.733 5  23166419.881 6
     -1094.079        -850.945  
 124555020.027    96876146.790    23325153.642 6  23325154.298 6  23325160.994 6
      7148.164        5559.701  
 11  5 30 16 50 30.0000000  0 13R21R12R11R22G 9G25G27G14G 4G 2G29R20
                                R13                                 
 104597168.168    81353371.524    19546479.515 8  19546479.604 8  19546481.657 7
      1635.218        1271.841  
 103862185.599    80781719.520    19443220.069 8  19443219.326 8  19443223.978 8
      4988.504        3879.950  
 107219451.310    83392928.501    20064659.381 7  20064659.110 7  20064663.488 6
       738.739         574.597  
 106220291.311    82615800.433    19898639.111 8  19898638.727 8  19898642.718 7
      5836.879        4539.789  
 111289312.173    86718957.0904   21177649.897 5  21177648.31143  21177654.34443
        48.993          38.188  
 112119735.515    87366044.5004   21335676.870 8  21335675.90446  21335682.50346
      5239.847        4083.000  
 117978352.137    91931210.8294   22450533.760 6  22450533.15142  22450537.74142
       334.395         260.605  
 116428293.573    90723359.4864   22155566.278 7  22155565.69945  22155570.16545
      2970.999        2315.078  
 118510508.748    92345865.8454   22551799.499 7  22551799.19644  22551804.16644
      2981.944        2323.552  
 119937028.076    93457450.7484   22823259.258 7  22823258.49645  22823262.13845
      5352.228        4170.560  
 122219609.053    95236079.5654   23257618.650 6  23257617.65442  23257621.84942
      6603.285        5145.410  
 123886697.982    96356341.367    23167436.690 5  23167436.461 5  23167441.606 6
     -1092.634        -849.821  
 124519271.438    96848342.336    23318457.635 6  23318458.510 6  23318466.702 6
      7151.091        5561.975  
 11  5 30 16 50 35.0000000  0 13R21R12R11R22G 9G25G27G14G 4G 2G29R20
                                R13                                 
 104588994.586    81347014.305    19544952.861 8  19544952.360 8  19544953.936 7
      1634.304        1271.132  
 103837243.001    80762319.729    19438550.323 8  19438549.771 8  19438555.045 7
      4988.505        3879.941  
 107215757.107    83390055.202    20063967.930 7  20063967.594 7  20063972.429 6
       739.039         574.785  
 106191108.495    82593102.708    19893172.572 8  19893172.044 8  19893175.386 7
      5836.324        4539.364  
 111289066.764    86718765.8054   21177601.759 5  21177601.52443  21177607.93443
        49.398          38.483  
 112093532.993    87345626.9514   21330690.581 8  21330689.66246  21330696.21246
      5241.295        4084.136  
 117976678.199    91929906.4344   22450214.218 6  22450214.63642  22450219.89342
       335.431         261.403  
 116413439.527    90711784.8924   22152739.787 7  22152738.79445  22152743.23745
      2970.947        2315.032  
 118495599.704    92334248.3994   22548961.388 7  22548961.73844  22548966.76944
      2981.315        2323.090  
 119910264.054    93436595.6714   22818165.897 7  22818165.40645  22818168.71945
      5353.320        4171.453  
 122186588.786    95210349.4894   23251333.622 5  23251333.55642  23251338.69542
      6604.636        5146.479  
 123892152.846    96360584.019    23168457.556 5  23168456.121 5  23168462.288 6
     -1089.876        -847.691  
 124483509.168    96820527.248    23311761.275 6  23311761.433 6  23311769.881 6
      7153.782        5564.034  
 11  5 30 16 50 40.0000000  0 13R21R12R11R22G 9G25G27G14G 4G 2G29R20
                                R13                                 
 104580825.309    81340660.434    19543426.497 8  19543426.186 8  19543428.137 7
      1633.457        1270.462  
 103812299.996    80742919.613    19433880.594 8  19433880.212 8  19433885.699 8
      4988.627        3880.042  
 107212062.520    83387181.649    20063275.974 7  20063276.335 7  20063281.481 6
       738.853         574.646  
 106161928.223    82570406.947    19887706.272 8  19887705.949 8  19887708.860 7
      5835.768        4538.931  
 111288818.197    86718572.0714   21177556.039 5  21177554.92243  21177560.60943
        50.296          39.245  
 112067323.228    87325203.7694   21325702.226 8  21325701.56746  21325708.27346
      5242.680        4085.216  
 117974997.449    91928596.7854   22449893.714 5  22449894.50942  22449900.08342
       337.011         262.603  
 116398588.010    90700212.2734   22149913.130 7  22149912.92745  22149917.09845
      2970.187        2314.423  
 118480693.419    92322633.1154   22546124.441 7  22546124.95844  22546130.56744
      2980.729        2322.650  
 119883495.680    93415737.1974   22813072.040 7  22813071.61645  22813074.39945
      5354.071        4172.016  
 122153559.291    95184612.2134   23245048.506 6  23245047.96242  23245052.78942
      6606.647        5148.038  
 123897597.358    96364818.645    23169474.102 5  23169474.569 5  23169480.822 6
     -1087.729        -846.017  
 124447733.170    96792701.479    23305060.692 6  23305060.810 6  23305069.258 6
      7156.720        5566.354  
 11  5 30 16 50 45.0000000  0 13R21R12R11R22G 9G25G27G14G 4G 2G29R20
                                R13                                 
 104572660.373    81334309.924    19541901.467 8  19541900.546 8  19541902.606 7
      1632.524        1269.737  
 103787356.638    80723519.221    19429211.253 8  19429211.094 8  19429215.830 7
      4988.715        3880.110  
 107208367.385    83384307.674    20062584.542 7  20062584.547 7  20062590.268 6
       739.065         574.816  
 106132750.338    82547713.012    19882240.430 8  19882239.593 8  19882242.956 7
      5835.208        4538.483  
 111288566.392    86718375.8454   21177506.654 5  21177506.66043  21177512.90243
        49.808          38.793  
 112041106.295    87304774.9914   21320712.823 8  21320712.16046  21320719.48046
      5244.090        4086.310  
 117973309.993    91927281.9054   22449571.665 5  22449573.24042  22449579.49242
       337.727         263.173  
 116383738.933    90688641.5694   22147088.192 7  22147087.43045  22147091.53945
      2969.568        2313.945  
 118465790.066    92311020.1314   22543289.541 7  22543289.14644  22543294.27344
      2980.420        2322.402  
 119856723.009    93394875.3774   22807977.599 7  22807976.84145  22807980.35845
      5354.833        4172.592  
 122120520.716    95158867.9454   23238761.622 5  23238761.25642  23238764.56442
      6608.707        5149.601  
 123903031.258    96369044.992    23170490.831 5  23170490.430 5  23170497.243 6
     -1085.557        -844.338  
 124411943.423    96764865.019    23298361.099 6  23298360.833 6  23298367.417 6
      7159.343        5568.380  
 11  5 30 16 50 50.0000000  0 13R21R12R11R22G 9G25G27G14G 4G 2G29R20
                                R13                                 
 104564500.124    81327963.061    19540376.673 8  19540375.789 8  19540377.801 7
      1631.598        1269.034  
 103762413.292    80704118.864    19424541.597 8  19424541.477 8  19424546.810 8
      4988.530        3879.979  
 107204672.083    83381433.520    20061892.629 7  20061893.028 7  20061898.874 6
       739.002         574.784  
 106103575.164    82525021.227    19876774.370 7  19876774.196 7  19876777.357 7
      5834.914        4538.259  
 111288311.568    86718177.2914   21177457.182 5  21177457.88843  21177464.60143
        51.252          39.936  
 112014882.432    87284340.8204   21315722.293 8  21315721.87346  21315729.14146
      5245.484        4087.400  
 117971615.929    91925961.8094   22449251.353 6  22449250.95842  22449257.65042
       339.855         264.841  
 116368892.645    90677073.0324   22144263.700 7  22144262.29245  22144266.13544
      2969.004        2313.506  
 118450889.939    92299409.6394   22540455.769 7  22540454.45244  22540458.93044
      2979.538        2321.718  
 119829946.240    93374010.3874   22802882.681 7  22802881.47145  22802884.55745
      5355.699        4173.265  
 122087473.478    95133116.7964   23232473.862 5  23232473.23142  23232475.37942
      6610.384        5151.018  
 123908454.912    96373263.394    23171506.369 5  23171505.461 5  23171512.001 6
     -1083.587        -842.778  
 124376140.379    96737018.200    23291654.998 6  23291654.811 6  23291661.611 6
      7161.915        5570.364  
 11  5 30 16 50 55.0000000  0 13R21R12R11R22G 9G25G27G14G 4G 2G29R20
                                R13                                 
 104556344.683    81321619.948    19538852.016 8  19538851.320 8  19538853.284 7
      1630.724        1268.334  
 103737470.142    80684718.637    19419873.065 8  19419872.510 8  19419877.778 7
      4988.822        3880.197  
 107200976.791    83378559.380    20061201.804 7  20061201.877 7  20061207.045 6
       739.083         574.841  
 106074402.823    82502331.614    19871309.428 8  19871309.027 8  19871312.105 7
      5834.270        4537.774  
 111288054.061    86717976.6384   21177408.167 5  21177408.87943  21177415.42443
        51.833          40.382  
 111988651.867    87263901.4114   21310730.919 8  21310730.63446  21310737.72146
      5246.872        4088.469  
 117969915.746    91924636.9704   22448927.132 5  22448927.88142  22448934.83642
       340.534         265.358  
 116354049.339    90665506.8224   22141439.127 7  22141437.92245  22141441.86545
      2968.459        2313.079  
 118435993.069    92287801.6854   22537620.141 7  22537619.68844  22537623.72444
      2979.189        2321.442  
 119803165.687    93353142.4324   22797786.605 7  22797785.40345  22797788.24745
      5356.544        4173.900  
 122054417.438    95107358.8744   23226183.594 6  23226183.41642  23226186.05642
      6612.062        5152.259  
 123913868.647    96377474.057    23172517.306 5  23172517.214 5  23172522.873 6
     -1081.218        -840.945  
 124340324.217    96709161.201    23284947.855 6  23284947.666 6  23284954.850 6
      7164.526        5572.409  
 11  5 30 16 51  0.0000000  0 13R21R12R11R22G 9G25G27G14G 4G 2G29R20
                                R13                                 
 104548194.047    81315280.560    19537328.100 8  19537328.234 8  19537330.050 7
      1629.636        1267.481  
 103712527.207    80665318.585    19415203.153 8  19415202.545 8  19415208.132 8
      4988.505        3879.941  
 107197281.589    83375685.337    20060510.752 7  20060510.476 7  20060515.213 6
       738.762         574.571  
 106045233.561    82479644.399    19865845.592 8  19865844.540 8  19865847.721 8
      5833.546        4537.200  
 111287793.788    86717773.8754   21177357.558 5  21177359.08443  21177366.41643
        52.075          40.528  
 111962414.688    87243456.8604   21305738.078 8  21305737.88646  21305744.93246
      5247.971        4089.315  
 117968209.209    91923307.1984   22448602.850 5  22448602.77542  22448609.58842
       342.300         266.719  
 116339209.130    90653943.0014   22138614.416 7  22138613.95445  22138617.99845
      2967.830        2312.584  
 118421099.732    92276196.4804   22534786.370 7  22534785.93044  22534790.31844
      2978.271        2320.729  
 119776381.455    93332271.5964   22792688.366 7  22792688.34245  22792691.47045
      5357.231        4174.447  
 122021352.875    95081594.3164   23219890.881 5  23219891.25242  23219893.22942
      6613.571        5153.396  
 123919272.468    96381677.023    23173529.400 5  23173528.285 5  23173533.930 6
     -1079.622        -839.703  
 124304495.030    96681294.025    23278236.871 6  23278236.945 6  23278244.462 6
      7167.125        5574.450  
 11  5 30 16 51  5.0000000  0 13R21R12R11R22G 9G25G27G14G 4G 2G29R20
                                R13                                 
 104540048.807    81308945.379    19535806.849 8  19535806.177 8  19535807.762 7
      1628.467        1266.608  
 103687585.075    80645919.147    19410532.696 8  19410532.499 8  19410538.927 7
      4988.398        3879.890  
 107193586.830    83372811.638    20059818.723 7  20059818.935 7  20059823.530 6
       738.937         574.728  
 106016067.810    82456959.944    19860381.626 8  19860380.944 8  19860384.421 7
      5832.734        4536.589  
 111287531.519    86717569.4654   21177308.475 5  21177309.50243  21177316.42843
        52.937          41.299  
 111936171.396    87223007.5404   21300745.349 8  21300744.30546  21300751.17146
      5249.302        4090.395  
 117966497.016    91921973.0054   22448277.000 5  22448276.66842  22448283.05742
       342.585         267.022  
 116324372.398    90642381.9124   22135792.105 7  22135791.26245  22135794.54245
      2967.087        2312.024  
 118406210.329    92264594.3394   22531953.492 7  22531952.44344  22531956.60444
      2977.309        2320.000  
 119749593.982    93311398.2504   22787591.394 7  22787591.14745  22787593.82645
      5357.905        4175.011  
 121988280.309    95055823.5204   23213596.730 5  23213597.51942  23213600.20842
      6615.757        5155.181  
 123924666.851    96385872.646    23174537.871 5  23174537.295 5  23174543.054 6
     -1077.405        -837.963  
 124268653.299    96653417.127    23271525.843 6  23271525.891 6  23271532.802 6
      7169.891        5576.602  
 11  5 30 16 51 10.0000000  0 13R21R12R11R22G 9G25G27G14G 4G 2G29R20
                                R13                                 
 106136160.593    82550365.647    19834078.746 8  19834078.161 8  19834079.586 7
      1627.582        1265.899  
 105264086.253    81872086.727    19705658.162 8  19705657.192 8  19705662.749 7
      4988.302        3879.814  
 108791893.513    84615939.046    20358921.423 7  20358920.536 7  20358925.115 6
       738.695         574.544  
 107587223.980    83678970.319    20154711.186 7  20154710.940 7  20154714.331 7
      5832.302        4536.222  
 112862687.049    87944963.3524   21477052.444 4  21477051.68443  21477058.35842
        53.596          41.765  
 113485347.217    88430157.5284   21595542.718 8  21595542.47146  21595549.26846
      5250.540        4091.316  
 119540199.313    93148234.5384   22747743.308 5  22747742.12342  22747749.23142
       344.157         268.165  
 117884962.230    91858425.9514   22432762.486 7  22432762.01245  22432764.78145
      2966.486        2311.561  
 119966747.915    93480597.6654   22828912.467 7  22828912.37744  22828917.19444
      2976.575        2319.399  
 121298228.698    94518126.6184   23082287.405 7  23082286.75445  23082289.41945
      5358.528        4175.476  
 123530626.617    96257651.7224   23507094.672 5  23507095.58642  23507098.62342
      6616.606        5155.804  
 125533175.797    97636935.153    23475337.141 5  23475336.569 5  23475342.747 6
     -1075.968        -836.870  
 125833681.156    97870661.029    23564606.561 6  23564605.617 6  23564612.430 6
      7172.129        5578.331  
 11  5 30 16 51 15.0000000  0 13R21R12R11R22G 9G25G27G14G 4G 2G29R20
                                R13                                 
 106128026.107    82544038.827    19832558.817 8  19832558.380 8  19832558.765 7
      1626.267        1264.860  
 105239145.741    81852688.543    19700989.243 8  19700988.671 8  19700993.794 8
      4987.987        3879.536  
 108788199.986    84613066.319    20358229.341 7  20358229.666 7  20358233.846 6
       738.462         574.355  
 107558065.369    83656291.411    20149248.594 7  20149248.476 7  20149252.456 7
      5831.368        4535.509  
 112862420.428    87944755.5274   21477004.044 5  21477001.76842  21477007.02542
        53.614          41.807  
 113459091.690    88409698.7044   21590546.643 8  21590546.01746  21590552.93046
      5251.652        4092.178  
 119538475.590    93146891.3974   22747417.001 6  22747415.28442  22747420.46642
       345.296         269.063  
 117870132.759    91846870.4984   22429940.453 7  22429939.87145  22429942.62245
      2965.382        2310.686  
 119951866.439    93469001.7104   22826081.027 7  22826080.80644  22826085.58944
      2976.002        2318.953  
 121271434.881    94497248.3144   23077188.448 7  23077187.57745  23077191.24945
      5359.012        4175.861  
 123497538.161    96231868.5374   23500798.303 5  23500798.03942  23500802.89042
      6618.286        5157.109  
 125538551.303    97641116.064    23476343.765 5  23476343.081 5  23476348.152 6
     -1074.442        -835.688  
 125797814.461    97842764.708    23557889.885 6  23557889.325 6  23557896.407 6
      7174.426        5580.102  
 11  5 30 16 51 20.0000000  0 13R21R12R11R22G 9G25G27G14G 4G 2G29R20
                                R13                                 
 106119897.316    82537716.411    19831039.550 8  19831039.485 8  19831039.489 7
      1625.180        1264.034  
 105214206.459    81833291.327    19696320.303 8  19696320.249 8  19696324.704 7
      4987.647        3879.291  
 108784507.387    84610194.282    20357538.266 7  20357538.284 7  20357542.857 6
       738.241         574.189  
 107528910.738    83633615.585    20143787.215 7  20143786.575 7  20143791.224 8
      5830.495        4534.837  
 112862151.780    87944546.1864   21476952.735 5  21476950.97442  21476956.36742
        53.504          41.713  
 113432830.398    88389235.3634   21585550.092 8  21585549.35246  21585555.70546
      5252.764        4093.073  
 119536746.467    93145543.9954   22747085.955 5  22747085.49842  22747091.86142
       346.128         269.729  
 117855307.046    91835318.0004   22427119.301 7  22427118.33045  22427121.26745
      2964.740        2310.181  
 119936989.248    93457409.0884   22823250.242 7  22823249.86744  22823253.57544
      2974.880        2318.093  
 121244638.150    94476367.7424   23072089.193 7  23072088.58945  23072092.13945
      5359.640        4176.341  
 123464441.931    96206079.3594   23494500.427 5  23494500.26942  23494505.53642
      6620.043        5158.480  
 125543917.620    97645289.857    23477344.345 5  23477345.682 5  23477352.264 6
     -1072.424        -834.090  
 125761935.672    97814859.001    23551171.184 6  23551171.266 6  23551178.355 6
      7177.011        5582.133  
 11  5 30 16 51 25.0000000  0 13R21R12R11R22G 9G25G27G14G 4G 2G29R20
                                R13                                 
 106111774.545    82531398.708    19829521.286 8  19829521.001 8  19829521.692 7
      1623.935        1263.071  
 105189268.773    81813895.352    19691652.131 8  19691651.669 8  19691656.200 7
      4987.320        3879.042  
 108780816.051    84607323.223    20356847.477 7  20356847.258 7  20356852.158 6
       738.057         574.052  
 107499760.380    83610943.091    20138326.804 7  20138325.938 7  20138330.391 7
      5829.705        4534.220  
 112861881.638    87944335.6584   21476901.622 5  21476899.80842  21476905.66342
        54.288          42.295  
 113406563.719    88368767.8114   21580551.726 8  21580551.08746  21580557.25246
      5253.916        4093.955  
 119535012.262    93144192.6714   22746755.258 5  22746754.87042  22746762.31742
       347.493         270.741  
 117840485.704    91823768.9014   22424298.743 7  22424297.98445  22424301.05545
      2963.901        2309.548  
 119922116.733    93445820.1174   22820420.139 7  22820420.16544  22820423.10744
      2973.986        2317.387  
 121217838.995    94455485.2834   23066989.289 7  23066988.68345  23066992.83945
      5360.070        4176.694  
 123431338.596    96180284.6324   23488200.770 5  23488201.56342  23488206.27942
      6621.293        5159.494  
 125549275.011    97649456.726    23478347.545 5  23478346.998 5  23478354.887 6
     -1070.906        -832.902  
 125726044.928    97786944.003    23544448.266 6  23544448.553 6  23544456.444 6
      7179.332        5583.941  
 11  5 30 16 51 30.0000000  0 13R21R12R11R22G 9G25G27G14G 4G 2G29R20
                                R13                                 
 106103657.592    82525085.520    19828005.508 8  19828004.659 8  19828005.175 7
      1622.754        1262.147  
 105164332.415    81794500.415    19686983.762 8  19686983.462 8  19686988.240 7
      4987.044        3878.799  
 108777125.756    84604452.993    20356156.408 7  20356156.228 7  20356162.090 6
       737.854         573.875  
 107470614.146    83588273.802    20132866.799 7  20132866.066 7  20132870.679 8
      5828.769        4533.478  
 112861609.815    87944123.8394   21476849.364 5  21476848.12142  21476854.58542
        54.377          42.363  
 113380291.436    88348295.9054   21575551.984 8  21575551.49346  21575557.64346
      5254.938        4094.760  
 119533272.835    93142837.2504   22746425.759 5  22746423.95942  22746430.32542
       348.266         271.364  
 117825668.360    91812222.9304   22421478.905 7  22421478.35945  22421481.32445
      2962.974        2308.805  
 119907248.655    93434234.5914   22817591.829 7  22817590.98044  22817593.63144
      2973.150        2316.720  
 121191037.190    94434600.7704   23061888.393 7  23061888.28245  23061892.79245
      5360.573        4177.059  
 123398227.812    96154484.0224   23481900.096 4  23481900.21042  23481906.42742
      6623.022        5160.826  
 125554623.458    97653616.616    23479345.465 5  23479346.481 5  23479354.609 6
     -1068.878        -831.341  
 125690142.400    97759019.842    23537725.479 6  23537725.830 6  23537733.645 6
      7181.587        5585.680  
 11  5 30 16 51 35.0000000  0 13R21R12R11R22G 9G25G27G14G 4G 2G29R20
                                R13                                 
 106095546.830    82518777.146    19826489.544 8  19826488.650 8  19826489.633 7
      1621.432        1261.119  
 105139397.827    81775106.849    19682316.579 8  19682315.933 8  19682320.593 7
      4986.690        3878.533  
 108773436.904    84601583.873    20355466.541 7  20355466.312 7  20355471.526 6
       737.626         573.706  
 107441472.375    83565607.988    20127407.210 7  20127406.299 7  20127411.797 8
      5827.815        4532.743  
 112861336.524    87943910.8894   21476797.849 5  21476796.05243  21476802.67742
        54.507          42.462  
 113354013.876    88327819.8774   21570551.907 8  21570551.03346  21570557.30346
      5255.999        4095.576  
 119531528.492    93141478.0014   22746093.063 5  22746092.15142  22746098.82242
       349.543         272.399  
 117810855.358    91800680.3284   22418659.254 7  22418658.91945  22418662.35844
      2962.301        2308.279  
 119892385.454    93422652.8754   22814763.222 7  22814762.56344  22814765.56444
      2972.068        2315.906  
 121164233.009    94413714.4044   23056787.827 7  23056787.45045  23056791.96345
      5360.945        4177.375  
 123365109.844    96128677.8174   23475597.275 5  23475597.34542  23475604.50042
      6624.676        5162.054  
 125559963.110    97657769.669    23480347.001 5  23480347.637 5  23480352.670 6
     -1067.311        -830.133  
 125654228.072    97731086.487    23531002.123 6  23531001.293 6  23531006.949 6
      7184.008        5587.548  
 11  5 30 16 51 40.0000000  0 13R21R12R11R22G 9G25G27G14G 4G 2G29R20
                                R13                                 
 106087442.693    82512473.923    19824974.067 8  19824973.536 8  19824975.318 7
      1620.059        1260.061  
 105114465.418    81755714.979    19677649.059 8  19677648.403 8  19677654.054 8
      4986.204        3878.166  
 108769749.986    84598716.252    20354776.797 7  20354776.365 7  20354781.420 6
       737.230         573.438  
 107412335.571    83542946.028    20121949.125 7  20121948.444 7  20121953.512 8
      5826.832        4532.003  
 112861062.388    87943697.2854   21476745.870 5  21476744.39043  21476750.85943
        54.651          42.599  
 113327731.603    88307340.1834   21565551.044 8  21565550.17346  21565556.27246
      5256.921        4096.324  
 119529779.710    93140115.3184   22745759.890 5  22745759.01342  22745765.66942
       350.098         272.833  
 117796047.317    91789141.5814   22415841.558 7  22415840.85144  22415844.56044
      2960.995        2307.259  
 119877527.428    93411075.1914   22811934.850 7  22811934.81344  22811938.36444
      2971.121        2315.172  
 121137427.066    94392826.6674   23051686.563 7  23051686.18545  23051690.85845
      5361.244        4177.600  
 123331985.253    96102866.4804   23469293.849 4  23469294.00942  23469301.38242
      6625.921        5163.021  
 125565294.714    97661916.462    23481343.642 5  23481344.025 5  23481350.292 6
     -1065.305        -828.542  
 125618302.836    97703144.626    23524273.736 6  23524273.300 6  23524280.540 6
      7186.031        5589.150  
 11  5 30 16 51 45.0000000  0 13R21R12R11R22G 9G25G27G14G 4G 2G29R20
                                R13                                 
 106079345.244    82506175.916    19823460.441 8  19823460.230 8  19823462.437 7
      1618.878        1259.128  
 105089535.395    81736324.969    19672981.891 8  19672981.535 8  19672986.474 7
      4985.813        3877.860  
 108766064.980    84595850.151    20354087.278 7  20354086.838 7  20354091.392 6
       736.975         573.215  
 107383203.856    83520288.032    20116491.951 7  20116491.426 7  20116495.745 7
      5825.823        4531.204  
 112860787.387    87943482.9724   21476694.115 6  21476692.29943  21476698.09343
        55.355          43.168  
 113301444.645    88286856.8474   21560548.301 8  21560547.77546  21560553.91146
      5257.848        4097.023  
 119528026.524    93138749.1784   22745427.268 5  22745425.74842  22745432.55142
       351.168         273.674  
 117781244.209    91777606.6844   22413023.645 7  22413023.83644  22413027.49545
      2960.097        2306.567  
 119862674.861    93399501.7574   22809108.479 7  22809108.77444  22809112.17244
      2970.224        2314.487  
 121110619.455    94371937.6414   23046585.296 7  23046584.81445  23046589.12845
      5361.825        4178.074  
 123298854.352    96077050.2014   23462989.460 4  23462988.72442  23462996.19442
      6626.692        5163.668  
 125570618.358    97666057.057    23482338.562 5  23482340.104 5  23482344.701 6
     -1063.874        -827.456  
 125582366.582    97675194.200    23517542.668 6  23517542.885 6  23517550.548 6
      7188.454        5591.032  
 11  5 30 16 51 50.0000000  0 13R21R12R11R22G 9G25G27G14G 4G 2G29R20
                                R13                                 
 106071254.237    82499882.907    19821947.941 8  19821947.529 8  19821950.273 7
      1617.462        1258.027  
 105064607.340    81716936.487    19668315.137 8  19668314.749 8  19668320.646 8
      4985.265        3877.425  
 108762381.576    84592985.267    20353397.495 7  20353397.718 7  20353402.040 6
       736.485         572.808  
 107354076.858    83497633.700    20111034.953 7  20111035.056 7  20111039.409 8
      5824.840        4530.440  
 112860511.180    87943267.7424   21476641.387 6  21476640.07643  21476645.24543
        55.394          43.167  
 113275152.665    88266369.5864   21555545.328 8  21555544.76046  21555550.96846
      5258.851        4097.807  
 119526268.685    93137379.4064   22745092.330 5  22745091.17242  22745098.23242
       351.767         274.090  
 117766445.681    91766075.3694   22410209.212 7  22410208.23744  22410211.50545
      2959.305        2305.943  
 119847827.376    93387932.2774   22806282.951 7  22806283.18144  22806286.91744
      2968.856        2313.397  
 121083809.800    94351047.0004   23041483.162 7  23041483.29145  23041486.83545
      5362.119        4178.281  
 123265716.393    96051228.4234   23456681.757 4  23456682.52642  23456690.82842
      6628.450        5165.031  
 125575933.344    97670190.943    23483333.553 5  23483333.929 5  23483338.810 6
     -1062.099        -826.071  
 125546419.048    97647235.015    23510811.868 6  23510811.423 6  23510818.213 6
      7190.370        5592.499  
 11  5 30 16 51 55.0000000  0 13R21R12R11R22G 9G25G27G14G 4G 2G29R20
                                R13                                 
 106063170.035    82493595.190    19820438.171 8  19820437.559 8  19820439.694 7
      1616.090        1256.954  
 105039681.879    81697550.005    19663648.725 8  19663648.286 8  19663654.940 8
      4984.828        3877.097  
 108758700.415    84590122.118    20352709.178 7  20352709.316 7  20352713.036 6
       736.011         572.452  
 107324955.101    83474983.458    20105579.854 7  20105579.370 7  20105583.652 8
      5823.728        4529.572  
 112860234.343    87943052.0204   21476589.478 6  21476587.77243  21476591.75443
        55.485          43.275  
 113248856.241    88245878.8634   21550541.277 8  21550540.58046  21550546.77246
      5259.625        4098.408  
 119524506.563    93136006.3054   22744758.243 5  22744756.72842  22744762.69642
       352.945         275.037  
 117751652.301    91754548.0584   22407393.526 7  22407393.31645  22407396.75445
      2958.186        2305.084  
 119832985.406    93376367.1074   22803458.381 7  22803458.34044  22803462.97544
      2967.817        2312.569  
 121056998.668    94330155.2114   23036381.865 7  23036381.49845  23036384.83445
      5362.392        4178.478  
 123232572.258    96025401.8264   23450376.280 4  23450375.92942  23450384.05341
      6629.794        5166.054  
 125581240.320    97674318.589    23484326.239 5  23484325.718 5  23484331.155 6
     -1060.708        -824.991  
 125510460.613    97619267.339    23504076.744 6  23504076.123 6  23504084.245 6
      7192.690        5594.338  
 11  5 30 16 52  0.0000000  0 13R21R12R11R22G 9G25G27G14G 4G 2G29R20
                                R13                                 
 106055093.056    82487313.098    19818928.355 8  19818928.225 8  19818930.055 7
      1614.481        1255.704  
 105014759.258    81678165.742    19658982.809 8  19658982.711 8  19658988.804 7
      4984.077        3876.496  
 108755021.637    84587260.847    20352020.400 7  20352020.738 7  20352024.535 6
       735.349         571.923  
 107295838.980    83452337.584    20100125.094 7  20100124.815 7  20100129.192 8
      5822.563        4528.630  
 112859956.966    87942835.9404   21476536.564 6  21476534.63143  21476539.20143
        55.361          43.086  
 113222555.611    88225384.8674   21545536.288 8  21545535.42146  21545541.58946
      5260.454        4099.057  
 119522740.572    93134630.2224   22744422.036 5  22744420.39542  22744426.89542
       353.031         275.121  
 117736864.373    91743025.0114   22404579.671 7  22404579.30145  22404582.74945
      2956.886        2304.052  
 119818149.329    93364806.5264   22800635.796 7  22800635.12044  22800639.16844
      2966.602        2311.657  
 121030186.337    94309262.4954   23031280.780 7  23031279.56245  23031282.57345
      5362.595        4178.630  
 123199422.107    95999570.5614   23444067.027 5  23444067.54842  23444075.29441
      6630.352        5166.525  
 125586539.575    97678440.220    23485319.076 5  23485317.420 5  23485322.734 6
     -1059.247        -823.867  
 125474491.772    97591291.581    23497341.188 6  23497340.125 6  23497348.147 6
      7194.712        5595.876  
 11  5 30 16 52  5.0000000  0 12R21R12R11R22G 9G25G27G14G 4G 2R20R13
 106047023.422    82481036.719    19817421.392 8  19817420.521 8  19817421.910 7
      1613.255        1254.745  
 104989839.656    81658783.832    19654318.728 8  19654318.179 8  19654324.045 8
      4983.689        3876.199  
 108751345.471    84584401.592    20351333.274 7  20351332.809 7  20351336.648 6
       734.917         571.617  
 107266728.624    83429696.209    20094671.365 7  20094671.202 7  20094675.273 8
      5821.527        4527.847  
 112859679.498    87942619.7394   21476483.007 6  21476481.47043  21476486.09042
        55.978          43.632  
 113196250.972    88204887.7564   21540529.854 8  21540529.77846  21540536.10046
      5261.359        4099.748  
 119520970.816    93133251.1864   22744083.688 5  22744083.31642  22744089.57942
       354.321         276.068  
 117722082.041    91731506.3014   22401766.149 7  22401765.92844  22401769.85844
      2955.969        2303.350  
 119803319.292    93353250.6454   22797813.466 7  22797813.33344  22797817.60244
      2965.245        2310.554  
 121003372.994    94288368.9824   23026177.573 7  23026177.20345  23026180.01745
      5362.807        4178.805  
 125591831.244    97682555.961    23486306.077 5  23486306.056 5  23486311.868 6
     -1057.890        -822.825  
 125438512.587    97563307.776    23490603.552 6  23490602.929 6  23490610.804 6
      7196.896        5597.575  
 11  5 30 16 52 10.0000000  0 12R21R12R11R22G 9G25G27G14G 4G 2R20R13
 106038961.140    82474766.051    19815914.924 8  19815914.020 8  19815915.156 7
      1611.653        1253.509  
 104964923.249    81639404.393    19649654.350 8  19649653.805 8  19649659.214 7
      4983.019        3875.696  
 108747671.963    84581544.415    20350645.036 7  20350645.383 7  20350649.706 6
       734.462         571.274  
 107237624.049    83407059.319    20089220.205 7  20089219.329 7  20089222.917 8
      5820.396        4527.006  
 112859401.868    87942403.3834   21476429.352 5  21476428.72142  21476432.54542
        55.814          43.540  
 113169942.396    88184387.5644   21535524.345 8  21535523.67346  21535529.74346
      5262.120        4100.350  
 119519197.382    93131869.2884   22743745.825 5  22743746.14342  22743752.03442
       355.466         276.952  
 117707305.329    91719991.9784   22398954.609 7  22398954.10944  22398957.62544
      2954.734        2302.385  
 119788495.314    93341699.4944   22794992.666 7  22794992.72144  22794996.77544
      2964.383        2309.928  
 120976558.704    94267474.7504   23021074.640 7  23021074.52245  23021077.77545
      5362.886        4178.889  
 125597115.489    97686665.893    23487295.039 5  23487294.738 5  23487300.458 6
     -1055.607        -821.012  
 125402523.217    97535316.071    23483864.470 6  23483864.350 6  23483870.782 6
      7198.667        5598.976  
 11  5 30 16 52 15.0000000  0 12R21R12R11R22G 9G25G27G14G 4G 2R20R13
 106030906.040    82468500.965    19814409.631 8  19814408.900 8  19814409.626 7
      1610.113        1252.309  
 104940009.853    81620027.303    19644990.479 8  19644989.833 8  19644995.312 7
      4982.222        3875.056  
 108744001.098    84578689.295    20349958.392 7  20349958.149 7  20349962.355 6
       733.854         570.762  
 107208525.219    83384426.900    20083768.427 7  20083767.831 7  20083771.658 8
      5819.143        4526.000  
 112859123.875    87942186.7604   21476375.500 5  21476375.46242  21476379.92542
        55.689          43.368  
 113143629.790    88163884.2314   21530516.909 8  21530516.55046  21530522.95946
      5262.872        4100.946  
 119517420.247    93130484.5064   22743406.876 5  22743406.97142  22743413.70442
       355.754         277.266  
 117692534.205    91708481.9994   22396144.114 7  22396143.57045  22396146.94745
      2953.652        2301.568  
 119773677.324    93330153.0094   22792173.227 7  22792172.89844  22792176.37644
      2962.898        2308.763  
 120949743.400    94246579.7074   23015971.670 7  23015971.37045  23015975.18645
      5363.023        4178.980  
 125602392.200    97690770.016    23488281.207 5  23488280.198 5  23488287.268 6
     -1054.982        -820.543  
 125366523.533    97507316.312    23477122.364 6  23477122.641 6  23477129.244 6
      7200.822        5600.626  
 11  5 30 16 52 20.0000000  0 13R21R12R11R22G 9G25G27G14G 4G 2G29R20
                                R13                                 
 106022858.462    82462241.741    19812905.459 8  19812904.916 8  19812906.411 7
      1608.694        1251.205  
 104915099.627    81600652.686    19640325.931 8  19640326.124 8  19640332.304 8
      4981.655        3874.627  
 108740332.910    84575836.267    20349271.733 7  20349271.465 6  20349275.820 6
       733.265         570.321  
 107179432.332    83361799.158    20078318.203 7  20078317.579 7  20078321.676 8
      5817.810        4524.971  
 112858845.759    87941970.0634   21476324.549 6  21476323.45942  21476326.17842
        55.653          43.398  
 113117313.282    88143377.8764   21525509.505 8  21525508.75146  21525515.22346
      5263.622        4101.533  
 119515639.421    93129096.8234   22743069.332 5  22743068.51742  22743074.58542
       356.444         277.713  
 117677768.799    91696976.4864   22393334.187 7  22393333.41245  22393337.61645
      2952.525        2300.683  
 119758865.515    93318611.3404   22789354.281 7  22789354.32444  22789357.68044
      2961.572        2307.719  
 120922927.178    94225683.9594   23010868.685 7  23010868.59345  23010871.77845
      5363.325        4179.215  
 123066756.837                    23418825.040 4                                
      6635.106                  
 125607661.289    97694868.168    23489266.831 5  23489266.633 5  23489272.399 6
     -1053.038        -819.013  
 125330513.684    97479308.671    23470378.944 6  23470378.252 6  23470386.446 6
      7202.921        5602.286  
 11  5 30 16 52 25.0000000  0 13R21R12R11R22G 9G25G27G14G 4G 2G29R20
                                R13                                 
 106014818.376    82455988.341    19811402.077 8  19811402.281 8  19811403.503 7
      1607.264        1250.092  
 104890192.761    81581280.685    19635665.360 8  19635664.216 8  19635668.840 7
      4980.954        3874.065  
 108736667.644    84572985.472    20348585.015 7  20348584.832 7  20348590.384 6
       732.655         569.839  
 107150345.558    83339176.098    20072870.062 7  20072869.023 7  20072872.762 8
      5816.618        4524.020  
 112858567.603    87941753.3604   21476271.109 6  21476270.77242  21476273.42842
        55.633          43.301  
 113090993.065    88122868.6174   21520501.024 8  21520500.25546  21520507.00046
      5264.357        4102.085  
 119513855.140    93127706.4334   22742729.130 5  22742729.45842  22742734.92342
       356.396         277.733  
 117663009.214    91685475.5234   22390526.397 7  22390525.33045  22390529.37545
      2951.372        2299.749  
 119744059.913    93307074.5144   22786536.579 7  22786536.73944  22786540.23644
      2960.510        2306.895  
 120896110.310    94204787.7174   23005765.855 7  23005765.69845  23005768.25345
      5363.343        4179.222  
 123033578.529                    23412509.296 5                                
      6636.018                  
 125612923.022    97698960.610    23490250.953 5  23490251.267 5  23490255.903 6
     -1051.692        -818.005  
 125294493.800    97451293.195    23463634.427 6  23463633.597 6  23463639.633 6
      7204.864        5603.783  
 11  5 30 16 52 30.0000000  0 13R21R12R11R22G 9G25G27G14G 4G 2G29R20
                                R13                                 
 106006785.927    82449740.882    19809901.003 8  19809900.941 8  19809902.302 7
      1605.695        1248.875  
 104865289.375    81561911.383    19631002.492 8  19631002.106 8  19631007.658 8
      4980.444        3873.663  
 108733005.162    84570136.880    20347900.255 7  20347900.044 7  20347904.298 6
       732.250         569.492  
 107121264.974    83316557.834    20067421.525 7  20067421.367 7  20067425.570 8
      5815.468        4523.133  
 112858289.560    87941536.6974   21476218.145 6  21476217.61542  21476220.58742
        55.830          43.483  
 113064669.179    88102356.5034   21515491.921 8  21515490.78946  21515497.42446
      5265.048        4102.630  
 119512067.393    93126313.3434   22742390.589 5  22742389.18242  22742394.29942
       358.450         279.330  
 117648255.544    91673979.1534   22387717.543 7  22387717.43545  22387721.88445
      2950.223        2298.867  
 119729260.753    93295542.6844   22783721.597 7  22783720.75144  22783724.38244
      2959.240        2305.896  
 120869292.779    94183890.9434   23000662.944 7  23000662.62945  23000665.88445
      5363.584        4179.394  
 123000395.170                    23406195.952 4                                
      6636.730                  
 125618177.584    97703047.475    23491234.332 5  23491233.109 5  23491239.804 6
     -1050.376        -816.969  
 125258464.073    97423270.074    23456886.146 6  23456887.823 6  23456892.909 6
      7207.078        5605.518  
 11  5 30 16 52 35.0000000  0 13R21R12R11R22G 9G25G27G14G 4G 2G29R20
                                R13                                 
 105998761.808    82443499.899    19808402.587 8  19808401.668 8  19808403.170 7
      1603.920        1247.498  
 104840390.163    81542545.343    19626341.754 8  19626340.751 8  19626346.562 8
      4979.576        3873.004  
 108729346.338    84567291.118    20347215.794 7  20347215.301 7  20347219.649 6
       731.592         568.985  
 107092191.157    83293944.901    20061974.802 7  20061974.567 7  20061979.099 7
      5814.208        4522.151  
 112858012.245    87941320.6894   21476166.074 6  21476165.37442  21476167.84742
        55.427          43.165  
 113038342.342    88081842.0844   21510481.849 8  21510481.11946  21510487.67246
      5265.708        4103.148  
 119510276.826    93124918.0564   22742049.142 5  22742048.49142  22742053.68542
       358.602         279.403  
 117633508.494    91662487.9384   22384911.683 7  22384911.16445  22384915.87545
      2948.865        2297.819  
 119714468.598    93284016.3524   22780905.731 7  22780905.57144  22780909.60244
      2957.838        2304.798  
 120842475.382    94162994.2764   22995560.016 7  22995559.88045  22995562.11345
      5363.623        4179.458  
 122967206.111                    23399879.469 5                                
      6638.442                  
 125623425.370    97707129.091    23492214.368 5  23492214.289 5  23492220.919 6
     -1048.735        -815.672  
 125222425.100    97395239.794    23450139.496 6  23450138.928 6  23450144.905 6
      7208.572        5606.656  
 11  5 30 16 52 40.0000000  0 13R21R12R11R22G 9G25G27G14G 4G 2G29R20
                                R13                                 
 105990745.666    82437265.124    19806904.472 8  19806903.747 8  19806905.670 7
      1602.398        1246.305  
 104815494.745    81523182.240    19621681.095 8  19621680.833 8  19621685.978 8
      4978.570        3872.225  
 108725690.821    84564447.960    20346531.748 7  20346531.288 7  20346536.109 6
       730.732         568.343  
 107063123.874    83271337.047    20056529.146 7  20056529.094 7  20056533.536 7
      5812.662        4520.947  
 112857735.366    87941104.8674   21476113.332 6  21476111.74843  21476114.80742
        55.244          43.040  
 113012012.213    88061325.1034   21505471.159 8  21505470.41146  21505477.07946
      5266.363        4103.672  
 119508483.114    93123520.4364   22741707.368 5  22741707.38642  22741712.33642
       359.111         279.802  
 117618767.763    91651001.6464   22382106.207 7  22382106.07145  22382110.48445
      2947.540        2296.799  
 119699683.195    93272495.2614   22778091.703 6  22778091.66044  22778096.30944
      2956.188        2303.534  
 120815657.675    94142097.3744   22990456.833 7  22990456.75645  22990458.86945
      5363.504        4179.351  
 122934011.980    95792743.4474   23393561.665 4  23393562.9544   23393564.64542
      6638.882        5173.462  
 125628666.328    97711205.381    23493193.227 5  23493195.009 5  23493200.585 6
     -1047.250        -814.526  
 125186376.690    97367202.127    23443389.151 6  23443388.209 6  23443394.215 6
      7210.411        5608.092  
 11  5 30 16 52 45.0000000  0 13R21R12R11R22G 9G25G27G14G 4G 2G29R20
                                R13                                 
 105982737.720    82431036.719    19805408.084 8  19805407.513 8  19805409.369 7
      1600.555        1244.888  
 104790603.561    81503822.438    19617021.543 8  19617020.890 8  19617026.808 8
      4977.696        3871.542  
 108722038.931    84561607.574    20345847.854 7  20345847.881 7  20345852.704 6
       729.864         567.669  
 107034063.557    83248734.558    20051086.075 7  20051085.373 7  20051089.646 7
      5811.345        4519.930  
 112857459.153    87940889.6834   21476060.596 6  21476059.14443  21476062.74442
        55.097          42.918  
 112985679.116    88040805.8184   21500459.608 8  21500458.99946  21500466.15646
      5266.705        4103.938  
 119506686.793    93122120.6474   22741365.196 5  22741365.38542  22741370.99142
       359.534         280.164  
 117604033.597    91639520.4834   22379302.156 7  22379301.82645  22379306.95445
      2946.220        2295.746  
 119684904.855    93260979.6714   22775278.916 7  22775279.34644  22775284.00244
      2955.027        2302.602  
 120788840.118    94121200.5834   22985353.888 7  22985353.48645  22985355.42445
      5363.196        4179.114  
 122900813.129    95766874.1454   23387245.403 5  23387246.35242  23387250.12442
      6640.406        5174.379  
 125633900.923    97715276.717    23494173.157 5  23494174.058 5  23494179.414 6
     -1046.771        -814.143  
 125150319.050    97339157.330    23436635.677 6  23436636.070 6  23436641.378 6
      7212.392        5609.643  
 11  5 30 16 52 50.0000000  0 13R21R12R11R22G 9G25G27G14G 4G 2G29R20
                                R13                                 
 105974738.172    82424814.853    19803913.330 8  19803912.649 8  19803913.972 7
      1599.089        1243.743  
 104765716.706    81484465.974    19612361.248 8  19612361.593 8  19612367.758 7
      4976.861        3870.888  
 108718390.695    84558770.051    20345165.345 7  20345164.923 7  20345169.546 6
       729.223         567.165  
 107005010.308    83226137.592    20045643.979 8  20045643.212 7  20045647.069 8
      5809.951        4518.852  
 112857183.825    87940675.1604   21476009.691 6  21476007.86442  21476010.48542
        55.407          43.187  
 112959343.205    88020284.3324   21495448.168 8  21495447.65246  21495454.25146
      5267.304        4104.384  
 119504887.831    93120718.8604   22741021.779 5  22741022.58342  22741028.89242
       359.953         280.453  
 117589306.291    91628044.6344   22376499.043 7  22376498.52744  22376503.97544
      2944.507        2294.425  
 119670133.768    93249469.7244   22772469.292 7  22772468.56244  22772473.56744
      2953.373        2301.352  
 120762022.794    94100303.9694   22980250.068 7  22980249.95945  22980252.47845
      5363.432        4179.320  
 122867609.663    95741001.3884   23380924.995 5  23380927.09642  23380932.94542
      6641.140        5174.919  
 125639128.976    97719342.972    23495151.838 5  23495151.806 5  23495156.909 6
     -1044.773        -812.589  
 125114252.419    97311105.506    23429882.230 6  23429881.931 6  23429887.705 6
      7214.050        5610.929  
 11  5 30 16 52 55.0000000  0 13R21R12R11R22G 9G25G27G14G 4G 2G29R20
                                R13                                 
 105966747.197    82418599.648    19802420.001 8  19802419.222 8  19802421.135 7
      1597.364        1242.396  
 104740834.367    81465113.046    19607704.087 8  19607703.620 8  19607709.085 8
      4976.142        3870.341  
 108714746.338    84555935.550    20344482.778 7  20344482.989 7  20344487.617 6
       728.605         566.703  
 106975964.204    83203546.172    20040202.754 7  20040202.075 7  20040205.700 8
      5808.687        4517.861  
 112856909.592    87940461.4144   21475956.895 6  21475955.77442  21475958.61242
        54.780          42.705  
 112933004.706    87999760.8304   21490436.006 8  21490435.53446  21490442.08746
      5268.018        4104.960  
 119503086.410    93119315.1354   22740681.468 5  22740679.86342  22740685.52842
       360.682         281.110  
 117574585.803    91616574.1174   22373697.504 6  22373697.16145  22373703.05244
      2943.393        2293.556  
 119655370.024    93237965.4974   22769659.439 7  22769659.02244  22769663.70844
      2952.243        2300.445  
 120735205.937    94079407.7064   22975147.038 7  22975147.11745  22975149.49045
      5363.453        4179.326  
 122834401.827    95715125.1104   23374606.927 5  23374607.70242  23374614.39042
      6642.234        5175.771  
 125644350.688    97723404.281    23496129.300 5  23496128.293 5  23496133.828 6
     -1043.804        -811.849  
 125078177.037    97283046.893    23423127.033 6  23423125.462 6  23423131.347 6
      7215.858        5612.304  
 11  5 30 16 53  0.0000000  0 13R21R12R11R22G 9G25G27G14G 4G 2G29R20
                                R13                                 
 105958764.758    82412391.085    19800928.317 8  19800927.843 8  19800929.337 7
      1595.523        1240.974  
 104715956.565    81445763.647    19603046.487 8  19603046.125 8  19603051.738 8
      4975.088        3869.524  
 108711105.983    84553104.156    20343801.626 7  20343801.698 7  20343805.973 6
       727.784         566.064  
 106946925.324    83180960.412    20034763.620 7  20034762.441 7  20034766.019 8
      5807.019        4516.575  
 112856636.261    87940248.4154   21475904.842 6  21475903.78242  21475907.51542
        54.166          42.217  
 112906663.535    87979235.2344   21485423.028 8  21485423.13846  21485429.64046
      5268.459        4105.292  
 119501282.432    93117909.4194   22740339.242 6  22740338.02342  22740342.08742
       360.757         281.102  
 117559872.233    91605109.0024   22370897.750 7  22370897.58644  22370902.88944
      2941.889        2292.392  
 119640613.627    93226467.0114   22766851.518 7  22766851.58644  22766856.50544
      2950.595        2299.176  
 120708389.494    94058511.7814   22970044.000 7  22970043.69545  22970045.93545
      5363.237        4179.136  
 122801189.602    95689245.5164   23368286.527 5  23368287.43142  23368294.27642
      6642.473        5175.924  
 125649565.923    97727460.582    23497102.672 5  23497102.977 5  23497109.751 6
     -1042.709        -811.006  
 125042092.766    97254981.354    23416371.248 6  23416368.928 6  23416372.321 6
      7218.014        5614.000  
 11  5 30 16 53  5.0000000  0 13R21R12R11R22G 9G25G27G14G 4G 2G29R20
                                R13                                 
 105950791.212    82406189.429    19799438.835 8  19799437.899 8  19799438.862 7
      1593.873        1239.678  
 104691083.643    81426418.050    19598390.742 8  19598390.216 8  19598395.741 7
      4974.207        3868.835  
 108707469.895    84550276.078    20343122.379 7  20343121.715 7  20343126.142 6
       726.783         565.269  
 106917894.004    83158380.509    20029325.143 7  20029324.224 7  20029327.447 8
      5805.340        4515.266  
 112856364.216    87940036.4434   21475853.368 7  21475852.24542  21475855.98842
        54.265          42.210  
 112880320.051    87958707.8504   21480411.151 8  21480410.48246  21480416.62146
      5268.891        4105.636  
 119499476.244    93116502.0184   22739993.547 6  22739994.15642  22739998.38142
       361.537         281.723  
 117545165.881    91593649.5104   22368099.023 7  22368098.86044  22368104.39845
      2940.840        2291.579  
 119625864.935    93214974.5374   22764044.589 7  22764044.60444  22764049.86944
      2949.058        2297.963  
 120681573.779    94037616.4314   22964940.943 7  22964940.69545  22964943.27345
      5363.213        4179.119  
 122767973.312    95663362.6714   23361965.409 5  23361966.80642  23361973.44642
      6643.521        5176.770  
 125654775.034    97731512.103    23498077.380 5  23498077.180 5  23498083.209 6
     -1041.264        -809.868  
 125006000.134    97226909.306    23409612.117 6  23409610.568 6  23409613.882 6
      7219.359        5615.047  
 11  5 30 16 53 10.0000000  0 13R21R12R11R22G 9G25G27G14G 4G 2G29R20
                                R13                                 
 105942826.676    82399994.786    19797949.540 8  19797949.188 8  19797950.492 7
      1592.046        1238.265  
 104666215.779    81407076.375    19593734.701 8  19593734.410 8  19593739.670 7
      4973.109        3867.979  
 108703838.064    84547451.320    20342442.895 7  20342442.276 7  20342446.218 6
       725.938         564.615  
 106888870.492    83135806.658    20023887.539 7  20023886.936 7  20023890.651 7
      5803.798        4514.076  
 112856093.650    87939825.6054   21475801.288 6  21475800.41542  21475804.08342
        53.810          41.939  
 112853974.418    87938178.7914   21475397.398 8  21475396.95846  21475403.07646
      5269.308        4105.967  
 119497668.092    93115093.0634   22739650.114 5  22739649.53342  22739653.91442
       361.721         281.850  
 117530466.978    91582195.8144   22365302.038 7  22365301.66544  22365306.91444
      2939.089        2290.222  
 119611124.032    93203488.1184   22761239.579 7  22761239.51144  22761244.87044
      2947.315        2296.626  
 120654759.014    94016721.8134   22959839.259 7  22959838.63245  22959841.13945
      5362.993        4178.956  
 122734753.043    95637476.7184   23355645.880 5  23355645.61642  23355651.67442
      6644.435        5177.492  
 125659978.240    97735559.055    23499049.236 5  23499049.989 5  23499055.821 6
     -1040.000        -808.879  
 124969899.014    97198830.668    23402851.443 6  23402849.785 6  23402854.413 6
      7221.099        5616.420  
 11  5 30 16 53 15.0000000  0 13R21R12R11R22G 9G25G27G14G 4G 2G29R20
                                R13                                 
 105934871.111    82393807.126    19796462.871 8  19796462.586 8  19796463.721 7
      1590.344        1236.933  
 104641353.038    81387738.697    19589081.126 8  19589080.405 8  19589085.331 7
      4972.078        3867.173  
 108700210.625    84544629.973    20341763.297 7  20341763.432 7  20341767.130 6
       725.101         563.976  
 106859854.637    83113238.789    20018450.512 7  20018450.305 6  20018454.944 7
      5802.597        4513.125  
 112855824.536    87939615.8864   21475749.347 6  21475749.68942  21475752.81842
        53.760          41.887  
 112827626.659    87917648.0664   21470383.094 8  21470382.97246  21470389.44846
      5269.805        4106.350  
 119495857.949    93113682.5964   22739305.028 6  22739304.95242  22739309.88842
       362.142         282.173  
 117515775.434    91570747.8514   22362507.468 7  22362506.47344  22362511.34044
      2937.576        2289.033  
 119596390.988    93192007.8164   22758436.576 7  22758436.29444  22758441.50444
      2945.783        2295.414  
 120627945.247    93995827.9574   22954736.722 7  22954736.25545  22954738.61145
      5362.680        4178.743  
 122701528.837    95611587.7134   23349323.866 5  23349324.16242  23349329.12642
      6645.091        5177.975  
 125665175.614    97739601.457    23500022.152 5  23500022.289 5  23500027.244 6
     -1038.570        -807.784  
 124933789.756    97170745.694    23396088.621 6  23396087.553 6  23396091.314 6
      7223.039        5617.920  
 11  5 30 16 53 20.0000000  0 13R21R12R11R22G 9G25G27G14G 4G 2G29R20
                                R13                                 
 105926924.470    82387626.395    19794977.779 8  19794977.465 8  19794977.888 7
      1588.297        1235.353  
 104616495.277    81368404.875    19584426.851 8  19584426.507 8  19584431.271 7
      4970.952        3866.301  
 108696587.540    84541811.996    20341085.896 7  20341085.423 7  20341089.634 6
       724.151         563.242  
 106830846.551    83090676.965    20013015.890 6  20013015.612 6  20013021.018 8
      5800.942        4511.870  
 112855556.791    87939407.1994   21475699.581 5  21475698.74642  21475701.41442
        53.334          41.560  
 112801276.642    87897115.5914   21465369.481 8  21465368.91246  21465375.23846
      5270.212        4106.646  
 119494045.748    93112270.4934   22738959.642 6  22738958.96042  22738965.14042
       362.547         282.519  
 117501091.192    91559305.5824   22359712.198 7  22359711.65244  22359716.90044
      2936.002        2287.783  
 119581665.748    93180533.6024   22755634.001 7  22755633.96744  22755639.32944
      2944.289        2294.271  
 120601132.378    93974934.8224   22949633.647 7  22949633.75545  22949636.20245
      5362.297        4178.423  
 122668300.777    95585695.6874   23343001.699 6  23343001.34342  23343005.45342
      6645.976        5178.684  
 125670367.047    97743639.220    23500994.755 5  23500994.127 5  23500997.440 6
     -1038.094        -807.406  
 124897671.975    97142654.097    23389324.020 6  23389323.688 6  23389325.725 6
      7224.408        5618.976  
 11  5 30 16 53 25.0000000  0 13R21R12R11R22G 9G25G27G14G 4G 2G29R20
                                R13                                 
 105918986.834    82381452.679    19793494.698 8  19793494.407 8  19793494.898 7
      1586.446        1233.900  
 104591642.566    81349074.977    19579773.792 8  19579773.824 8  19579779.306 7
      4969.984        3865.534  
 108692968.781    84538997.415    20340409.270 7  20340408.736 7  20340411.995 6
       723.109         562.431  
 106801846.231    83068121.150    20007584.457 7  20007582.997 6  20007588.307 8
      5799.112        4510.420  
 112855290.418    87939199.6674   21475648.585 5  21475647.98542  21475650.74742
        53.409          41.635  
 112774924.562    87876581.5004   21460354.596 8  21460354.09446  21460360.60146
      5270.633        4106.964  
 119492231.574    93110856.7834   22738614.362 5  22738613.51142  22738619.33042
       362.768         282.637  
 117486414.377    91547869.0874   22356919.666 7  22356919.14744  22356923.48944
      2934.676        2286.750  
 119566948.326    93169065.4814   22752831.903 7  22752832.70444  22752839.18644
      2942.656        2292.969  
 120574320.429    93954042.4054   22944531.599 7  22944531.19945  22944534.15445
      5362.263        4178.369  
 122635068.789    95559800.6684   23336677.045 5  23336677.16843  23336681.57243
      6646.683        5179.279  
 125675552.539    97747672.381    23501963.551 5  23501963.767 5  23501967.423 6
     -1036.521        -806.177  
 124861545.972    97114556.122    23382559.593 6  23382558.509 6  23382561.025 6
      7225.701        5619.969  
 11  5 30 16 53 30.0000000  0 13R21R12R11R22G 9G25G27G14G 4G 2G29R20
                                R13                                 
 105911058.534    82375286.215    19792013.266 8  19792013.071 8  19792013.122 7
      1584.567        1232.443  
 104566795.421    81329749.437    19575122.890 8  19575122.301 8  19575127.954 7
      4968.789        3864.619  
 108689354.727    84536186.482    20339732.224 7  20339732.298 7  20339735.790 6
       722.252         561.736  
 106772854.070    83045571.727    20002151.887 7  20002151.579 7  20002156.740 8
      5797.488        4509.140  
 112855025.765    87938993.4614   21475599.231 5  21475597.50842  21475600.48342
        52.601          40.913  
 112748570.690    87856046.0424   21455338.638 8  21455338.28346  21455345.67246
      5270.843        4107.149  
 119490415.659    93109441.7714   22738268.741 5  22738268.62342  22738273.33542
       363.257         283.010  
 117471745.276    91536438.6424   22354129.202 7  22354128.30645  22354132.39945
      2933.038        2285.479  
 119552239.098    93157603.7474   22750033.460 7  22750033.99444  22750040.41744
      2941.009        2291.690  
 120547509.917    93933151.1184   22939430.428 7  22939429.60545  22939432.36045
      5361.841        4178.053  
 122601833.282    95533902.8834   23330352.120 5  23330353.08143  23330357.96143
      6646.966        5179.468  
 125680732.512    97751701.242    23502930.505 5  23502931.811 5  23502935.810 6
     -1035.303        -805.218  
 124825412.118    97086452.023    23375790.926 6  23375791.053 6  23375794.556 6
      7227.593        5621.462  
 11  5 30 16 53 35.0000000  0 13R21R12R11R22G 9G25G27G14G 4G 2G29R20
                                R13                                 
 105903139.819    82369127.216    19790532.527 8  19790532.510 8  19790533.047 7
      1582.773        1231.043  
 104541953.981    81310428.321    19570472.826 8  19570472.277 8  19570477.118 7
      4967.741        3863.790  
 108685745.757    84533379.490    20339057.031 7  20339056.474 7  20339060.385 6
       721.329         561.031  
 106743870.454    83023028.872    19996722.713 6  19996721.495 6  19996727.531 8
      5795.908        4507.913  
 112854763.442    87938789.0274   21475545.033 5  21475547.21242  21475549.75742
        52.076          40.621  
 112722215.338    87835509.3924   21450324.259 8  21450323.59646  21450330.56746
      5271.191        4107.411  
 119488598.322    93108025.6444   22737923.408 6  22737922.98042  22737927.24842
       363.641         283.302  
 117457084.236    91525014.4424   22351339.454 7  22351338.47644  22351342.17044
      2931.565        2284.347  
 119537538.428    93146148.6904   22747235.528 7  22747236.69944  22747242.96244
      2939.003        2290.121  
 120520701.061    93912261.1054   22934327.954 7  22934327.48144  22934330.54645
      5361.620        4177.868  
 122568594.550    95508002.5354   23324027.378 5  23324027.65643  23324032.81843
      6648.205        5180.416  
 125685907.148    97755725.943    23503898.975 5  23503899.097 5  23503904.202 6
     -1034.494        -804.603  
 124789270.600    97058341.972    23369024.588 6  23369023.956 6  23369026.224 6
      7229.250        5622.730  
 11  5 30 16 53 40.0000000  0 13R21R12R11R22G 9G25G27G14G 4G 2G29R20
                                R13                                 
 105895230.681    82362975.671    19789055.118 8  19789054.262 8  19789055.414 7
      1580.760        1229.486  
 104517118.293    81291111.680    19565823.889 8  19565823.290 8  19565828.609 7
      4966.572        3862.905  
 108682141.799    84530576.410    20338382.435 7  20338382.015 7  20338386.691 6
       720.310         560.250  
 106714895.129    83000492.524    19991294.453 7  19991294.096 7  19991298.908 8
      5794.084        4506.516  
 112854503.030    87938586.0394   21475493.319 4  21475495.32242  21475502.04142
        51.898          40.466  
 112695858.472    87814971.5844   21445308.309 8  21445307.86646  21445315.00846
      5271.538        4107.708  
 119486779.542    93106608.4424   22737573.431 5  22737575.49041  22737577.40842
       364.870         284.392  
 117442431.192    91513596.4904   22348551.073 7  22348550.46645  22348554.00844
      2929.848        2283.023  
 119522846.151    93134700.1714   22744440.095 7  22744440.68044  22744447.27844
      2937.614        2289.037  
 120493893.817    93891372.3584   22929226.409 7  22929226.40745  22929229.24245
      5361.361        4177.674  
 122535352.598    95482099.7594   23317701.054 5  23317701.74443  23317707.57843
      6648.448        5180.609  
 125691076.138    97759746.257    23504866.460 5  23504866.562 5  23504870.310 6
     -1033.094        -803.508  
 124753121.474    97030226.007    23362255.086 6  23362253.971 6  23362257.102 6
      7230.538        5623.736  
 11  5 30 16 53 45.0000000  0 13R21R12R11R22G 9G25G27G14G 4G 2G29R20
                                R13                                 
 105887330.987    82356831.458    19787578.508 8  19787577.919 8  19787579.576 7
      1579.039        1228.171  
 104492288.293    81271799.459    19561175.382 8  19561175.041 8  19561180.752 7
      4965.267        3861.863  
 108678542.688    84527777.109    20337708.661 7  20337708.594 7  20337713.245 6
       719.203         559.394  
 106685928.187    82977962.692    19985867.192 6  19985867.249 6  19985872.243 8
      5792.487        4505.305  
 112854244.278    87938384.4014   21475445.856 4  21475446.02442  21475451.37941
        52.878          41.267  
 112669500.087    87794432.5874   21440292.743 8  21440292.06146  21440299.17146
      5271.920        4108.001  
 119484959.424    93105190.2054   22737230.570 5  22737229.44841  22737234.49242
       363.518         283.251  
 117427786.096    91502184.7204   22345764.792 7  22345763.58045  22345767.16545
      2928.172        2281.679  
 119508162.359    93123258.2534   22741646.086 7  22741646.41944  22741653.07244
      2935.809        2287.644  
 120467088.178    93870484.8434   22924125.585 7  22924125.26945  22924128.41445
      5361.032        4177.429  
 122502107.340    95456194.3714   23311375.272 5  23311375.34843  23311381.41143
      6649.254        5181.285  
 125696239.611    97763762.268    23505832.605 5  23505832.370 5  23505836.732 6
     -1032.234        -802.849  
 124716964.722    97002104.093    23355481.272 6  23355482.252 6  23355486.467 6
      7232.384        5625.184  
 11  5 30 16 53 50.0000000  0 13R21R12R11R22G 9G25G27G14G 4G 2G29R20
                                R13                                 
 105879441.274    82350694.996    19786104.647 8  19786103.918 8  19786105.547 7
      1576.919        1226.515  
 104467464.504    81252492.064    19556528.475 8  19556528.434 8  19556533.245 7
      4964.153        3861.008  
 108674948.941    84524981.942    20337035.659 7  20337035.623 7  20337040.705 6
       718.108         558.542  
 106656970.036    82955439.701    19980441.579 7  19980441.516 7  19980447.077 7
      5790.764        4503.931  
 112853987.111    87938183.8634   21475401.426 4  21475397.78842  21475403.51541
        49.947          38.906  
 112643140.538    87773892.6664   21435277.083 8  21435276.47746  21435283.06746
      5272.095        4108.130  
 119483138.131    93103770.9444   22736883.972 5  22736883.16641  22736889.37541
       364.384         283.927  
 117413149.341    91490779.4464   22342979.670 7  22342978.60745  22342981.76745
      2926.482        2280.375  
 119493487.385    93111823.2014   22738853.831 7  22738853.79344  22738859.63344
      2933.957        2286.206  
 120440284.603    93849598.9424   22919024.711 7  22919024.71344  22919027.84244
      5360.252        4176.804  
 122468859.233    95430286.7454   23305047.842 5  23305048.59343  23305054.00743
      6649.747        5181.653  
 125701398.112    97767774.426    23506799.283 5  23506797.530 5  23506800.802 6
     -1031.107        -801.972  
 124680800.720    96973976.545    23348708.935 6  23348709.096 6  23348714.593 6
      7233.454        5626.031  
 11  5 30 16 53 55.0000000  0 13R21R12R11R22G 9G25G27G14G 4G 2G29R20
                                R13                                 
 105871561.766    82344566.489    19784632.433 8  19784631.221 8  19784633.186 7
      1575.017        1225.007  
 104442647.270    81233189.786    19551882.297 8  19551882.265 8  19551887.843 8
      4962.866        3860.008  
 108671360.861    84522191.210    20336365.317 7  20336364.816 7  20336369.351 6
       717.122         557.778  
 106628021.026    82932923.849    19975020.509 7  19975019.503 6  19975024.187 7
      5788.866        4502.443  
 112853733.709    87937986.4144   21475354.611 5  21475349.87541  21475356.11141
        50.755          39.537  
 112616780.242    87753352.1794   21430261.258 8  21430260.21346  21430266.54146
      5272.227        4108.228  
 119481316.148    93102351.2154   22736537.518 5  22736537.39641  22736544.09041
       364.456         283.984  
 117398521.300    91479380.9654   22340195.099 7  22340194.25945  22340198.44045
      2924.927        2279.121  
 119478821.564    93100395.2994   22736063.734 7  22736063.24544  22736068.45544
      2932.324        2284.921  
 120413483.379    93828714.8704   22913924.790 7  22913924.60945  22913928.15545
      5360.316        4176.869  
 122435608.639    95404377.1994   23298721.075 6  23298721.77543  23298726.30243
      6650.544        5182.246  
 125706552.225    97771783.170    23507761.052 5  23507761.339 5  23507764.447 6
     -1030.380        -801.409  
 124644629.950    96945843.735    23341933.290 6  23341935.203 6  23341939.336 5
      7234.984        5627.195  
 11  5 30 16 54  0.0000000  0 13R21R12R11R22G 9G25G27G14G 4G 2G29R20
                                R13                                 
 105863692.396    82338445.876    19783161.377 8  19783160.802 8  19783163.209 7
      1572.836        1223.329  
 104417836.469    81213892.495    19547238.096 8  19547237.771 8  19547243.086 8
      4961.671        3859.085  
 108667778.309    84519404.775    20335695.080 7  20335694.399 7  20335698.993 6
       715.999         556.899  
 106599081.214    82910415.114    19969598.856 7  19969598.359 7  19969602.562 7
      5787.071        4501.050  
 112853482.742    87937790.8054   21475304.369 4  21475300.95541  21475307.87541
        50.130          39.034  
 112590419.058    87732811.0024   21425244.497 8  21425243.68046  21425250.26546
      5272.415        4108.379  
 119479493.311    93100930.8084   22736191.169 6  22736190.56841  22736197.33241
       364.364         283.891  
 117383901.862    91467989.1994   22337412.900 7  22337412.27445  22337416.41945
      2923.079        2277.746  
 119464164.800    93088974.4404   22733275.068 7  22733274.65544  22733279.05244
      2930.465        2283.486  
 120386684.429    93807832.5864   22908824.859 7  22908824.65645  22908828.75945
      5359.632        4176.327  
 122402355.405    95378465.6514   23292392.772 5  23292393.53443  23292398.85543
      6650.759        5182.404  
 125711701.592    97775788.230    23508725.504 5  23508724.461 5  23508727.702 6
     -1029.626        -800.807  
 124608452.160    96917705.459    23335160.147 6  23335159.607 6  23335164.624 6
      7236.376        5628.280  
 11  5 30 16 54  5.0000000  0 13R21R12R11R22G 9G25G27G14G 4G 2G29R20
                                R13                                 
 105855833.204    82332333.182    19781692.506 8  19781692.105 8  19781694.306 7
      1570.982        1221.867  
 104393032.200    81194600.278    19542594.758 8  19542594.355 8  19542599.964 8
      4960.362        3858.078  
 108664201.501    84516622.797    20335023.856 7  20335024.679 7  20335029.445 6
       715.065         556.166  
 106570150.600    82887913.527    19964179.391 7  19964178.849 7  19964182.847 7
      5785.337        4499.686  
 112853234.754    87937597.5064   21475255.531 4  21475253.69941  21475261.03241
        49.587          38.633  
 112564057.096    87712269.2194   21420227.173 8  21420226.82346  21420233.71746
      5272.502        4108.469  
 119477669.773    93099509.8454   22735845.042 6  22735843.25441  22735851.11141
       364.867         284.345  
 117369291.116    91456604.1834   22334632.086 7  22334631.44244  22334635.71244
      2921.196        2276.284  
 119449517.273    93077560.7874   22730487.173 7  22730487.36044  22730491.18444
      2928.406        2281.894  
 120359887.905    93786952.1944   22903724.584 6  22903724.50344  22903729.53445
      5359.062        4175.875  
 122369099.662    95352552.1124   23286065.521 6  23286065.67243  23286070.78543
      6651.434        5182.911  
 125716846.121    97779789.516    23509684.129 5  23509685.061 5  23509689.858 6
     -1028.479        -799.924  
 124572267.660    96889561.965    23328383.776 6  23328383.097 6  23328388.363 6
      7237.831        5629.427  
 11  5 30 16 54 10.0000000  0 13R21R12R11R22G 9G25G27G14G 4G 2G29R20
                                R13                                 
 105847984.319    82326228.479    19780226.632 8  19780225.415 8  19780227.539 7
      1568.516        1219.973  
 104368234.515    81175313.193    19537952.530 8  19537952.128 8  19537957.501 8
      4958.789        3856.841  
 108660630.364    84513845.222    20334357.014 7  20334356.424 7  20334360.994 6
       713.617         555.043  
 106541229.308    82865419.199    19958762.263 7  19958761.608 7  19958764.797 7
      5783.195        4498.077  
 112852989.249    87937406.1674   21475209.375 4  21475207.50641  21475214.33441
        48.321          37.630  
 112537694.383    87691726.8384   21415211.089 8  21415210.61046  21415217.01046
      5272.598        4108.521  
 119475845.471    93098088.3004   22735498.312 6  22735496.40541  22735503.10141
       364.459         284.039  
 117354689.048    91445225.9584   22331854.093 7  22331853.28645  22331857.35944
      2919.466        2274.895  
 119434878.961    93066154.2864   22727701.129 7  22727701.86744  22727705.67744
      2926.345        2280.270  
 120333093.832    93766073.7114   22898626.449 6  22898625.77044  22898630.68844
      5358.499        4175.469  
 122335841.600    95326636.7664   23279738.185 6  23279737.00043  23279742.26443
      6651.653        5183.131  
 125721986.056    97783787.235    23510646.543 5  23510646.574 5  23510650.906 6
     -1027.672        -799.300  
 124536076.356    96861413.216    23321607.442 6  23321606.896 6  23321610.593 6
      7238.764        5630.138  
 11  5 30 16 54 15.0000000  0 13R21R12R11R22G 9G25G27G14G 4G 2G29R20
                                R13                                 
 105840146.559    82320132.445    19778760.928 8  19778760.760 8  19778762.917 7
      1566.563        1218.435  
 104343444.293    81156031.911    19533311.979 8  19533311.233 8  19533316.623 8
      4957.449        3855.798  
 108657065.865    84511072.834    20333689.590 7  20333689.432 7  20333693.740 6
       712.221         553.954  
 106512318.113    82842932.711    19953346.095 7  19953345.344 7  19953348.834 7
      5781.262        4496.554  
 112852747.445    87937217.7274   21475163.606 4  21475162.66641  21475168.18142
        48.157          37.528  
 112511331.844    87671184.6104   21410194.778 8  21410194.28646  21410200.63146
      5272.620        4108.527  
 119474021.346    93096666.9154   22735150.164 6  22735149.11241  22735155.06341
       365.051         284.470  
 117340096.641    91433855.2544   22329077.595 7  22329076.41744  22329080.38044
      2917.554        2273.417  
 119420250.681    93054755.6284   22724918.695 7  22724918.47044  22724921.22744
      2924.831        2279.089  
 120306303.062    93745197.7954   22893529.511 7  22893528.17944  22893533.07744
      5358.155        4175.169  
 122302581.941    95300720.1804   23273408.975 6  23273408.35743  23273413.01643
      6651.989        5183.350  
 125727122.059    97787781.894    23511604.544 5  23511606.285 5  23511611.620 6
     -1026.369        -798.283  
 124499879.144    96833259.828    23314827.782 6  23314827.767 6  23314830.935 5
      7239.939        5631.046  
 11  5 30 16 54 20.0000000  0 13R21R12R11R22G 9G25G27G14G 4G 2G29R20
                                R13                                 
 105832319.163    82314044.467    19777298.094 8  19777297.751 8  19777300.092 7
      1564.334        1216.705  
 104318660.882    81136755.931    19528671.810 8  19528671.704 8  19528677.353 8
      4956.094        3854.733  
 108653507.171    84508304.960    20333023.809 7  20333023.633 7  20333027.812 6
       711.007         553.013  
 106483416.305    82820453.522    19947931.831 7  19947931.334 7  19947934.099 7
      5779.351        4495.027  
 112852508.360    87937031.4184   21475113.224 5  21475117.34341  21475122.45942
        46.827          36.466  
 112484968.710    87650641.9144   21405178.536 8  21405177.88446  21405183.95446
      5272.694        4108.591  
 119472196.679    93095245.0564   22734802.447 5  22734802.33841  22734807.50041
       364.813         284.279  
 117325513.104    91422491.4484   22326301.724 7  22326301.21844  22326305.22944
      2916.029        2272.215  
 119405631.837    93043364.3064   22722136.064 7  22722136.93344  22722139.70244
      2922.952        2277.639  
 120279514.993    93724323.9784   22888432.067 7  22888430.82444  22888435.57545
      5357.295        4174.510  
 122269319.965    95274801.7594   23267079.166 6  23267078.54143  23267083.54843
      6652.491        5183.741  
 125732253.401    97791772.929    23512567.191 5  23512566.929 5  23512569.991 6
     -1025.540        -797.641  
 124463675.280    96805101.299    23308048.596 6  23308047.424 6  23308050.530 5
      7241.274        5632.107  
 11  5 30 16 54 25.0000000  0 13R21R12R11R22G 9G25G27G14G 4G 2G29R20
                                R13                                 
 105824502.448    82307964.802    19775837.163 8  19775836.785 8  19775839.546 7
      1562.262        1215.075  
 104293884.616    81117485.485    19524033.801 8  19524033.360 8  19524039.247 8
      4954.589        3853.564  
 108649954.635    84505541.873    20332359.401 7  20332358.875 7  20332362.674 6
       709.889         552.134  
 106454524.300    82797981.965    19942519.601 7  19942519.189 7  19942521.177 7
      5777.436        4493.553  
 112852272.355    87936847.5364   21475072.494 4  21475071.55542  21475077.49342
        47.737          37.245  
 112458605.333    87630099.0214   21400160.522 8  21400160.44546  21400166.92546
      5272.787        4108.683  
 119470371.743    93093822.9884   22734454.574 5  22734454.56741  22734459.65841
       365.138         284.552  
 117310938.787    91411134.8304   22323529.117 7  22323527.90544  22323531.70745
      2914.307        2270.875  
 119391022.632    93031980.5074   22719356.940 7  22719357.18844  22719359.56544
      2921.034        2276.142  
 120252729.812    93703452.4084   22883335.079 7  22883334.39945  22883338.47845
      5356.842        4174.146  
 122236056.110    95248881.8644   23260748.777 6  23260748.54543  23260753.31443
      6653.188        5184.287  
 125737380.330    97795760.531    23513524.576 5  23513525.449 5  23513529.123 6
     -1024.645        -796.956  
 124427465.223    96776937.910    23301267.821 6  23301267.245 5  23301271.192 5
      7242.610        5633.101  
 11  5 30 16 54 30.0000000  0 13R21R12R11R22G 9G25G27G14G 4G 2G29R20
                                R13                                 
 105816696.689    82301893.663    19774378.332 8  19774377.811 8  19774380.872 7
      1560.033        1213.347  
 104269115.695    81098220.770    19519397.054 8  19519396.689 8  19519402.396 7
      4952.977        3852.305  
 108646408.561    84502783.816    20331695.554 7  20331695.240 7  20331699.687 6
       708.497         551.016  
 106425642.313    82775518.185    19937108.326 7  19937108.050 7  19937111.151 7
      5775.571        4492.115  
 112852039.712    87936666.2384   21475029.675 4  21475026.75142  21475032.64442
        45.955          35.766  
 112432241.985    87609556.1414   21395143.880 8  21395143.42046  21395149.96646
      5272.555        4108.483  
 119468546.903    93092400.9874   22734106.072 4  22734107.32441  22734110.85741
       364.680         284.155  
 117296373.957    91399785.6114   22320757.664 7  22320756.99945  22320760.39445
      2911.922        2269.038  
 119376423.352    93020604.4534   22716578.830 7  22716578.62444  22716581.58144
      2918.917        2274.502  
 120225947.816    93682583.3374   22878237.969 6  22878237.79445  22878241.84245
      5356.099        4173.551  
 122202790.630    95222960.7054   23254418.767 6  23254418.51843  23254423.23843
      6653.274        5184.375  
 125742503.470    97799745.173    23514483.074 5  23514483.203 5  23514488.076 6
     -1024.212        -796.594  
 124391249.076    96748769.832    23294486.370 6  23294485.660 6  23294489.421 6
      7243.786        5634.047  
 11  5 30 16 54 35.0000000  0 13R21R12R11R22G 9G25G27G14G 4G 2G29R20
                                R13                                 
 105808901.923    82295831.060    19772922.141 8  19772921.610 8  19772924.285 7
      1557.862        1211.668  
 104244354.157    81078961.789    19514761.008 8  19514760.909 8  19514767.157 8
      4951.575        3851.229  
 108642868.758    84500030.616    20331033.323 7  20331032.861 7  20331037.565 6
       707.417         550.229  
 106396770.294    82753062.172    19931698.966 7  19931699.007 7  19931701.798 7
      5773.355        4490.376  
 112851810.909    87936487.8774   21474985.767 4  21474983.21142  21474989.84442
        45.074          35.150  
 112405878.614    87589013.2604   21390127.102 8  21390126.34146  21390133.31546
      5272.793        4108.653  
 119466722.014    93090978.9694   22733759.421 5  22733758.88841  22733762.20641
       364.878         284.264  
 117281818.546    91388443.7404   22317988.251 7  22317987.53945  22317990.83045
      2910.003        2267.556  
 119361834.059    93009236.1744   22713802.186 7  22713801.65144  22713805.74444
      2916.600        2272.665  
 120199169.083    93661716.7964   22873142.619 7  22873142.37445  22873145.99645
      5355.315        4172.947  
 122169523.368    95197038.1794   23248087.012 5  23248087.53143  23248092.96643
      6653.266        5184.360  
 125747622.487    97803726.628    23515441.770 5  23515441.222 5  23515445.145 6
     -1023.165        -795.794  
 124355027.030    96720597.150    23287703.125 6  23287702.675 6  23287706.782 6
      7245.009        5635.001  
 11  5 30 16 54 40.0000000  0 13R21R12R11R22G 9G25G27G14G 4G 2G29R20
                                R13                                 
 105801117.898    82289776.815    19771467.265 8  19771467.028 8  19771469.579 7
      1555.613        1209.906  
 104219600.004    81059708.553    19510127.749 8  19510127.417 8  19510132.941 8
      4950.109        3850.082  
 108639335.379    84497282.421    20330371.443 7  20330371.283 7  20330376.448 6
       705.851         548.998  
 106367908.286    82730613.955    19926291.562 7  19926291.564 7  19926295.107 7
      5771.364        4488.784  
 112851585.100    87936311.9024   21474939.090 5  21474939.69341  21474946.09742
        44.000          34.353  
 112379515.191    87568470.3364   21385110.189 8  21385109.64446  21385116.70846
      5272.758        4108.633  
 119464896.861    93089556.7974   22733412.538 4  22733412.75241  22733416.04941
       364.714         284.245  
 117267272.479    91377109.1494   22315219.996 7  22315219.36545  22315222.83345
      2908.220        2266.127  
 119347254.536    92997875.4794   22711027.171 6  22711027.16544  22711031.28444
      2915.342        2271.717  
 120172393.487    93640852.7074   22868046.525 7  22868046.39645  22868050.52845
      5354.769        4172.541  
 122136254.379    95171114.3074   23241756.313 5  23241756.98543  23241761.31043
      6653.809        5184.792  
 125752737.418    97807704.912    23516398.208 5  23516397.358 5  23516402.320 6
     -1022.600        -795.362  
 124318798.903    96692419.699    23280917.993 6  23280918.505 6  23280922.899 6
      7245.993        5635.770  
 11  5 30 16 54 45.0000000  0 13R21R12R11R22G 9G25G27G14G 4G 2G29R20
                                R13                                 
 105793345.209    82283731.402    19770014.455 8  19770014.555 8  19770016.647 7
      1553.447        1208.257  
 104194853.694    81040461.430    19505495.201 8  19505495.000 8  19505500.007 8
      4948.422        3848.758  
 108635808.859    84494539.550    20329711.567 7  20329711.644 7  20329716.586 6
       704.798         548.192  
 106339056.831    82708173.953    19920885.944 7  19920886.393 7  19920890.371 7
      5769.178        4487.175  
 112851363.118    87936138.8624   21474897.782 5  21474897.66641  21474903.99942
        43.912          34.199  
 112353152.225    87547927.7824   21380093.151 8  21380092.63946  21380099.91246
      5272.489        4108.397  
 119463072.200    93088134.9774   22733066.110 5  22733065.20941  22733067.02841
       364.724         284.370  
 117252736.332    91365782.2774   22312452.958 7  22312452.80745  22312456.96045
      2906.309        2264.645  
 119332685.452    92986522.9534   22708254.243 6  22708254.10344  22708258.95944
      2912.728        2269.691  
 120145621.593    93619991.5094   22862951.948 7  22862951.68145  22862955.68145
      5353.930        4171.885  
 122102984.226    95145189.5404   23235426.224 6  23235426.13843  23235430.52443
      6654.064        5185.015  
 125757848.753    97811680.361    23517353.479 5  23517352.645 5  23517357.396 6
     -1021.811        -794.753  
 124282565.185    96664237.953    23274136.164 6  23274134.311 6  23274136.989 6
      7247.402        5636.872  
 11  5 30 16 54 50.0000000  0 13R21R12R11R22G 9G25G27G14G 4G 2G29R20
                                R13                                 
 105785583.690    82277694.660    19768565.822 8  19768564.718 8  19768566.081 7
      1551.245        1206.527  
 104170115.072    81021220.279    19500864.700 8  19500863.935 8  19500868.852 8
      4947.022        3847.684  
 108632288.843    84491801.758    20329052.478 7  20329052.441 7  20329057.554 6
       703.299         546.995  
 106310215.568    82685741.844    19915484.084 7  19915483.848 7  19915487.037 7
      5767.060        4485.491  
 112851144.612    87935968.5854   21474859.503 5  21474856.95442  21474862.27842
        43.497          33.877  
 112326789.513    87527385.4094   21375076.987 8  21375076.18246  21375082.76846
      5272.615        4108.528  
 119461247.685    93086713.2374   22732716.744 4  22732719.19541  22732717.80241
       364.917         284.344  
 117238209.824    91354462.9194   22309689.292 7  22309688.68445  22309692.85445
      2904.368        2263.155  
 119318126.473    92975178.2944   22705484.154 6  22705484.06544  22705488.26744
      2910.750        2268.150  
 120118853.193    93599133.0044   22857858.647 7  22857857.88645  22857862.13945
      5353.315        4171.416  
 122069712.605    95119263.5914   23229095.056 5  23229095.06743  23229098.99443
      6654.382        5185.188  
 125762956.162    97815652.787    23518308.271 5  23518308.522 5  23518312.665 6
     -1020.848        -793.988  
 124246325.836    96636051.817    23267347.288 6  23267347.265 6  23267350.268 6
      7248.461        5637.708  
 11  5 30 16 54 55.0000000  0 13R21R12R11R22G 9G25G27G14G 4G 2G29R20
                                R13                                 
 105777833.353    82271666.608    19767116.857 8  19767116.441 8  19767117.414 7
      1548.996        1204.784  
 104145384.061    81001985.052    19496235.045 8  19496234.401 8  19496239.232 8
      4945.373        3846.403  
 108628775.588    84489069.211    20328395.464 7  20328394.941 7  20328400.005 6
       701.976         545.992  
 106281384.677    82663317.817    19910083.045 7  19910082.707 7  19910086.334 7
      5765.202        4484.048  
 112850929.683    87935801.0884   21474815.773 5  21474816.09042  21474820.85142
        42.655          33.193  
 112300427.049    87506843.2354   21370060.558 8  21370059.49446  21370065.67146
      5272.496        4108.424  
 119459423.415    93085291.7264   22732371.773 4  22732369.92141  22732372.36141
       364.999         284.471  
 117223692.997    91343151.0994   22306926.822 7  22306926.05245  22306930.52145
      2902.354        2261.549  
 119303577.710    92963841.5964   22702714.732 6  22702715.39944  22702720.33444
      2908.631        2266.498  
 120092088.276    93578277.2444   22852764.051 7  22852764.19545  22852768.89144
      5352.745        4170.955  
 122036439.641    95093336.6034   23222762.370 5  23222762.45143  23222767.94043
      6654.482        5185.319  
 125768059.871    97819622.331    23519263.282 5  23519262.212 5  23519267.161 6
     -1020.119        -793.427  
 124210080.716    96607861.156    23260561.692 6  23260560.502 6  23260563.158 6
      7249.656        5638.615  
 11  5 30 16 55  0.0000000  0 13R21R12R11R22G 9G25G27G14G 4G 2G29R20
                                R13                                 
 105770094.726    82265647.681    19765670.783 8  19765670.164 8  19765671.214 7
      1546.488        1202.837  
 104120661.513    80982756.404    19491606.720 8  19491606.352 8  19491611.126 8
      4943.679        3845.085  
 108625269.668    84486342.379    20327738.844 7  20327739.027 7  20327743.294 6
       700.471         544.802  
 106252564.811    82640902.319    19904685.016 8  19904684.607 7  19904687.875 7
      5762.865        4482.224  
 112850719.121    87935637.0074   21474773.694 5  21474775.16642  21474780.88343
        41.552          32.384  
 112274065.598    87486301.8504   21365045.069 8  21365043.95146  21365049.22946
      5272.268        4108.265  
 119457600.048    93083870.9234   22732023.418 5  22732022.73041  22732029.18841
       364.672         284.168  
 117209186.587    91331847.3824   22304166.233 7  22304165.78445  22304169.99045
      2900.157        2259.885  
 119289039.778    92952513.3404   22699948.397 6  22699948.85244  22699954.02644
      2906.325        2264.675  
 120065327.663    93557424.8134   22847672.346 7  22847671.62145  22847676.71545
      5351.720        4170.168  
 122003165.967    95067409.1104   23216430.663 5  23216429.91343  23216436.76143
      6654.771        5185.524  
 125773160.452    97823589.421    23520216.829 5  23520216.325 5  23520220.672 6
     -1020.237        -793.513  
 124173830.641    96579666.653    23253769.493 6  23253770.747 6  23253774.977 6
      7250.622        5639.387  
 11  5 30 16 55  5.0000000  0 13R21R12R11R22G 9G25G27G14G 4G 2G29R20
                                R13                                 
 105762367.541    82259637.634    19764227.278 8  19764226.434 8  19764227.001 7
      1544.224        1201.067  
 104095946.987    80963534.009    19486979.385 8  19486979.584 8  19486984.311 7
      4941.900        3843.698  
 108621770.581    84483620.868    20327084.517 7  20327084.298 7  20327088.533 6
       699.077         543.713  
 106223755.649    82618495.198    19899287.723 7  19899287.490 7  19899291.092 7
      5760.618        4480.481  
 112850512.286    87935475.8204   21474737.484 5  21474736.12142  21474741.40343
        40.743          31.737  
 112247704.743    87465760.9164   21360028.490 9  21360027.69246  21360033.28846
      5272.010        4108.078  
 119455777.121    93082450.4734   22731677.857 5  22731677.28841  22731682.04041
       364.031         283.672  
 117194690.124    91320551.4404   22301407.882 7  22301407.25445  22301411.34945
      2898.174        2258.356  
 119274512.331    92941193.2664   22697183.421 7  22697184.10444  22697189.51544
      2904.291        2263.122  
 120038570.814    93536575.3424   22842580.111 7  22842579.85244  22842584.74045
      5351.038        4169.618  
 121969891.247    95041480.7564   23210097.942 5  23210097.33943  23210104.57243
      6654.872        5185.578  
 125778257.277    97827553.613    23521169.253 5  23521170.060 5  23521174.076 6
     -1018.824        -792.399  
 124137575.152    96551467.949    23246982.568 6  23246982.478 6  23246985.505 6
      7251.543        5640.116  
 11  5 30 16 55 10.0000000  0 13R21R12R11R22G 9G25G27G14G 4G 2G29R20
                                R13                                 
 105754652.305    82253636.895    19762784.178 8  19762783.413 8  19762784.993 7
      1541.801        1199.178  
 104071241.088    80944318.312    19482354.634 8  19482354.181 8  19482359.555 8
      4940.323        3842.469  
 108618279.042    84480905.227    20326430.746 7  20326430.570 7  20326435.722 6
       697.512         542.504  
 106194957.587    82596096.736    19893892.781 7  19893892.287 7  19893895.976 7
      5758.593        4478.912  
 112850309.898    87935318.1394   21474699.514 5  21474697.89543  21474702.90743
        39.987          31.187  
 112221344.982    87445220.8424   21355011.826 8  21355011.68846  21355017.55246
      5271.695        4107.812  
 119453955.133    93081030.7264   22731333.354 4  22731331.73941  22731335.38341
       364.457         283.975  
 117180204.111    91309263.6494   22298650.933 7  22298650.50444  22298654.23145
      2896.188        2256.764  
 119259995.876    92929881.7294   22694420.673 6  22694421.21144  22694427.64844
      2902.033        2261.319  
 120011818.389    93515729.3104   22837490.336 7  22837489.61145  22837494.05245
      5349.846        4168.707  
 121936616.016    95015552.0154   23203766.143 6  23203766.14043  23203772.39443
      6654.988        5185.725  
 125783351.074    97831515.442    23522119.288 5  23522120.867 5  23522127.516 6
     -1018.713        -792.342  
 124101314.930    96523265.560    23240191.185 6  23240191.374 6  23240194.507 6
      7252.678        5640.969  
 11  5 30 16 55 15.0000000  0 13R21R12R11R22G 9G25G27G14G 4G 2G29R20
                                R13                                 
 105746948.932    82247645.392    19761344.861 8  19761344.233 8  19761345.982 7
      1539.401        1197.325  
 104046543.773    80925109.291    19477731.786 8  19477731.034 8  19477736.100 7
      4938.604        3841.138  
 108614794.957    84478195.383    20325778.902 7  20325779.062 7  20325783.169 6
       695.945         541.291  
 106166170.857    82573707.043    19888500.125 8  19888499.625 7  19888503.691 7
      5756.110        4476.971  
 112850111.965    87935163.9074   21474661.080 6  21474660.40343  21474665.82243
        39.306          30.651  
 112194986.378    87424681.6614   21349996.227 8  21349995.99346  21350001.62046
      5271.621        4107.760  
 119452134.401    93079611.9084   22730987.137 5  22730985.31041  22730988.86241
       363.967         283.532  
 117165728.743    91297984.1554   22295896.597 7  22295895.45944  22295899.33344
      2893.965        2255.064  
 119245490.513    92918578.8514   22691661.117 6  22691660.78544  22691667.03144
      2899.715        2259.496  
 119985070.396    93494886.7074   22832401.158 7  22832399.91745  22832403.93345
      5348.974        4168.025  
 121903340.310    94989622.8894   23197434.448 5  23197434.45843  23197440.09643
      6655.276        5185.942  
 125788441.793    97835474.893    23523075.283 5  23523073.969 5  23523078.931 6
     -1017.665        -791.526  
 124065049.956    96495059.495    23233398.940 6  23233399.487 6  23233403.643 6
      7253.311        5641.462  
 11  5 30 16 55 20.0000000  0 13R21R12R11R22G 9G25G27G14G 4G 2G29R20
                                R13                                 
 105739257.188    82241662.919    19759906.389 8  19759906.486 8  19759908.540 7
      1537.125        1195.519  
 104021854.739    80905906.725    19473109.479 8  19473108.977 8  19473114.101 8
      4937.036        3839.904  
 108611317.949    84475491.016    20325128.783 7  20325128.364 7  20325132.951 6
       694.639         540.270  
 106137394.934    82551325.803    19883109.143 7  19883108.838 7  19883112.865 7
      5754.096        4475.385  
 112849918.141    87935012.8414   21474625.635 6  21474624.50543  21474629.03543
        38.240          29.799  
 112168628.582    87404143.1304   21344980.507 8  21344980.19746  21344986.05746
      5271.489        4107.650  
 119450314.156    93078193.4984   22730639.925 5  22730638.30641  22730643.86141
       363.914         283.604  
 117151263.554    91286712.5794   22293143.573 7  22293142.44444  22293146.49444
      2891.921        2253.419  
 119230995.808    92907284.2874   22688902.977 6  22688902.74544  22688908.66844
      2897.619        2257.863  
 119958326.474    93474047.2944   22827311.736 7  22827311.03345  22827314.15145
      5348.285        4167.483  
 121870063.678    94963693.0734   23191099.544 5  23191101.31843  23191107.70643
      6654.826        5185.549  
 125793529.085    97839431.661    23524025.472 5  23524025.196 5  23524030.412 6
     -1016.626        -790.718  
 124028779.731    96466849.327    23226607.150 6  23226606.325 6  23226611.232 6
      7254.656        5642.512  
 11  5 30 16 55 25.0000000  0 13R21R12R11R22G 9G25G27G14G 4G 2G29R20
                                R13                                 
 105731577.314    82235689.675    19758472.430 8  19758471.696 8  19758473.841 7
      1534.818        1193.761  
 103997174.185    80886710.730    19468488.776 8  19468488.395 8  19468494.081 8
      4935.291        3838.573  
 108607848.346    84472792.428    20324479.118 7  20324479.068 7  20324483.527 6
       693.279         539.240  
 106108630.180    82528953.204    19877721.298 8  19877720.555 7  19877724.324 7
      5751.715        4473.585  
 112849728.441    87934865.0064   21474589.601 6  21474588.86843  21474592.96443
        37.903          29.507  
 112142271.817    87383605.3744   21339964.611 8  21339964.52046  21339970.55846
      5271.192        4107.447  
 119448494.837    93076775.8304   22730292.654 4  22730292.78241  22730296.32141
       363.312         283.104  
 117136808.739    91275449.0814   22290392.413 7  22290391.28844  22290395.92944
      2889.800        2251.785  
 119216512.059    92895998.2404   22686147.021 6  22686146.73444  22686152.56844
      2895.862        2256.512  
 119931586.891    93453211.2554   22822223.008 7  22822222.43745  22822225.73345
      5347.613        4166.969  
 121836786.568    94937762.8134   23184766.053 4  23184768.54242  23184775.45643
      6655.016        5185.710  
 125798613.245    97843385.997    23524978.596 5  23524977.144 5  23524980.732 6
     -1016.825        -790.870  
 123992504.699    96438635.446    23219815.242 6  23219814.526 6  23219818.351 6
      7255.709        5643.304  
 11  5 30 16 55 30.0000000  0 13R21R12R11R22G 9G25G27G14G 4G 2G29R20
                                R13                                 
 105723909.378    82229725.724    19757039.416 8  19757038.921 8  19757041.191 7
      1532.428        1191.881  
 103972502.483    80867521.626    19463870.256 8  19463869.558 8  19463875.403 7
      4933.364        3837.076  
 108604386.326    84470099.729    20323829.564 7  20323830.647 7  20323835.455 6
       691.543         537.871  
 106079876.823    82506589.482    19872334.920 8  19872334.039 8  19872337.295 7
      5749.531        4471.846  
 112849543.333    87934720.7284   21474555.091 6  21474554.18943  21474557.82043
        36.663          28.591  
 112115916.342    87363068.6384   21334949.506 8  21334948.96646  21334955.11646
      5270.847        4107.154  
 119446676.657    93075359.1074   22729947.667 5  22729947.74241  22729949.28541
       363.811         283.400  
 117122364.610    91264193.9064   22287643.276 7  22287642.39244  22287647.09344
      2887.716        2250.152  
 119202039.429    92884720.8994   22683392.140 6  22683392.34044  22683398.82344
      2893.145        2254.401  
 119904851.886    93432378.8064   22817135.862 7  22817135.43845  22817138.04645
      5346.465        4166.069  
 121803509.075    94911832.3284   23178433.322 4  23178435.30542  23178443.09443
      6656.202        5186.603  
 125803694.520    97847338.095    23525926.129 5  23525926.093 5  23525930.513 6
     -1016.707        -790.786  
 123956225.174    96410418.055    23213020.341 6  23213019.123 6  23213024.034 6
      7256.254        5643.747  
 11  5 30 16 55 35.0000000  0 13R21R12R11R22G 9G25G27G14G 4G 2G29R20
                                R13                                 
 105716253.491    82223771.142    19755608.910 8  19755607.965 8  19755611.017 7
      1529.808        1189.863  
 103947839.556    80848339.342    19459252.667 8  19459252.350 8  19459258.469 7
      4931.592        3835.682  
 108600931.995    84467413.023    20323184.990 7  20323184.052 7  20323189.602 6
       690.061         536.735  
 106051134.973    82484234.702    19866950.097 8  19866949.513 8  19866952.976 7
      5747.079        4469.935  
 112849362.710    87934579.9974   21474519.895 6  21474519.81943  21474523.35243
        35.657          27.747  
 112089562.138    87342532.9174   21329933.960 8  21329933.24846  21329940.44846
      5270.623        4106.978  
 119444859.638    93073943.2884   22729601.928 5  22729601.80041  22729604.76841
       363.639         283.386  
 117107931.142    91252947.0474   22284895.075 6  22284895.69044  22284900.78844
      2885.527        2248.445  
 119187577.963    92873452.2264   22680641.512 7  22680641.01944  22680646.99744
      2891.051        2252.760  
 119878121.481    93411549.9174   22812049.928 7  22812048.98745  22812051.30845
      5345.398        4165.226  
 121770231.254    94885901.5894   23172101.512 4  23172102.24742  23172110.25842
      6655.843        5186.340  
 125808772.780    97851287.844    23526876.028 5  23526875.340 5  23526880.620 6
     -1015.640        -789.979  
 123919940.968    96382197.027    23206227.009 6  23206225.973 6  23206228.103 6
      7256.985        5644.311  
 11  5 30 16 55 40.0000000  0 13R21R12R11R22G 9G25G27G14G 4G 2G29R20
                                R13                                 
 105708609.982    82217826.191    19754180.942 8  19754179.926 8  19754182.390 7
      1527.472        1188.036  
 103923185.786    80829164.185    19454637.819 8  19454637.437 8  19454643.467 8
      4929.769        3834.259  
 108597485.445    84464732.357    20322539.000 7  20322539.120 7  20322544.918 6
       688.668         535.622  
 106022404.768    82461888.995    19861567.277 8  19861567.100 7  19861571.135 7
      5744.823        4468.210  
 112849186.880    87934443.0004   21474486.600 6  21474486.16443  21474490.30843
        34.631          27.021  
 112063209.575    87321998.4584   21324918.847 8  21324918.44046  21324925.45346
      5270.426        4106.822  
 119443044.139    93072528.5794   22729255.221 5  22729254.42541  22729259.82541
       363.093         282.819  
 117093508.630    91241708.7084   22282151.261 7  22282151.22144  22282155.97244
      2883.344        2246.785  
 119173128.004    92862192.5084   22677891.360 7  22677891.28944  22677897.09244
      2888.887        2251.077  
 119851396.013    93390724.8904   22806963.583 7  22806963.07045  22806965.96845
      5344.544        4164.587  
 121736953.475    94859970.8684   23165768.203 4  23165770.40142  23165777.50342
      6655.433        5186.081  
 125813848.310    97855235.469    23527824.675 5  23527824.771 5  23527830.031 6
     -1014.843        -789.314  
 123883652.463    96353972.637    23199430.385 6  23199429.894 6  23199431.967 6
      7258.126        5645.217  
 11  5 30 16 55 45.0000000  0 13R21R12R11R22G 9G25G27G14G 4G 2G29R20
                                R13                                 
 105700978.700    82211890.753    19752754.791 8  19752754.302 8  19752756.413 7
      1525.051        1186.162  
 103898541.145    80809996.132    19450024.741 8  19450024.187 8  19450029.898 7
      4927.941        3832.849  
 108594046.851    84462057.885    20321895.513 7  20321896.023 7  20321901.372 6
       686.912         534.266  
 105993686.347    82439552.435    19856188.006 8  19856187.497 7  19856191.741 7
      5742.505        4466.354  
 112849015.842    87934309.7124   21474454.088 6  21474453.57343  21474457.64443
        33.660          26.240  
 112036858.549    87301465.2014   21319904.876 8  21319904.05746  21319911.02146
      5269.914        4106.426  
 119441230.035    93071114.9464   22728908.406 5  22728907.67141  22728916.44141
       362.773         282.651  
 117079096.997    91230478.8674   22279408.610 7  22279408.56144  22279414.00044
      2881.033        2244.976  
 119158689.489    92850941.7254   22675144.015 7  22675144.18144  22675149.80444
      2886.880        2249.490  
 119824675.422    93369903.6234   22801878.197 7  22801877.75445  22801881.31845
      5343.667        4163.889  
 121703675.756    94834040.1484   23159435.716 4  23159438.06242  23159444.93742
      6654.762        5185.507  
 125818921.285    97859181.106    23528772.899 5  23528773.822 5  23528778.954 6
     -1014.381        -788.962  
 123847359.655    96325744.889    23192634.230 6  23192634.197 6  23192636.261 6
      7259.415        5646.221  
 11  5 30 16 55 50.0000000  0 13R21R12R11R22G 9G25G27G14G 4G 2G29R20
                                R13                                 
 105693359.660    82205964.832    19751330.615 8  19751330.076 8  19751332.274 7
      1522.514        1184.168  
 103873905.664    80790835.196    19445413.619 8  19445412.764 8  19445418.029 7
      4926.125        3831.427  
 108590616.001    84459389.448    20321254.123 7  20321254.139 7  20321259.211 6
       685.378         533.081  
 105964979.605    82417224.965    19850810.020 8  19850809.785 8  19850813.914 7
      5740.073        4464.501  
 112848849.520    87934180.1014   21474421.843 6  21474421.84543  21474426.21643
        32.662          25.449  
 112010509.109    87280933.1804   21314890.856 8  21314890.10446  21314896.92446
      5269.721        4106.271  
 119439417.343    93069702.4724   22728564.736 4  22728563.69141  22728570.18041
       362.646         282.592  
 117064696.288    91219257.5224   22276669.082 7  22276669.02344  22276673.55944
      2878.938        2243.335  
 119144262.545    92839699.9544   22672399.496 7  22672399.48444  22672404.58144
      2884.183        2247.444  
 119797959.730    93349086.2174   22796794.994 7  22796793.93845  22796797.03345
      5342.578        4163.047  
 121670387.720    94808120.2004   23153106.200 5  23153105.78042  23153111.88242
      6655.100        5185.780  
 125823991.478    97863124.579    23529720.849 5  23529721.144 5  23529727.857 6
     -1013.801        -788.506  
 123811062.637    96297513.877    23185834.745 6  23185836.055 6  23185839.272 6
      7259.947        5646.629  
 11  5 30 16 55 55.0000000  0 13R21R12R11R22G 9G25G27G14G 4G 2G29R20
                                R13                                 
 105685753.153    82200048.672    19749908.674 8  19749908.167 8  19749910.225 7
      1520.230        1182.404  
 103849279.440    80771681.474    19440803.473 8  19440803.220 8  19440807.605 7
      4924.397        3830.096  
 108587193.237    84456727.270    20320613.400 7  20320613.641 7  20320618.446 6
       683.752         531.805  
 105936284.722    82394906.754    19845434.341 8  19845433.929 8  19845438.187 7
      5737.833        4462.769  
 112848688.196    87934054.3324   21474391.905 6  21474391.45043  21474395.34843
        31.782          24.769  
 111984161.496    87260402.5694   21309876.837 8  21309876.54446  21309882.72246
      5269.364        4106.007  
 119437606.191    93068291.1864   22728220.845 5  22728219.75241  22728226.45841
       362.270         282.339  
 117050306.683    91208044.8314   22273931.581 7  22273930.73244  22273935.17644
      2876.932        2241.785  
 119129847.141    92828467.1744   22669656.471 7  22669656.50544  22669660.89344
      2881.994        2245.717  
 119771249.155    93328272.7784   22791712.293 7  22791711.42645  22791713.84545
      5341.601        4162.292  
 121637110.060    94782189.5594   23146769.475 4  23146772.73742  23146779.12542
      6655.551        5186.115  
 125829058.962    97867065.942    23530668.517 5  23530668.892 5  23530674.745 6
     -1012.622        -787.567  
 123774761.548    96269279.702    23179037.329 6  23179037.812 6  23179040.784 6
      7260.661        5647.172  
 11  5 30 16 56  0.0000000  0 13R21R12R11R22G 9G25G27G14G 4G 2G29R20
                                R13                                 
 105678159.004    82194142.096    19748489.966 8  19748489.504 8  19748490.984 7
      1517.370        1180.184  
 103824662.448    80752534.930    19436194.891 8  19436194.604 8  19436199.427 8
      4922.341        3828.491  
 108583778.507    84454071.386    20319975.072 7  20319975.050 7  20319979.537 6
       682.080         530.505  
 105907601.819    82372597.812    19840061.368 8  19840060.477 7  19840065.165 7
      5735.243        4460.747  
 112848531.716    87933932.4234   21474361.388 6  21474361.49143  21474365.75643
        30.663          23.883  
 111957815.586    87239873.2884   21304863.054 8  21304862.99846  21304869.63346
      5268.824        4105.575  
 119435796.666    93066881.0934   22727877.032 5  22727875.59541  22727882.03241
       361.486         281.781  
 117035928.161    91196840.7894   22271196.116 7  22271195.28145  22271199.20245
      2874.531        2239.909  
 119115443.327    92817243.4254   22666915.521 7  22666915.27544  22666920.30444
      2879.226        2243.559  
 119744543.639    93307463.3024   22786630.320 7  22786629.43245  22786632.53845
      5340.438        4161.395  
 121603832.371    94756258.9604   23140438.147 4  23140439.47742  23140447.22441
      6655.569        5186.160  
 125834123.833    97871005.291    23531617.848 5  23531615.616 5  23531622.141 6
     -1012.829        -787.771  
 123738456.343    96241042.346    23172241.238 6  23172239.805 6  23172242.003 6
      7261.090        5647.509  
 11  5 30 16 56  5.0000000  0 13R21R12R11R22G 9G25G27G14G 4G 2G29R20
                                R13                                 
 105670577.748    82188245.565    19747072.813 8  19747072.449 8  19747073.796 7
      1514.929        1178.290  
 103800055.362    80733396.089    19431588.474 8  19431588.242 8  19431592.763 7
      4920.473        3827.042  
 108580372.241    84451422.048    20319337.605 7  20319337.764 7  20319342.555 6
       680.377         529.208  
 105878931.190    82350298.471    19834690.722 8  19834690.137 8  19834693.826 7
      5732.676        4458.740  
 112848380.619    87933814.6864   21474333.131 6  21474332.31643  21474337.26343
        29.429          22.949  
 111931471.925    87219345.7654   21299850.615 8  21299850.04646  21299856.51346
      5268.429        4105.274  
 119433989.157    93065472.6464   22727534.276 6  22727531.72341  22727537.83441
       361.709         281.915  
 117021561.208    91185645.7534   22268462.181 7  22268461.23044  22268465.42744
      2872.220        2238.100  
 119101051.627    92806029.1094   22664176.984 7  22664177.07144  22664180.87944
      2877.307        2242.065  
 119717843.729    93286658.1974   22781549.441 7  22781548.83545  22781551.54945
      5339.204        4160.425  
 121570555.506    94730328.9454   23134109.063 4  23134107.29942  23134114.06141
      6655.051        5185.778  
 125839186.703    97874943.068    23532565.087 5  23532564.094 5  23532568.738 6
     -1012.451        -787.463  
 123702147.482    96212802.145    23165441.304 6  23165440.374 6  23165443.307 6
      7262.092        5648.292  
 11  5 30 16 56 10.0000000  0 13R21R12R11R22G 9G25G27G14G 4G 2G29R20
                                R13                                 
 105663009.041    82182358.786    19745658.245 8  19745657.973 8  19745659.099 7
      1512.401        1176.313  
 103775457.717    80714264.596    19426983.218 8  19426983.106 8  19426988.333 8
      4918.631        3825.597  
 108576974.077    84448779.026    20318701.764 7  20318701.999 7  20318706.669 6
       678.793         527.953  
 105850272.765    82328008.578    19829322.673 8  19829321.811 8  19829325.238 7
      5730.331        4456.970  
 112848234.530    87933700.8504   21474303.741 6  21474304.08843  21474309.45043
        28.643          22.335  
 111905130.170    87198819.7054   21294838.311 8  21294837.45246  21294843.95046
      5268.078        4104.999  
 119432183.347    93064065.4604   22727187.427 5  22727188.80141  22727194.79141
       360.903         281.201  
 117007205.481    91174459.4744   22265730.798 7  22265729.63445  22265733.65544
      2869.882        2236.266  
 119086671.682    92794823.9524   22661440.194 7  22661440.51044  22661444.29944
      2875.025        2240.308  
 119691149.045    93265857.1454   22776469.477 7  22776468.81145  22776471.58445
      5338.469        4159.867  
 121537278.906    94704399.1394   23127775.177 4  23127775.30341  23127782.03342
      6653.685        5184.699  
 125844247.137    97878878.941    23533510.442 5  23533510.426 5  23533514.967 6
     -1011.657        -786.833  
 123665834.684    96184558.868    23158640.477 6  23158639.653 6  23158642.884 6
      7263.101        5649.062  
 11  5 30 16 56 15.0000000  0 13R21R12R11R22G 9G25G27G14G 4G 2G29R20
                                R13                                 
 105655452.726    82176481.645    19744246.024 8  19744245.575 8  19744247.116 7
      1510.113        1174.542  
 103750869.487    80695140.409    19422380.822 8  19422380.430 8  19422385.149 7
      4916.840        3824.209  
 108573584.052    84446142.341    20318067.698 7  20318067.488 7  20318071.760 6
       677.330         526.805  
 105821626.121    82305727.835    19823956.083 7  19823954.980 7  19823958.740 7
      5728.323        4455.360  
 112848093.250    87933590.7784   21474278.013 6  21474276.98343  21474282.67243
        27.872          21.672  
 111878790.183    87178295.0494   21289825.788 8  21289825.00146  21289831.50846
      5267.962        4104.887  
 119430378.901    93062659.4364   22726845.369 5  22726845.16441  22726851.88641
       361.031         281.294  
 116992860.856    91163281.8464   22263000.102 7  22263000.16045  22263004.04445
      2867.793        2234.630  
 119072303.298    92783627.8084   22658706.373 7  22658706.45244  22658710.25244
      2872.885        2238.590  
 119664459.485    93245060.0894   22771390.844 7  22771390.08545  22771393.00445
      5337.653        4159.201  
 121504005.364    94678471.5714   23121444.357 3  23121445.18341  23121449.85342
      6655.027        5185.809  
 125849304.993    97882812.824    23534457.091 5  23534456.502 5  23534461.569 6
     -1011.394        -786.636  
 123629517.852    96156312.443    23151838.368 6  23151838.731 6  23151842.085 6
      7263.617        5649.478  
 11  5 30 16 56 20.0000000  0 13R21R12R11R22G 9G25G27G14G 4G 2G29R20
                                R13                                 
 105647909.026    82170614.326    19742836.295 8  19742836.418 8  19742837.525 7
      1507.525        1172.529  
 103726290.905    80676023.743    19417779.746 8  19417778.955 8  19417783.790 8
      4914.699        3822.538  
 108570202.300    84443512.110    20317434.784 7  20317434.799 7  20317438.740 6
       675.624         525.471  
 105792991.885    82283456.820    19818591.710 7  19818591.041 7  19818594.382 7
      5725.647        4453.282  
 112847957.232    87933484.7824   21474251.468 6  21474251.50543  21474257.73844
        26.661          20.767  
 111852452.289    87157772.0314   21284814.215 8  21284813.33946  21284819.89946
      5267.399        4104.438  
 119428576.526    93061255.0284   22726504.061 5  22726502.59641  22726508.54441
       360.053         280.591  
 116978527.642    91152113.1154   22260271.828 7  22260272.04545  22260276.72245
      2865.285        2232.670  
 119057946.863    92772440.9714   22655974.326 7  22655974.80244  22655978.49044
      2870.113        2236.437  
 119637775.419    93224267.2984   22766312.815 7  22766312.06745  22766315.05945
      5336.284        4158.149  
 121470729.522    94652542.1714   23115113.485 5  23115112.79641  23115117.39242
      6655.143        5185.849  
 125854360.367    97886744.760    23535403.441 5  23535401.176 5  23535406.967 6
     -1010.547        -785.984  
 123593197.401    96128063.206    23145037.222 6  23145037.060 6  23145040.412 6
      7264.520        5650.178  
 11  5 30 16 56 25.0000000  0 13R21R12R11R22G 9G25G27G14G 4G 2G29R20
                                R13                                 
 105640378.191    82164757.012    19741429.106 8  19741428.519 8  19741430.645 7
      1504.891        1170.442  
 103701722.157    80656914.719    19413179.846 8  19413179.531 8  19413184.670 8
      4912.665        3820.941  
 108566828.977    84440888.382    20316803.454 7  20316803.404 7  20316807.011 6
       673.893         524.142  
 105764369.974    82261195.305    19813229.512 8  19813229.194 7  19813232.357 7
      5723.071        4451.269  
 112847826.439    87933382.9204   21474228.090 6  21474226.53744  21474232.95243
        25.770          20.083  
 111826116.653    87137250.7464   21279802.932 8  21279802.26846  21279808.45846
      5266.873        4104.067  
 119426775.948    93059851.9704   22726161.526 5  22726160.45641  22726165.10441
       360.042         280.514  
 116964205.934    91140953.3324   22257547.456 7  22257546.94144  22257551.52645
      2863.267        2231.103  
 119043602.509    92761263.5604   22653245.085 7  22653244.86244  22653248.62344
      2867.751        2234.607  
 119611096.917    93203478.8714   22761235.265 7  22761234.97645  22761238.56745
      5335.143        4157.233  
 121437454.143    94626613.3634   23108779.297 4  23108780.56041  23108786.40142
      6655.934        5186.428  
 125859413.394    97890674.883    23536347.502 5  23536346.566 5  23536351.507 6
     -1010.153        -785.687  
 123556873.305    96099811.147    23138234.691 6  23138234.229 6  23138238.131 6
      7265.099        5650.597  
 11  5 30 16 56 30.0000000  0 13R21R12R11R22G 9G25G27G14G 4G 2G29R20
                                R13                                 
 105632860.253    82158909.721    19740024.223 8  19740024.122 8  19740025.753 7
      1502.288        1168.454  
 103677163.485    80637813.538    19408582.024 8  19408582.140 8  19408587.481 7
      4910.855        3819.550  
 108563464.205    84438271.355    20316173.742 7  20316173.272 7  20316176.799 6
       672.098         522.742  
 105735760.729    82238943.663    19807870.376 8  19807869.803 8  19807873.288 7
      5720.665        4449.382  
 112847701.220    87933285.2934   21474202.835 6  21474202.59343  21474208.66243
        24.385          19.005  
 111799783.367    87116731.3264   21274791.691 9  21274791.19746  21274797.30046
      5266.551        4103.780  
 119424977.621    93058450.6454   22725819.656 6  22725818.20041  22725823.70241
       359.786         280.340  
 116949895.954    91129802.7074   22254824.187 7  22254823.66344  22254828.25044
      2860.750        2229.157  
 119029270.393    92750095.6604   22650518.312 7  22650517.57444  22650521.05944
      2865.265        2232.677  
 119584424.256    93182694.9864   22756160.162 7  22756159.75045  22756163.17045
      5333.993        4156.359  
 121404179.948    94600685.4204   23102447.100 4  23102447.74941  23102454.25442
      6655.341        5186.013  
 125864464.445    97894603.466    23537295.524 5  23537291.894 5  23537297.493 6
     -1009.961        -785.523  
 123520545.795    96071556.433    23131432.783 6  23131431.273 6  23131434.520 6
      7265.701        5651.096  
 11  5 30 16 56 35.0000000  0 13R21R12R11R22G 9G25G27G14G 4G 2G29R20
                                R13                                 
 105625355.131    82153072.406    19738622.538 8  19738621.592 8  19738623.588 7
      1499.657        1166.407  
 103652614.656    80618719.999    19403986.728 8  19403986.341 8  19403991.999 8
      4908.801        3817.973  
 108560107.923    84435660.909    20315545.270 7  20315545.554 7  20315549.373 6
       670.159         521.208  
 105707163.813    82216701.641    19802513.022 8  19802512.249 7  19802516.443 7
      5717.936        4447.285  
 112847581.167    87933191.7714   21474180.266 6  21474179.68843  21474185.76043
        23.341          18.211  
 111773452.393    87096213.6684   21269781.109 8  21269780.53646  21269787.01446
      5265.808        4103.232  
 119423181.250    93057050.7774   22725477.106 5  22725476.60041  22725481.33541
       359.076         279.841  
 116935597.450    91118661.0024   22252103.414 7  22252102.87244  22252106.87044
      2858.569        2227.457  
 119014950.311    92738937.1544   22647792.794 7  22647792.57644  22647796.07744
      2862.785        2230.749  
 119557757.151    93161915.4344   22751085.090 7  22751085.18145  22751088.40745
      5332.534        4155.201  
 121370902.679                    23096114.572 4                                
      6654.322                  
 125869513.207    97898530.270    23538236.746 5  23538236.139 5  23538240.944 6
     -1009.765        -785.388  
 123484214.776    96043298.966    23124628.543 6  23124627.689 6  23124631.276 6
      7266.497        5651.717  
 11  5 30 16 56 40.0000000  0 13R21R12R11R22G 9G25G27G14G 4G 2G29R20
                                R13                                 
 105617863.123    82147245.282    19737222.759 8  19737221.568 8  19737223.534 7
      1497.066        1164.395  
 103628076.021    80599634.387    19399392.914 8  19399392.641 8  19399398.537 8
      4906.670        3816.303  
 108556760.362    84433057.250    20314919.279 7  20314919.220 7  20314923.182 5
       668.593         520.030  
 105678579.757    82194469.575    19797158.173 7  19797157.802 7  19797161.930 7
      5715.556        4445.443  
 112847466.711    87933102.5834   21474158.969 6  21474158.33243  21474163.21043
        22.053          17.191  
 111747123.920    87075697.9724   21264770.835 8  21264770.31346  21264776.78546
      5265.393        4102.912  
 119421387.140    93055652.7774   22725134.720 5  22725135.00641  22725138.99241
       358.900         279.697  
 116921310.782    91107528.5434   22249384.125 7  22249383.54544  22249388.26544
      2856.295        2225.690  
 119000642.527    92727788.2374   22645069.608 7  22645069.74744  22645073.28244
      2860.208        2228.745  
 119531096.028    93141140.5324   22746012.363 7  22746012.16545  22746014.87645
      5331.504        4154.395  
 121337630.303    94548811.9004   23089781.211 4  23089783.50442  23089790.33342
      6654.058        5184.949  
 125874560.228    97902455.717    23539177.290 5  23539179.162 5  23539184.851 6
     -1008.970        -784.747  
 123447880.519    96015039.015    23117822.273 6  23117821.771 6  23117828.327 6
      7267.137        5652.216  
 11  5 30 16 56 45.0000000  0 13R21R12R11R22G 9G25G27G14G 4G 2G29R20
                                R13                                 
 105610384.158    82141428.309    19735824.951 8  19735824.218 8  19735825.576 7
      1494.486        1162.382  
 103603547.640    80580556.769    19394802.274 8  19394801.273 8  19394806.878 8
      4904.655        3814.745  
 108553421.537    84430460.374    20314295.065 7  20314294.431 7  20314298.708 6
       666.918         518.721  
 105650008.533    82172247.517    19791805.388 8  19791805.165 8  19791809.771 7
      5713.024        4443.478  
 112847357.952    87933017.7994   21474137.370 6  21474137.56543  21474142.29643
        21.085          16.387  
 111720798.069    87055184.3324   21259761.311 8  21259760.62846  21259766.92946
      5264.946        4102.579  
 119419595.342    93054256.5624   22724793.890 6  22724793.93242  22724797.75641
       358.237         279.111  
 116907036.030    91096405.3574   22246667.167 7  22246667.16344  22246671.89744
      2853.678        2223.653  
 118986347.269    92716649.0684   22642349.374 7  22642349.55744  22642353.16244
      2857.813        2226.896  
 119504440.991    93120370.3804   22740940.584 7  22740939.82245  22740942.16545
      5330.425        4153.593  
 121304358.736    94522885.9694   23083452.964 4  23083452.82842  23083458.72141
      6654.111        5185.025  
 125879605.451    97906379.768    23540121.990 5  23540122.495 5  23540128.907 6
     -1008.557        -784.419  
 123411543.203    95986776.662    23111016.441 6  23111016.531 6  23111023.132 6
      7267.905        5652.831  
 11  5 30 16 56 50.0000000  0 13R21R12R11R22G 9G25G27G14G 4G 2G29R20
                                R13                                 
 105602918.664    82135621.810    19734430.163 8  19734429.660 8  19734430.618 7
      1491.738        1160.225  
 103579029.748    80561487.301    19390212.257 8  19390211.458 8  19390217.288 8
      4902.661        3813.160  
 108550091.827    84427870.604    20313671.377 7  20313671.604 7  20313675.538 6
       665.105         517.277  
 105621450.298    82150035.548    19786455.671 8  19786455.035 7  19786459.536 7
      5710.482        4441.463  
 112847255.011    87932937.5844   21474117.910 6  21474117.96143  21474122.90343
        20.095          15.645  
 111694475.056    87034672.8854   21254752.346 8  21254751.64646  21254757.81846
      5264.382        4102.093  
 119417805.973    93052862.3524   22724454.435 5  22724452.44342  22724456.27842
       357.679         278.734  
 116892773.351    91085291.5644   22243954.118 7  22243953.25944  22243957.95444
      2851.410        2221.870  
 118972064.666    92705519.7604   22639631.499 7  22639631.47944  22639635.37844
      2855.307        2224.903  
 119477792.222    93099605.0994   22735868.185 7  22735868.55545  22735871.17045
      5329.062        4152.496  
 121271088.150    94496970.9064   23077121.685 3  23077121.64941  23077127.97541
      6654.517        5185.317  
 125884649.026    97910302.538    23541065.775 5  23541066.924 5  23541072.261 6
     -1009.174        -784.929  
 123375202.950    95958512.037    23104212.408 6  23104211.175 6  23104216.491 6
      7268.307        5653.106  
 11  5 30 16 56 55.0000000  0 13R21R12R11R22G 9G25G27G14G 4G 2G29R20
                                R13                                 
 105595466.250    82129825.489    19733037.636 8  19733037.182 8  19733037.882 7
      1489.209        1158.291  
 103554522.220    80542425.893    19385623.765 8  19385623.694 8  19385629.444 8
      4900.581        3811.561  
 108546770.919    84425287.671    20313050.069 7  20313049.855 7  20313053.721 6
       663.407         515.989  
 105592904.987    82127833.648    19781107.636 8  19781107.477 7  19781112.294 7
      5707.812        4439.403  
 112847157.829    87932861.7994   21474100.155 6  21474099.31843  21474103.90343
        18.802          14.664  
 111668154.752    87014163.5724   21249743.892 8  21249743.26946  21249749.30446
      5263.843        4101.692  
 119416019.141    93051469.9894   22724114.731 6  22724113.23642  22724116.77042
       357.575         278.668  
 116878522.639    91074187.1094   22241242.641 7  22241242.08045  22241246.15445
      2848.924        2219.926  
 118957794.608    92694400.2164   22636915.254 7  22636915.59844  22636919.67544
      2852.842        2223.004  
 119451149.598    93078844.5884   22730799.681 7  22730798.37344  22730800.60444
      5327.737        4151.467  
 121237819.143    94471046.9524   23070794.367 5  23070791.43841  23070796.55141
      6653.754        5184.775  
 125889690.690    97914223.819    23542007.079 5  23542009.239 5  23542015.002 6
     -1008.104        -784.034  
 123338859.605    95930244.993    23097405.850 6  23097405.641 6  23097411.193 6
      7269.223        5653.835  
 11  5 30 16 57  0.0000000  0 13R21R12R11R22G 9G25G27G14G 4G 2G29R20
                                R13                                 
 105588027.341    82124039.657    19731647.248 8  19731646.973 8  19731648.060 7
      1486.331        1156.020  
 103530025.362    80523372.775    19381037.537 8  19381037.037 8  19381043.355 8
      4898.354        3809.853  
 108543459.143    84422711.819    20312429.896 7  20312429.640 7  20312434.357 6
       661.372         514.397  
 105564372.936    82105642.114    19775762.669 7  19775762.081 7  19775767.338 7
      5705.109        4437.323  
 112847066.451    87932790.5764   21474082.773 6  21474082.03243  21474085.45843
        17.794          13.828  
 111641837.428    86993656.5704   21244735.759 8  21244734.84046  21244741.48146
      5263.113        4101.122  
 119414235.074    93050079.6974   22723773.407 5  22723773.05041  22723777.25641
       356.255         277.638  
 116864284.107    91063092.1584   22238533.769 7  22238532.51544  22238536.59544
      2846.284        2217.878  
 118943537.237    92683290.5744   22634202.337 7  22634202.38644  22634206.14944
      2850.321        2221.023  
 119424513.293    93058089.0484   22725730.681 7  22725729.84444  22725731.51145
      5326.327        4150.366  
 121204551.248    94445123.9124   23064462.610 4  23064460.97642  23064465.58842
      6653.414        5184.477  
 125894730.699    97918143.813    23542955.015 5  23542952.955 5  23542956.970 6
     -1007.766        -783.803  
 123302513.557    95901975.847    23090598.825 6  23090599.318 6  23090604.421 6
      7269.461        5654.027  
 11  5 30 16 57  5.0000000  0 13R21R12R11R22G 9G25G27G14G 4G 2G29R20
                                R13                                 
 105580601.798    82118264.233    19730259.742 8  19730259.157 8  19730260.522 7
      1483.735        1154.001  
 103505539.217    80504327.985    19376453.820 8  19376453.421 8  19376459.656 8
      4896.148        3808.106  
 108540156.512    84420143.109    20311811.185 7  20311811.468 7  20311816.876 6
       659.479         512.919  
 105535854.027    82083460.720    19770420.170 8  19770419.714 7  19770424.443 7
      5702.523        4435.297  
 112846981.094    87932724.0674   21474065.985 6  21474065.71743  21474069.61343
        16.296          12.691  
 111615523.081    86973151.8714   21239728.224 8  21239727.04646  21239733.68146
      5262.601        4100.732  
 119412453.451    93048691.4404   22723435.687 5  22723433.83541  22723438.79841
       356.211         277.570  
 116850057.757    91052006.6824   22235825.715 7  22235825.10744  22235829.53844
      2843.986        2216.085  
 118929292.710    92672190.9284   22631492.316 7  22631491.76644  22631495.06244
      2847.778        2219.042  
 119397883.402    93037338.4854   22720662.978 7  22720662.07344  22720663.63444
      5325.492        4149.727  
 121171284.768    94419202.0174   23058130.673 5  23058129.78242  23058135.01342
      6652.936        5184.101  
 125899769.081    97922062.542    23543893.933 5  23543895.675 5  23543899.986 6
     -1007.681        -783.757  
 123266164.722    95873704.544    23083791.372 6  23083792.147 6  23083798.586 6
      7270.004        5654.435  
 11  5 30 16 57 10.0000000  0 13R21R12R11R22G 9G25G27G14G 4G 2G29R20
                                R13                                 
 105573189.802    82112499.354    19728874.182 8  19728873.757 8  19728875.692 7
      1480.994        1151.884  
 103481063.848    80485291.578    19371872.128 8  19371871.631 8  19371877.852 8
      4894.011        3806.445  
 108536863.230    84417581.649    20311195.247 7  20311194.963 7  20311200.293 6
       657.590         511.450  
 105507348.596    82061289.854    19765080.607 8  19765079.934 7  19765084.244 7
      5699.712        4433.100  
 112846901.810    87932662.2734   21474051.519 6  21474051.54143  21474054.70243
        15.220          11.871  
 111589211.900    86952649.6554   21234721.060 8  21234720.52546  21234726.81946
      5262.011        4100.266  
 119410674.673    93047305.3514   22723096.281 5  22723095.87941  22723100.85641
       355.558         277.079  
 116835843.815    91040930.8834   22233121.150 7  22233120.36344  22233124.79244
      2841.393        2214.071  
 118915061.139    92661101.4024   22628783.446 7  22628783.60644  22628787.04144
      2845.226        2217.084  
 119371260.182    93016593.1114   22715596.177 6  22715595.76444  22715597.51944
      5323.816        4148.431  
 121138020.007    94393281.4124   23051800.851 5  23051800.18342  23051804.99842
      6653.102        5184.236  
 125904805.980    97925980.138    23544836.429 5  23544837.661 5  23544842.024 6
     -1006.843        -783.128  
 123229813.383    95845431.300    23076984.391 6  23076984.821 6  23076990.526 6
      7270.751        5655.027  
 11  5 30 16 57 15.0000000  0 13R21R12R11R22G 9G25G27G14G 4G 2G29R20
                                R13                                 
 105565791.330    82106744.980    19727492.200 8  19727491.209 8  19727493.093 7
      1478.250        1149.754  
 103456599.313    80466263.613    19367292.394 8  19367291.819 8  19367298.071 8
      4891.837        3804.772  
 108533579.131    84415027.331    20310580.535 7  20310580.431 7  20310585.446 6
       655.839         510.100  
 105478856.420    82039129.272    19759742.751 7  19759742.372 7  19759746.755 7
      5697.061        4431.077  
 112846828.485    87932605.1614   21474036.642 6  21474036.95043  21474040.25243
        13.907          10.810  
 111562903.731    86932149.7944   21229714.836 8  21229714.44946  21229720.71346
      5261.413        4099.808  
 119408898.665    93045921.4044   22722756.154 5  22722757.11941  22722762.69841
       354.886         276.551  
 116821642.155    91029864.6504   22230418.773 7  22230418.07844  22230421.95644
      2839.051        2212.258  
 118900842.301    92650021.7904   22626077.288 7  22626077.49244  22626081.48344
      2842.465        2214.919  
 119344643.395    92995852.7664   22710531.194 6  22710530.62544  22710532.89444
      5322.591        4147.471  
 121104756.631    94367361.9104   23045469.995 5  23045470.14142  23045475.51442
      6652.821        5184.040  
 125909841.515    97929896.665    23545778.316 5  23545778.441 5  23545783.471 6
     -1007.755        -783.827  
 123193459.442    95817156.016    23070178.223 6  23070178.175 6  23070182.734 6
      7270.994        5655.232  
 11  5 30 16 57 20.0000000  0 13R21R12R11R22G 9G25G27G14G 4G 2G29R20
                                R13                                 
 105558406.840    82101001.490    19726111.415 8  19726110.995 8  19726113.079 7
      1475.564        1147.667  
 103432145.922    80447244.316    19362715.913 8  19362714.824 8  19362719.917 8
      4889.637        3803.049  
 108530304.609    84412480.473    20309968.049 7  20309967.955 7  20309972.891 6
       653.864         508.578  
 105450377.991    82016979.388    19754409.073 7  19754407.696 7  19754410.371 7
      5694.254        4428.847  
 112846761.602    87932553.0394   21474024.415 6  21474024.28743  21474027.12143
        12.859          10.028  
 111536599.083    86911652.6754   21224709.101 8  21224708.76146  21224715.02846
      5260.620        4099.191  
 119407125.705    93044539.9404   22722419.160 5  22722419.69641  22722423.48041
       354.549         276.340  
 116807453.244    91018808.3624   22227718.137 7  22227717.97844  22227721.78444
      2836.621        2210.365  
 118886636.833    92638952.5954   22623372.477 6  22623373.72044  22623377.93144
      2839.796        2212.821  
 119318033.562    92975117.8384   22705468.006 7  22705467.04945  22705469.74245
      5321.296        4146.477  
 121071495.357    94341444.0714   23039141.510 5  23039140.58742  23039146.23142
      6652.097        5183.455  
 125914875.743    97933812.177    23546719.861 5  23546719.932 5  23546724.679 6
     -1006.481        -782.819  
 123157103.214    95788878.955    23063369.505 6  23063368.538 6  23063374.674 6
      7271.509        5655.625  
 11  5 30 16 57 25.0000000  0 13R21R12R11R22G 9G25G27G14G 4G 2G29R20
                                R13                                 
 105551035.635    82095268.346    19724732.884 8  19724733.023 8  19724735.178 7
      1472.941        1145.621  
 103407703.328    80428233.389    19358139.803 8  19358139.179 8  19358143.928 8
      4887.486        3801.385  
 108527039.167    84409940.667    20309356.556 7  20309356.740 7  20309362.072 6
       652.269         507.323  
 105421912.888    81994839.837    19749076.325 8  19749075.807 8  19749078.234 7
      5691.679        4426.890  
 112846700.595    87932505.4894   21474013.464 6  21474012.85643  21474014.29043
        11.636           9.085  
 111510297.459    86891157.8854   21219704.562 8  21219703.98246  21219709.66946
      5260.120        4098.783  
 119405355.453    93043160.4444   22722083.081 5  22722082.67241  22722086.78441
       353.833         275.765  
 116793276.570    91007761.5944   22225021.323 7  22225020.20944  22225024.21044
      2834.304        2208.568  
 118872444.089    92627893.3154   22620671.553 6  22620671.96244  22620677.26344
      2837.045        2210.687  
 119291430.242    92954387.9724   22700405.209 7  22700404.05944  22700407.27544
      5320.196        4145.593  
 121038235.498    94315527.3254   23032813.681 5  23032812.10742  23032817.11842
      6652.014        5183.393  
 125919908.338    97937726.412    23547662.170 5  23547661.080 5  23547665.934 6
     -1006.494        -782.842  
 123120744.302    95760599.818    23056559.511 6  23056559.828 6  23056565.813 6
      7272.272        5656.205  
 11  5 30 16 57 30.0000000  0 13R21R12R11R22G 9G25G27G14G 4G 2G29R20
                                R13                                 
 105543678.014    82089545.748    19723359.206 8  19723358.410 8  19723360.195 7
      1470.089        1143.401  
 103383271.647    80409230.972    19353565.686 8  19353565.697 8  19353570.228 7
      4885.193        3799.602  
 108523783.038    84407408.118    20308748.204 7  20308747.566 7  20308752.463 6
       650.250         505.745  
 105393461.226    81972710.769    19743745.453 8  19743745.670 8  19743747.960 7
      5688.903        4424.712  
 112846645.678    87932462.7004   21474003.176 6  21474002.02243  21474003.64743
        10.418           8.103  
 111483999.001    86870665.5904   21214699.868 8  21214699.59546  21214704.99946
      5259.358        4098.202  
 119403587.965    93041783.1634   22721745.688 5  22721745.91041  22721751.23641
       353.301         275.410  
 116779112.366    90996724.5574   22222326.225 7  22222325.08445  22222328.96945
      2831.510        2206.361  
 118858264.308    92616844.1424   22617972.445 6  22617973.58444  22617979.28744
      2834.824        2208.952  
 119264833.509    92933663.2574   22695343.891 7  22695342.46944  22695346.19544
      5318.625        4144.401  
 121004977.326    94289611.8684   23026483.127 5  23026482.93843  23026488.13043
      6651.759        5183.164  
 125924939.545    97941639.576    23548600.468 5  23548601.315 5  23548606.528 6
     -1006.305        -782.687  
 123084382.962    95732318.773    23049748.553 6  23049749.914 6  23049756.235 6
      7272.631        5656.490  
 11  5 30 16 57 35.0000000  0 13R21R12R11R22G 9G25G27G14G 4G 2G29R20
                                R13                                 
 105536334.398    82083834.047    19721986.659 8  19721986.211 8  19721987.911 7
      1467.276        1141.221  
 103358851.277    80390237.359    19348994.755 8  19348993.893 8  19348998.366 7
      4882.991        3797.879  
 108520536.607    84404883.118    20308141.315 7  20308140.188 7  20308144.704 6
       648.364         504.292  
 105365023.455    81950592.488    19738418.032 8  19738418.020 8  19738420.765 7
      5686.161        4422.544  
 112846597.201    87932424.9484   21473994.265 6  21473992.82442  21473995.72742
         9.046           6.998  
 111457704.162    86850176.1114   21209695.850 8  21209695.79446  21209701.20046
      5258.536        4097.556  
 119401823.624    93040408.3834   22721411.514 5  22721410.66841  22721414.61741
       352.790         274.809  
 116764960.957    90985697.4834   22219633.660 7  22219632.33045  22219636.04845
      2829.028        2204.445  
 118844097.914    92605805.3944   22615278.152 6  22615278.21344  22615283.80144
      2831.797        2206.570  
 119238243.895    92912944.0904   22690283.067 7  22690283.00844  22690286.66244
      5317.207        4143.271  
 120971721.304    94263698.1254   23020154.673 6  23020154.27043  23020159.65543
      6651.295        5182.800  
 125929969.749    97945551.945    23549544.147 5  23549543.661 5  23549547.102 6
     -1005.850        -782.318  
 123048019.433    95704036.066    23042940.672 6  23042940.223 6  23042946.175 6
      7273.006        5656.788  
 11  5 30 16 57 40.0000000  0 13R21R12R11R22G 9G25G27G14G 4G 2G29R20
                                R13                                 
 105529004.911    82078133.330    19720618.114 8  19720617.231 8  19720617.180 7
      1464.529        1139.082  
 103334442.494    80371252.763    19344426.000 8  19344424.654 8  19344428.877 8
      4880.681        3796.080  
 108517300.095    84402365.810    20307534.391 7  20307534.167 7  20307538.263 6
       646.488         502.837  
 105336599.742    81928485.165    19733093.968 8  19733093.511 8  19733096.349 7
      5683.490        4420.496  
 112846555.394    87932392.3454   21473986.227 6  21473985.10342  21473987.06842
         7.855           6.125  
 111431413.139    86829689.5844   21204693.463 8  21204692.85846  21204698.26646
      5257.929        4097.084  
 119400062.846    93039036.2674   22721076.188 5  22721076.06041  22721081.33141
       351.898         274.156  
 116750822.601    90974680.5924   22216943.182 7  22216941.76545  22216945.90945
      2826.487        2202.449  
 118829945.031    92594777.1734   22612585.062 6  22612584.92544  22612590.73444
      2829.347        2204.688  
 119211661.581    92892230.6004   22685225.357 7  22685225.01544  22685228.56444
      5315.833        4142.210  
 120938467.561    94237786.1494   23013825.853 5  23013825.75243  23013831.15543
      6650.467        5182.214  
 125934999.155    97949463.692    23550483.591 5  23550483.253 5  23550487.941 6
     -1005.335        -781.928  
 123011654.058    95675751.885    23036130.548 6  23036130.869 6  23036136.028 6
      7273.228        5656.944  
 11  5 30 16 57 45.0000000  0 13R21R12R11R22G 9G25G27G14G 4G 2G29R20
                                R13                                 
 105521689.137    82072443.268    19719251.220 8  19719250.222 8  19719250.385 7
      1461.808        1136.963  
 103310044.942    80352276.896    19339857.987 8  19339857.366 8  19339861.428 7
      4878.307        3794.244  
 108514073.056    84399855.878    20306930.592 7  20306930.295 7  20306934.422 6
       644.458         501.258  
 105308189.836    81906388.556    19727771.252 8  19727771.121 7  19727774.425 7
      5680.758        4418.379  
 112846519.926    87932364.7214   21473979.462 6  21473978.76342  21473980.75942
         6.625           5.146  
 111405125.551    86809205.7554   21199690.413 8  21199690.04146  21199695.99746
      5257.086        4096.417  
 119398305.003    93037666.5454   22720740.976 5  22720740.86541  22720746.73541
       351.481         273.930  
 116736696.883    90963673.5354   22214255.012 7  22214254.31345  22214257.67445
      2823.871        2200.421  
 118815805.389    92583759.2804   22609894.541 7  22609894.90644  22609900.70444
      2826.462        2202.448  
 119185086.238    92871522.5334   22680168.339 7  22680167.95545  22680171.47544
      5314.432        4141.109  
 120905215.756    94211875.6514   23007499.039 5  23007498.45042  23007503.41643
      6650.024        5181.834  
 125940027.150    97953374.348    23551422.432 5  23551424.364 5  23551427.333 6
     -1005.400        -781.980  
 122975286.536    95647466.049    23029322.811 7  23029321.330 6  23029325.362 6
      7273.776        5657.395  
 11  5 30 16 57 50.0000000  0 13R21R12R11R22G 9G25G27G14G 4G 2G29R20
                                R13                                 
 105514387.352    82066764.095    19717887.403 8  19717886.012 8  19717886.066 7
      1459.021        1134.786  
 103285658.802    80333309.905    19335292.238 8  19335291.959 8  19335296.411 7
      4876.098        3792.511  
 108510855.769    84397353.546    20306328.491 7  20306328.410 7  20306331.906 5
       642.649         499.841  
 105279793.878    81884302.820    19722451.803 8  19722451.712 7  19722454.857 7
      5677.911        4416.164  
 112846490.961    87932342.1704   21473973.704 6  21473973.38642  21473976.03742
         5.336           4.146  
 111378841.662    86788724.8064   21194688.526 8  21194688.56846  21194694.62346
      5256.478        4095.951  
 119396550.460    93036299.3204   22720408.293 5  22720407.22041  22720413.42341
       350.652         273.219  
 116722584.000    90952676.4874   22211568.341 7  22211568.11145  22211572.30045
      2821.123        2198.265  
 118801679.206    92572751.8544   22607206.349 7  22607206.75844  22607212.77944
      2824.278        2200.758  
 119158518.090    92850820.0914   22675111.947 7  22675112.39445  22675115.59545
      5313.066        4140.051  
 120871966.198    94185966.9164   23001173.902 6  23001172.00342  23001176.51242
      6649.497        5181.373  
 125945053.931    97957284.057    23552361.387 5  23552363.418 5  23552366.948 6
     -1004.882        -781.560  
 122938917.092    95619178.728    23022511.339 6  23022510.403 6  23022513.969 6
      7274.228        5657.735  
 11  5 30 16 57 55.0000000  0 13R21R12R11R22G 9G25G27G14G 4G 2G29R20
                                R13                                 
 105507099.827    82061096.019    19716524.113 8  19716524.098 8  19716524.828 7
      1456.021        1132.464  
 103261284.462    80314352.075    19330728.723 8  19330728.523 8  19330733.262 7
      4873.742        3790.705  
 108507648.533    84394859.026    20305729.300 7  20305728.854 7  20305731.719 6
       640.381         498.084  
 105251412.163    81862228.165    19717134.980 8  19717134.638 7  19717137.621 7
      5675.042        4413.912  
 112846468.764    87932324.8994   21473969.150 6  21473968.48042  21473972.27042
         3.843           3.030  
 111352561.695    86768246.9174   21189687.965 8  21189687.43746  21189693.54946
      5255.525        4095.211  
 119394799.411    93034934.8944   22720075.012 6  22720074.53241  22720080.23741
       349.691         272.474  
 116708484.261    90941689.6604   22208884.620 7  22208885.22544  22208889.30344
      2818.716        2196.427  
 118787566.729    92561755.1284   22604521.901 7  22604521.56544  22604527.53044
      2821.244        2198.355  
 119131957.342    92830123.4264   22670057.790 7  22670057.72244  22670061.43144
      5311.349        4138.731  
 120838719.144    94160060.1224   22994846.317 5  22994845.44743  22994849.93242
      6649.239        5181.269  
 125950079.886    97961193.142    23553301.936 5  23553303.193 5  23553306.818 6
     -1005.182        -781.830  
 122902545.915    95590890.047    23015700.180 7  23015699.325 6  23015703.335 6
      7274.373        5657.849  
 11  5 30 16 58  0.0000000  0 13R21R12R11R22G 9G25G27G14G 4G 2G29R20
                                R13                                 
 105499826.563    82055439.028    19715164.713 8  19715164.349 8  19715165.448 7
      1453.327        1130.364  
 103236921.790    80295403.339    19326168.456 8  19326168.150 8  19326172.595 7
      4871.288        3788.763  
 108504451.161    84392372.192    20305130.893 7  20305130.646 7  20305134.028 6
       638.442         496.555  
 105223044.713    81840164.581    19711821.075 8  19711820.318 7  19711824.231 7
      5672.225        4411.730  
 112846453.363    87932312.8944   21473965.142 6  21473965.32942  21473969.87242
         2.353           1.872  
 111326285.666    86747772.0894   21184687.919 8  21184687.34946  21184693.41046
      5254.908        4094.725  
 119393051.915    93033573.1764   22719743.634 5  22719742.73242  22719747.50142
       349.107         272.026  
 116694397.584    90930713.0314   22206204.797 7  22206204.22445  22206208.94745
      2816.129        2194.389  
 118773467.945    92550769.0694   22601839.400 7  22601839.08044  22601844.31644
      2818.407        2196.148  
 119105404.023    92809432.5444   22665004.973 7  22665005.03845  22665008.45045
      5310.072        4137.703  
 120805474.390    94134155.1394   22988520.967 6  22988519.51543  22988524.17643
      6648.751        5180.810  
 125955104.985    97965101.540    23554242.553 5  23554243.079 5  23554247.358 6
     -1004.542        -781.310  
 122866172.981    95562600.004    23008888.899 7  23008888.003 6  23008891.883 6
      7274.728        5658.096  
 11  5 30 16 58  5.0000000  0 13R21R12R11R22G 9G25G27G14G 4G 2G29R20
                                R13                                 
 105492567.368    82049792.993    19713808.040 8  19713807.807 8  19713808.997 7
      1450.494        1128.158  
 103212570.825    80276463.695    19321609.121 8  19321609.027 8  19321614.250 8
      4869.002        3787.010  
 108501263.743    84389893.074    20304533.687 7  20304533.760 7  20304538.273 6
       636.463         495.048  
 105194691.398    81818111.990    19706508.867 8  19706508.808 8  19706513.258 7
      5669.145        4409.359  
 112846444.494    87932305.9654   21473963.947 6  21473962.98742  21473969.01642
         0.750           0.574  
 111300013.489    86727300.2694   21179688.345 8  21179687.82346  21179694.01946
      5254.036        4094.064  
 119391307.658    93032214.0394   22719411.298 5  22719410.81342  22719415.90742
       348.497         271.520  
 116680323.910    90919746.5294   22203527.566 7  22203526.04744  22203530.59044
      2813.619        2192.453  
 118759382.655    92539793.5084   22599159.212 7  22599158.57144  22599163.79944
      2815.461        2193.858  
 119078858.095    92788747.3954   22659954.426 7  22659953.98245  22659957.16245
      5308.477        4136.495  
 120772232.125    94108252.0504   22982194.368 6  22982194.00543  22982198.29143
      6648.298        5180.523  
 125960129.271    97969009.318    23555181.611 5  23555182.561 5  23555186.468 6
     -1004.610        -781.342  
 122829798.373    95534308.646    23002076.928 7  23002076.420 6  23002080.265 6
      7275.032        5658.375  
 11  5 30 16 58 10.0000000  0 13R21R12R11R22G 9G25G27G14G 4G 2G29R20
                                R13                                 
 105485322.380    82044157.998    19712453.880 8  19712453.730 8  19712455.611 7
      1447.536        1125.866  
 103188231.735    80257533.298    19317053.830 8  19317052.881 8  19317057.981 7
      4866.701        3785.226  
 108498086.423    84387421.819    20303938.931 7  20303939.040 7  20303944.188 6
       634.499         493.499  
 105166352.392    81796070.567    19701200.655 8  19701200.174 8  19701204.543 7
      5666.387        4407.207  
 112846442.448    87932304.3274   21473962.152 5  21473963.12743  21473968.98242
        -0.054          -0.071  
 111273745.317    86706831.5754   21174690.081 8  21174689.39346  21174695.33346
      5253.316        4093.503  
 119389566.974    93030857.6774   22719080.924 6  22719079.18242  22719085.04342
       347.768         270.966  
 116666263.385    90908790.2604   22200851.790 7  22200850.71344  22200854.25744
      2810.993        2190.398  
 118745311.150    92528828.7074   22596482.804 7  22596481.94244  22596486.29744
      2813.070        2192.018  
 119052319.707    92768068.1214   22654902.636 6  22654903.37744  22654906.94344
      5306.920        4135.278  
 120738992.247    94082350.9014   22975868.823 5  22975868.63643  22975873.30343
      6647.674        5179.995  
 125965152.708    97972916.424    23556122.647 5  23556121.690 5  23556125.703 6
     -1004.468        -781.258  
 122793422.097    95506015.976    22995266.107 7  22995264.692 6  22995268.292 6
      7275.565        5658.770  
 11  5 30 16 58 15.0000000  0 13R21R12R11R22G 9G25G27G14G 4G 2G29R20
                                R13                                 
 105478091.695    82038534.141    19711103.382 8  19711102.637 8  19711104.035 7
      1444.619        1123.578  
 103163904.367    80238612.007    19312499.498 8  19312498.966 8  19312504.127 7
      4864.168        3783.223  
 108494919.046    84384958.311    20303346.157 7  20303345.731 7  20303350.680 6
       632.249         491.735  
 105138027.706    81774040.262    19695894.823 8  19695893.960 7  19695898.719 7
      5663.470        4404.886  
 112846447.170    87932308.0214   21473963.594 6  21473963.89343  21473969.96443
        -1.502          -1.162  
 111247481.099    86686365.9474   21169692.397 8  21169691.46346  21169697.41946
      5252.302        4092.687  
 119387829.941    93029504.0834   22718748.498 5  22718748.99542  22718755.15442
       347.235         270.576  
 116652216.047    90897844.2804   22198177.663 7  22198177.32744  22198181.14644
      2808.089        2188.117  
 118731253.297    92517874.5254   22593807.450 7  22593806.93744  22593811.22544
      2810.098        2189.680  
 119025788.756    92747394.6674   22649854.774 7  22649854.78245  22649857.77845
      5305.197        4133.894  
 120705754.890    94056451.6974   22969543.128 5  22969543.12843  22969548.18843
      6647.018        5179.447  
 125970175.372    97976822.942    23557059.433 5  23557060.696 5  23557065.277 6
     -1004.423        -781.232  
 122757044.306    95477722.161    22988451.382 6  22988451.367 6  22988455.189 6
      7275.648        5658.820  
 11  5 30 16 58 20.0000000  0 13R21R12R11R22G 9G25G27G14G 4G 2G29R20
                                R13                                 
 105470875.308    82032921.383    19709754.376 8  19709753.755 8  19709755.487 7
      1441.783        1121.375  
 103139589.006    80219700.053    19307947.988 8  19307947.530 8  19307952.418 8
      4861.912        3781.479  
 108491761.843    84382502.694    20302755.401 7  20302754.942 7  20302759.294 6
       630.319         490.246  
 105109717.508    81752021.235    19690591.014 8  19690590.503 8  19690595.321 7
      5660.570        4402.663  
 112846458.795    87932317.0714   21473967.450 6  21473966.61543  21473972.31143
        -2.966          -2.306  
 111221221.071    86665903.5834   21164695.060 9  21164694.37046  21164700.31846
      5251.607        4092.171  
 119386096.470    93028153.2684   22718419.372 5  22718419.07742  22718424.88542
       346.268         269.800  
 116638182.005    90886908.6634   22195506.312 6  22195506.45244  22195510.80144
      2805.126        2185.806  
 118717209.324    92506931.1754   22591135.314 7  22591135.09145  22591138.81045
      2807.627        2187.766  
 118999265.561    92726727.2684   22644806.936 7  22644806.99344  22644810.98744
      5303.606        4132.662  
 120672520.303    94030554.6224   22963219.723 5  22963218.80243  22963223.43442
      6646.656        5179.178  
 125975197.316    97980728.874    23557998.520 5  23557999.473 5  23558003.540 6
     -1004.148        -780.984  
 122720665.055    95449427.187    22981637.457 6  22981637.529 6  22981642.437 6
      7276.201        5659.265  
 11  5 30 16 58 25.0000000  0 13R21R12R11R22G 9G25G27G14G 4G 2G29R20
                                R13                                 
 105463673.071    82027319.665    19708407.994 8  19708407.210 8  19708409.891 7
      1438.921        1119.164  
 103115285.462    80200797.303    19303397.570 8  19303397.700 8  19303402.810 7
      4859.451        3779.595  
 108488614.640    84380054.854    20302166.198 7  20302165.893 7  20302170.834 6
       628.633         488.949  
 105081421.612    81730013.311    19685290.037 8  19685289.848 8  19685294.537 8
      5657.728        4400.487  
 112846477.223    87932331.3884   21473970.819 6  21473969.92943  21473976.13943
        -4.443          -3.469  
 111194965.024    86645444.3264   21159698.597 8  21159698.20446  21159703.91146
      5250.781        4091.529  
 119384366.401    93026805.2204   22718091.349 6  22718090.01942  22718095.95542
       345.467         269.173  
 116624161.024    90875983.2174   22192838.359 6  22192838.14344  22192842.57744
      2803.008        2184.162  
 118703179.159    92495998.5714   22588465.346 7  22588465.19545  22588468.89945
      2804.676        2185.473  
 118972749.930    92706065.7464   22639761.590 6  22639761.13445  22639765.31344
      5302.289        4131.684  
 120639288.157    94004659.4364   22956893.167 5  22956893.59542  22956899.89642
      6646.126        5178.812  
 125980218.299    97984634.077    23558940.068 5  23558939.643 5  23558943.209 6
     -1003.982        -780.857  
 122684284.150    95421130.929    22974825.292 6  22974824.739 6  22974829.387 6
      7276.399        5659.458  
 11  5 30 16 58 30.0000000  0 13R21R12R11R22G 9G25G27G14G 4G 2G29R20
                                R13                                 
 105456485.317    82021729.174    19707064.541 8  19707063.670 8  19707066.615 7
      1436.172        1117.042  
 103090994.101    80181904.028    19298850.046 8  19298849.923 8  19298855.401 8
      4857.064        3777.724  
 108485477.792    84377615.076    20301579.740 7  20301579.035 7  20301583.738 6
       626.370         487.184  
 105053140.412    81708016.836    19679991.451 8  19679991.365 8  19679996.090 7
      5654.859        4398.241  
 112846502.654    87932351.1804   21473976.015 5  21473974.28942  21473981.03743
        -5.652          -4.444  
 111168713.332    86624988.4684   21154703.771 9  21154702.64346  21154707.96546
      5249.939        4090.877  
 119382640.241    93025460.1734   22717761.913 6  22717761.93842  22717767.45042
       344.927         268.768  
 116610153.593    90865068.3444   22190172.529 6  22190172.59044  22190176.53844
      2800.191        2181.983  
 118689163.002    92485076.9044   22585797.567 7  22585797.78845  22585801.81445
      2801.718        2183.153  
 118946242.144    92685410.3104   22634717.537 6  22634716.67044  22634721.05344
      5300.822        4130.511  
 120606058.865    93978766.4794   22950569.206 5  22950569.66142  22950576.62242
      6645.478        5178.288  
 125985238.861    97988538.947    23559878.963 5  23559878.548 5  23559881.265 6
     -1003.782        -780.734  
 122647902.025    95392833.723    22968012.911 6  22968011.765 6  22968016.299 6
      7276.781        5659.712  
 11  5 30 16 58 35.0000000  0 13R21R12R11R22G 9G25G27G14G 4G 2G29R20
                                R13                                 
 105449312.149    82016150.039    19705723.191 8  19705722.882 8  19705725.677 7
      1433.261        1114.769  
 103066714.970    80163020.257    19294305.243 8  19294304.828 8  19294310.488 8
      4854.604        3775.801  
 108482351.230    84375183.307    20300994.320 7  20300994.318 7  20300999.094 6
       624.327         485.599  
 105024873.862    81686031.733    19674696.892 8  19674696.583 7  19674700.216 7
      5651.901        4395.925  
 112846535.117    87932376.5224   21473981.666 5  21473980.51342  21473986.94942
        -7.508          -5.845  
 111142465.950    86604535.9734   21149709.161 8  21149708.40346  21149713.35346
      5249.013        4090.141  
 119380917.972    93024118.0814   22717433.566 5  22717434.22142  22717440.44042
       344.033         268.096  
 116596159.557    90854163.9024   22187509.031 6  22187509.66144  22187513.65344
      2797.223        2179.686  
 118675160.916    92474166.1754   22583132.613 7  22583132.79844  22583137.15644
      2799.118        2181.146  
 118919742.270    92664761.0514   22629675.158 7  22629673.81945  22629678.35744
      5299.241        4129.274  
 120572832.543    93952875.8724   22944246.709 5  22944246.98442  22944254.47943
      6644.710        5177.679  
 125990258.833    97992443.389    23560816.752 5  23560817.232 5  23560820.176 6
     -1004.136        -781.008  
 122611518.677    95364535.615    22961199.513 6  22961198.803 6  22961203.655 6
      7276.659        5659.638  
 11  5 30 16 58 40.0000000  0 13R21R12R11R22G 9G25G27G14G 4G 2G29R20
                                R13                                 
 105442153.288    82010582.033    19704386.499 8  19704385.854 8  19704387.671 7
      1430.330        1112.472  
 103042447.900    80144145.868    19289762.628 8  19289761.916 8  19289766.831 7
      4852.292        3773.979  
 108479234.799    84372759.407    20300411.569 7  20300411.032 7  20300415.848 6
       622.313         484.000  
 104996621.836    81664057.961    19669405.161 8  19669403.997 8  19669407.432 7
      5648.898        4393.558  
 112846574.449    87932407.1054   21473989.262 5  21473988.19442  21473994.88942
        -8.373          -6.602  
 111116222.761    86584086.7284   21144713.916 8  21144713.88346  21144719.34846
      5248.223        4089.512  
 119379199.222    93022778.7874   22717108.078 6  22717107.78642  22717113.26342
       343.283         267.465  
 116582178.817    90843269.8124   22184850.353 7  22184849.47344  22184854.17844
      2794.758        2177.713  
 118661172.685    92463266.2594   22580471.269 7  22580471.12745  22580475.46945
      2796.178        2178.820  
 118893250.119    92644117.8464   22624633.107 7  22624632.51845  22624637.08645
      5297.697        4128.036  
 120539608.878    93926987.3124   22937924.055 5  22937923.87542  22937932.12243
      6644.670        5177.632  
 125995278.109    97996347.255    23561757.338 5  23561755.092 5  23561759.770 6
     -1003.707        -780.669  
 122575134.084    95336236.460    22954383.264 6  22954383.764 6  22954389.729 6
      7276.910        5659.809  
 11  5 30 16 58 45.0000000  0 12R21R12R11R22G 9G25G27G14G 4G 2G29R13
 105435008.677    82005025.128    19703051.887 8  19703051.250 8  19703052.816 7
      1427.462        1110.246  
 103018192.902    80125280.872    19285221.971 8  19285221.571 8  19285226.355 7
      4849.806        3772.062  
 108476128.581    84370343.447    20299829.743 7  20299830.015 7  20299834.284 5
       620.104         482.306  
 104968384.470    81642095.576    19664114.900 8  19664114.294 8  19664118.066 8
      5646.072        4391.405  
 112846620.706    87932443.1424   21473997.705 6  21473996.14842  21474003.01942
       -10.084          -7.833  
 111089983.803    86563640.7914   21139720.909 8  21139720.86546  21139726.37546
      5247.303        4088.807  
 119377484.287    93021442.4614   22716781.506 6  22716781.01942  22716786.60842
       342.313         266.760  
 116568211.441    90832386.1414   22182192.863 7  22182191.77744  22182196.19844
      2792.206        2175.759  
 118647198.327    92452377.1444   22577812.165 7  22577811.88344  22577815.70844
      2793.494        2176.771  
 118866765.780    92623480.7274   22619593.429 7  22619592.98745  22619597.40844
      5295.953        4126.709  
 120506387.893    93901100.8774   22931603.554 5  22931602.12342  22931610.26843
      6644.164        5177.215  
 122538748.108    95307936.276    22947568.933 6  22947569.298 6  22947575.503 6
      7277.340        5660.163  
 11  5 30 16 58 50.0000000  0 12R21R12R11R22G 9G25G27G14G 4G 2G29R13
 105427878.650    81999479.533    19701719.027 8  19701718.119 8  19701720.338 7
      1424.642        1108.061  
 102993950.143    80106425.405    19280683.249 8  19280682.496 8  19280688.015 7
      4847.254        3770.084  
 108473032.657    84367935.489    20299251.075 7  20299250.401 7  20299254.919 6
       618.152         480.769  
 104940161.835    81620144.631    19658827.652 8  19658827.102 8  19658830.774 7
      5643.013        4389.026  
 112846673.967    87932484.6554   21474008.918 5  21474006.13242  21474012.73742
       -11.558          -9.006  
 111063749.187    86543198.2254   21134728.557 8  21134728.22446  21134734.33447
      5246.488        4088.176  
 119375773.067    93020109.0214   22716455.516 6  22716455.56242  22716460.47742
       341.848         266.373  
 116554257.491    90821512.9334   22179535.742 6  22179536.23544  22179541.02544
      2789.652        2173.759  
 118633238.040    92441498.9964   22575155.890 7  22575155.48545  22575159.58845
      2790.515        2174.437  
 118840289.368    92602849.7704   22614554.976 7  22614554.28244  22614559.47044
      5294.457        4125.542  
 120473169.913    93875216.7834   22925282.907 5  22925282.58042  22925288.58442
      6643.638        5176.849  
 122502361.082    95279635.264    22940756.330 6  22940755.672 6  22940761.685 6
      7277.525        5660.297  
 11  5 30 16 58 55.0000000  0 12R21R12R11R22G 9G25G27G14G 4G 2G29R13
 105420763.286    81993945.370    19700389.714 8  19700388.581 8  19700391.047 7
      1421.632        1105.715  
 102969719.827    80087579.596    19276146.860 8  19276146.512 8  19276152.151 7
      4844.872        3768.233  
 108469947.199    84365535.696    20298673.182 7  20298673.075 7  20298677.625 5
       616.124         479.211  
 104911954.029    81598205.250    19653542.902 8  19653542.565 8  19653546.379 8
      5640.102        4386.754  
 112846734.443    87932531.7774   21474020.447 6  21474018.73342  21474025.03142
       -12.694          -9.883  
 111037519.134    86522759.2194   21129736.830 8  21129736.42246  21129742.77846
      5245.572        4087.465  
 119374065.839    93018778.7254   22716131.476 6  22716130.54142  22716135.47342
       341.139         265.890  
 116540317.198    90810650.3694   22176884.442 7  22176883.67144  22176888.24244
      2786.888        2171.609  
 118619292.003    92430631.9594   22572501.985 7  22572501.26144  22572505.93344
      2787.672        2172.215  
 118813821.032    92582225.1184   22609518.996 7  22609517.99445  22609522.76345
      5292.709        4124.185  
 120439955.142    93849335.1634   22918962.356 5  22918962.42642  22918966.99942
      6642.432        5175.967  
 122465972.845    95251333.314    22933943.724 6  22933942.054 6  22933946.863 6
      7277.884        5660.595  
 11  5 30 16 59  0.0000000  0 12R21R12R11R22G 9G25G27G14G 4G 2G29R13
 105413662.656    81988422.652    19699062.138 8  19699061.629 8  19699064.634 7
      1418.702        1103.432  
 102945502.043    80068743.542    19271612.864 8  19271612.834 8  19271619.135 7
      4842.288        3766.232  
 108466872.427    84363144.210    20298098.523 7  20298098.182 7  20298102.282 5
       614.003         477.553  
 104883761.297    81576277.565    19648261.692 8  19648261.011 7  19648264.787 8
      5637.225        4384.497  
 112846802.220    87932584.5414   21474031.648 5  21474031.10342  21474037.32742
       -14.028         -10.911  
 111011293.736    86502323.8564   21124746.337 8  21124745.73246  21124752.25946
      5244.727        4086.803  
 119372362.697    93017451.5824   22715807.805 5  22715807.02242  22715811.05442
       340.322         265.199  
 116526390.703    90799798.5254   22174233.264 7  22174233.18644  22174238.07044
      2784.092        2169.424  
 118605360.276    92419776.0734   22569849.464 7  22569849.77344  22569854.95244
      2784.896        2170.045  
 118787360.959    92561606.8724   22604482.870 7  22604482.97945  22604487.37645
      5291.104        4122.927  
 120406743.619    93823456.0124   22912642.335 5  22912642.07842  22912647.03142
      6641.996        5175.587  
 122429583.850    95223030.765    22927128.573 6  22927127.944 6  22927132.861 6
      7277.874        5660.587  
 11  5 30 16 59  5.0000000  0 12R21R12R11R22G 9G25G27G14G 4G 2G29R13
 105406576.765    81982911.406    19697738.224 8  19697737.600 8  19697740.555 7
      1415.751        1101.140  
 102921296.916    80049917.318    19267081.919 8  19267081.555 8  19267088.143 8
      4839.805        3764.303  
 108463808.181    84360760.885    20297525.215 7  20297524.707 7  20297529.248 5
       611.852         475.887  
 104855583.615    81554361.594    19642982.700 8  19642982.139 7  19642986.339 7
      5634.013        4382.002  
 112846877.247    87932643.0124   21474046.372 5  21474044.94542  21474051.15542
       -15.429         -12.048  
 110985072.996    86481892.1124   21119756.681 8  21119755.80546  21119762.70546
      5243.671        4085.983  
 119370663.621    93016127.6334   22715483.920 5  22715483.68242  22715487.64642
       339.412         264.452  
 116512477.886    90788957.3744   22171586.337 7  22171585.76844  22171590.97144
      2781.434        2167.363  
 118591442.892    92408931.3534   22567201.132 7  22567201.39444  22567206.55044
      2782.023        2167.823  
 118760909.164    92540995.0854   22599449.943 7  22599449.47445  22599453.69045
      5289.656        4121.807  
 120373535.229    93797579.3624   22906322.640 5  22906322.32642  22906328.03242
      6641.326        5175.033  
 122393193.947    95194727.506    22920314.372 7  22920312.962 6  22920318.171 6
      7278.085        5660.745  
 11  5 30 16 59 10.0000000  0 12R21R12R11R22G 9G25G27G14G 4G 2G29R13
 105399505.538    81977411.559    19696416.239 8  19696416.154 8  19696418.895 7
      1412.619        1098.703  
 102897104.430    80031100.940    19262553.567 8  19262552.917 8  19262558.343 7
      4837.054        3762.149  
 108460754.510    84358385.796    20296954.014 7  20296953.395 7  20296957.873 5
       609.563         474.097  
 104827421.008    81532457.330    19637706.894 7  19637706.300 7  19637710.795 8
      5631.008        4379.660  
 112846959.658    87932707.1984   21474060.766 6  21474060.49342  21474067.71042
       -17.417         -13.572  
 110958856.907    86461464.0054   21114768.099 8  21114767.47346  21114773.93846
      5242.636        4085.131  
 119368968.653    93014806.9094   22715162.075 5  22715160.87242  22715165.04042
       338.259         263.580  
 116498578.812    90778126.9204   22168941.298 7  22168940.90644  22168945.98244
      2778.024        2164.684  
 118577539.902    92398097.8604   22564554.500 7  22564555.70744  22564560.69244
      2779.091        2165.515  
 118734465.709    92520389.8134   22594417.784 7  22594417.25745  22594421.22945
      5287.668        4120.259  
 120340330.171    93771705.3374   22900004.443 5  22900004.29442  22900009.96742
      6641.127        5174.883  
 122356803.254    95166423.628    22913497.621 6  22913498.046 6  22913503.005 6
      7278.129        5660.761  
 11  5 30 16 59 15.0000000  0 12R21R12R11R22G 9G25G27G14G 4G 2G29R13
 105392449.410    81971923.465    19695097.695 8  19695097.423 8  19695099.976 7
      1409.841        1096.536  
 102872924.841    80012294.599    19258028.118 8  19258027.097 8  19258031.389 7
      4834.662        3760.294  
 108457711.779    84356019.220    20296383.834 7  20296383.396 7  20296388.901 6
       607.443         472.460  
 104799273.879    81510565.127    19632434.167 7  19632433.253 7  19632437.965 8
      5627.987        4377.300  
 112847049.613    87932777.2754   21474079.224 5  21474078.72242  21474084.46842
       -18.649         -14.573  
 110932645.905    86441039.8414   21109781.071 8  21109780.18846  21109786.74946
      5241.782        4084.495  
 119367278.150    93013489.6244   22714840.885 5  22714839.61342  22714843.74542
       337.557         263.019  
 116484693.866    90767307.4914   22166299.233 7  22166299.11645  22166303.64245
      2775.356        2162.605  
 118563651.568    92387275.7804   22561912.522 7  22561912.43544  22561916.95344
      2776.405        2163.420  
 118708030.821    92499791.2144   22589386.698 7  22589386.72145  22589390.70445
      5286.122        4119.028  
 120307128.741    93745834.1024   22893686.390 6  22893687.04742  22893692.31942
      6640.000        5173.995  
 122320412.185    95138119.479    22906683.550 6  22906682.470 6  22906687.653 6
      7278.155        5660.778  
 11  5 30 16 59 20.0000000  0 12R21R12R11R22G 9G25G27G14G 4G 2G29R13
 105385408.143    81966446.917    19693782.966 8  19693781.972 8  19693784.480 7
      1406.868        1094.233  
 102848758.104    79993498.246    19253503.667 8  19253503.125 8  19253507.644 7
      4832.017        3758.235  
 108454679.795    84353661.015    20295816.877 7  20295816.496 7  20295821.236 6
       605.137         470.661  
 104771142.014    81488684.797    19627164.089 8  19627163.678 8  19627167.837 8
      5624.841        4374.869  
 112847147.067    87932853.1814   21474099.474 5  21474097.16742  21474102.68742
       -20.320         -15.826  
 110906439.777    86420619.4854   21104794.368 8  21104793.25446  21104799.63446
      5240.723        4083.680  
 119365591.894    93012175.6314   22714518.626 5  22714518.39642  22714522.55142
       337.293         262.869  
 116470822.816    90756498.8784   22163660.804 7  22163660.25745  22163663.92245
      2772.831        2160.633  
 118549777.811    92376465.0584   22559272.029 6  22559272.09344  22559276.85844
      2773.309        2161.059  
 118681604.518    92479199.2934   22584357.916 7  22584357.81645  22584361.98145
      5284.600        4117.878  
 120273930.755    93719965.5544   22887368.924 5  22887369.49743  22887374.86443
      6639.345        5173.484  
 122284020.492    95109814.837    22899869.563 6  22899868.173 6  22899873.040 6
      7278.470        5661.020  
 11  5 30 16 59 25.0000000  0 12R21R12R11R22G 9G25G27G14G 4G 2G29R13
 106982632.998    83208732.913    19992263.364 8  19992262.261 8  19992264.214 7
      1403.912        1091.928  
 104426046.408    81220278.044    19548774.780 8  19548774.569 8  19548779.994 7
      4829.414        3756.214  
 110053659.200    85597311.652    20595043.395 7  20595043.376 7  20595047.947 5
       603.263         469.216  
 106343343.447    82711508.154    19921690.488 8  19921690.094 8  19921694.129 8
      5621.883        4372.595  
 114422671.800    89160534.7974   21773909.839 5  21773909.23842  21773914.16642
       -21.807         -16.989  
 112455663.653    87627806.9264   21399601.113 8  21399600.39646  21399606.66446
      5239.857        4083.021  
 120939330.135    94238465.1434   23013989.865 5  23013990.29442  23013995.47842
       336.422         262.150  
 118032388.389    91973303.2184   22460817.098 7  22460816.53345  22460820.16745
      2770.085        2158.521  
 120111341.207    93593267.7124   22856427.118 7  22856427.39744  22856432.36644
      2770.367        2158.747  
 120230611.876    93686218.0134   22879126.112 7  22879124.62345  22879127.97144
      5282.954        4116.605  
 121816162.771    94921704.8134   23180845.560 5  23180846.09343  23180851.73843
      6638.475        5172.844  
 123848510.359    96326640.300    23192847.744 6  23192847.071 6  23192851.949 6
      7278.653        5661.172  
 11  5 30 16 59 30.0000000  0 12R21R12R11R22G 9G25G27G14G 4G 2G29R13
 106975621.429    83203279.471    19990952.503 8  19990952.129 8  19990953.555 7
      1400.812        1089.525  
 104401905.259    81201501.585    19544255.263 8  19544255.443 8  19544261.070 7
      4826.941        3754.284  
 110050648.716    85594970.165    20594479.805 7  20594479.933 7  20594484.047 5
       601.029         467.469  
 106315242.111    82689651.572    19916426.452 8  19916426.004 7  19916429.822 8
      5618.812        4370.201  
 114422784.025    89160622.2484   21773933.664 5  21773931.07942  21773935.93142
       -22.998         -17.922  
 112429467.240    87607394.1394   21394616.339 8  21394615.62246  21394621.34246
      5238.810        4082.185  
 120937652.371    94237157.8064   23013671.739 5  23013671.36942  23013675.93942
       335.081         261.123  
 118018545.186    91962516.3024   22458183.041 7  22458182.38045  22458186.30545
      2767.224        2156.275  
 120097496.474    93582479.6064   22853792.460 7  22853792.72644  22853797.40444
      2767.489        2156.500  
 120204202.537    93665639.3374   22874100.500 7  22874099.36845  22874102.48944
      5280.977        4115.029  
 121782971.658    94895841.6214   23174528.807 5  23174529.88242  23174534.78242
      6638.008        5172.449  
 123812117.337    96298334.650    23186032.709 6  23186031.582 6  23186036.116 6
      7278.634        5661.151  
 11  5 30 16 59 35.0000000  0 12R21R12R11R22G 9G25G27G14G 4G 2G29R13
 106968624.899    83197837.705    19989645.386 8  19989644.940 8  19989645.844 7
      1397.844        1087.218  
 104377777.162    81182735.293    19539739.342 8  19539738.795 8  19539744.313 8
      4824.401        3752.317  
 110047649.254    85592637.253    20593918.813 7  20593918.758 7  20593922.793 5
       598.757         465.724  
 106287156.336    82667807.093    19911165.464 8  19911164.730 8  19911168.000 8
      5615.552        4367.660  
 114422903.944    89160715.6374   21773957.079 6  21773953.92542  21773958.83942
       -24.662         -19.253  
 112403275.922    87586985.3114   21389632.354 8  21389631.58346  21389637.46446
      5237.697        4081.319  
 120935979.010    94235853.8724   23013354.456 5  23013352.67042  23013357.69642
       334.439         260.581  
 118004716.075    91951740.3694   22455551.432 7  22455550.51545  22455554.42745
      2764.419        2154.100  
 120083666.436    93571702.9574   22851159.947 7  22851160.75144  22851165.95744
      2764.543        2154.186  
 120177801.934    93645067.4394   22869075.444 7  22869075.39445  22869078.81545
      5279.221        4113.691  
 121749784.278    94869981.3504   23168215.853 6  23168214.91942  23168219.80042
      6636.876        5171.595  
 123775723.969    96270028.692    23179216.455 6  23179216.840 6  23179222.071 6
      7278.839        5661.315  
 11  5 30 16 59 40.0000000  0 12R21R12R11R22G 9G25G27G14G 4G 2G29R13
 106961643.150    83192407.450    19988340.545 8  19988339.892 8  19988341.022 7
      1394.892        1084.925  
 104353661.909    81163978.994    19535224.469 8  19535224.168 8  19535229.401 7
      4821.672        3750.177  
 110044660.524    85590312.679    20593359.537 7  20593359.546 6  20593363.795 5
       596.710         464.126  
 106259085.694    82645974.378    19905906.748 8  19905906.123 8  19905909.573 7
      5612.585        4365.362  
 114423031.269    89160814.8764   21773979.289 6  21773978.51942  21773982.85742
       -26.595         -20.679  
 112377089.440    87566580.2684   21384649.471 8  21384648.89646  21384654.18046
      5236.818        4080.628  
 120934309.782    94234553.1794   23013036.969 5  23013036.03442  23013040.05142
       333.635         259.950  
 117990900.846    91940975.2744   22452921.670 7  22452921.37645  22452925.40545
      2761.440        2151.763  
 120069850.943    93560937.6254   22848531.754 7  22848532.38044  22848537.47544
      2761.687        2151.961  
 120151409.844    93624502.1744   22864054.097 7  22864053.44845  22864056.32045
      5277.493        4112.319  
 121716600.322    94844123.7184   23161899.377 5  23161899.83242  23161905.16842
      6636.309        5171.224  
 123739330.031    96241722.328    23172401.488 6  23172401.421 6  23172405.617 6
      7278.592        5661.141  
 11  5 30 16 59 45.0000000  0 12R21R12R11R22G 9G25G27G14G 4G 2G29R13
 106954676.529    83186988.973    19987038.381 8  19987037.630 8  19987039.144 7
      1391.803        1082.519  
 104329559.868    81145232.952    19530712.094 8  19530711.922 8  19530717.674 7
      4819.110        3748.189  
 110041682.803    85587996.675    20592802.250 7  20592802.127 7  20592806.736 6
       594.320         462.265  
 106231030.776    82624153.891    19900650.388 8  19900650.228 8  19900653.943 8
      5609.340        4362.810  
 114423166.240    89160920.0534   21774002.841 5  21774003.38442  21774008.96642
       -28.290         -22.074  
 112350908.147    87546179.2474   21379667.550 8  21379666.99046  21379671.99646
      5235.791        4079.844  
 120932645.262    94233256.1114   23012719.765 5  23012718.81542  23012723.46042
       332.388         259.004  
 117977099.800    91930221.2084   22450294.916 7  22450294.67245  22450299.23945
      2758.825        2149.731  
 120056050.192    93550183.7994   22845905.093 7  22845905.98444  22845911.25144
      2758.377        2149.394  
 120125026.562    93603943.7834   22859033.378 7  22859032.81445  22859036.09945
      5275.799        4111.035  
 121683419.991    94818268.9374   23155582.612 5  23155585.28442  23155590.01342
      6636.319        5171.109  
 123702935.914    96213415.758    23165587.966 6  23165586.426 6  23165589.657 6
      7278.729        5661.229  
 11  5 30 16 59 50.0000000  0 12R21R12R11R22G 9G25G27G14G 4G 2G29R13
 106947725.149    83181582.331    19985738.843 8  19985738.557 8  19985739.779 7
      1388.655        1080.067  
 104305471.119    81126497.254    19526204.132 8  19526203.314 8  19526208.718 8
      4816.398        3746.081  
 110038716.239    85585689.332    20592246.263 6  20592246.386 6  20592251.573 5
       592.182         460.589  
 106202991.525    82602345.602    19895398.071 8  19895397.488 8  19895400.969 8
      5606.310        4360.452  
 114423308.968    89161031.2544   21774031.411 6  21774030.78942  21774035.65642
       -29.289         -22.835  
 112324732.150    87525782.3684   21374686.300 9  21374685.66746  21374691.05146
      5234.701        4078.978  
 120930985.164    94231962.5454   23012402.392 5  23012402.18242  23012407.77542
       331.587         258.362  
 117963313.100    91919478.3124   22447671.598 7  22447671.00345  22447675.42545
      2755.976        2147.519  
 120042264.394    93539441.6204   22843281.920 7  22843282.15244  22843288.25144
      2755.667        2147.258  
 120098652.259    93583392.3754   22854014.482 7  22854014.19645  22854017.12145
      5273.905        4109.538  
 121650243.797    94792417.3744   23149269.675 4  23149270.76442  23149277.89742
      6634.591        5169.772  
 123666541.578    96185109.064    23158771.046 6  23158770.664 6  23158775.092 6
      7278.785        5661.281  
 11  5 30 16 59 55.0000000  0 12R21R12R11R22G 9G25G27G14G 4G 2G29R13
 106940788.989    83176187.548    19984443.056 8  19984442.283 8  19984443.838 7
      1385.870        1077.895  
 104281395.720    81107771.966    19521696.393 8  19521696.079 8  19521701.617 7
      4813.724        3743.992  
 110035760.822    85583390.660    20591691.468 6  20591692.431 6  20591698.764 6
       589.981         458.870  
 106174968.190    82580549.683    19890147.532 8  19890147.655 8  19890151.543 7
      5603.123        4357.980  
 114423459.702    89161148.6484   21774059.859 6  21774059.09742  21774064.72442
       -30.929         -24.060  
 112298561.546    87505389.6944   21369705.861 8  21369705.35446  21369710.87746
      5233.509        4078.049  
 120929329.866    94230672.7104   23012088.357 5  23012087.30342  23012091.92642
       330.716         257.710  
 117949540.822    91908746.6604   22445051.997 6  22445050.77545  22445054.58745
      2753.081        2145.244  
 120028493.614    93528711.1464   22840663.128 7  22840662.64244  22840667.75144
      2752.654        2144.941  
 120072286.974    93562848.0134   22848997.695 7  22848997.33545  22848999.46645
      5272.195        4108.212  
 121617071.491    94766568.8514   23142956.760 4  23142957.48742  23142966.18341
      6633.695        5169.119  
 123630147.160    96156802.325    23151957.771 6  23151955.945 6  23151960.435 6
      7278.700        5661.178  
 11  5 30 17  0  0.0000000  0 12R21R12R11R22G 9G25G27G14G 4G 2G29R13
 106933867.804    83170804.407    19983149.077 8  19983148.395 8  19983150.166 7
      1382.734        1075.452  
 104257333.475    81089056.885    19517192.693 8  19517191.919 8  19517196.990 8
      4811.113        3741.986  
 110032816.349    85581100.513    20591141.054 6  20591141.311 6  20591147.195 6
       587.887         457.281  
 106146960.332    82558765.799    19884901.177 8  19884900.947 8  19884905.190 8
      5599.970        4355.523  
 114423617.912    89161271.9444   21774091.348 6  21774089.55742  21774094.66642
       -32.314         -25.196  
 112272396.059    87485001.0054   21364726.511 8  21364726.04046  21364731.77846
      5232.646        4077.392  
 120927678.900    94229386.2554   23011774.491 5  23011772.77842  23011778.59342
       329.886         257.010  
 117935782.675    91898026.0284   22442432.452 7  22442432.13144  22442436.55744
      2750.175        2142.997  
 120014737.571    93517992.1474   22838045.301 7  22838045.27144  22838050.02544
      2749.712        2142.635  
 120045930.525    93542310.5314   22843981.803 7  22843981.70845  22843984.02045
      5270.443        4106.837  
 121583902.938    94740723.2354   23136646.480 4  23136645.63541  23136655.08441
      6633.301        5168.825  
 123593752.566    96128495.442    23145140.338 6  23145139.979 6  23145145.730 6
      7278.883        5661.350  
 11  5 30 17  0  5.0000000  0 12R21R12R11R22G 9G25G27G14G 4G 2G29R13
 106926961.931    83165433.168    19981859.064 8  19981858.482 8  19981859.948 7
      1379.823        1073.195  
 104233284.664    81070352.249    19512689.717 8  19512689.713 8  19512694.641 7
      4808.439        3739.896  
 110029883.162    85578819.110    20590593.972 6  20590592.768 6  20590598.083 6
       585.630         455.488  
 106118968.388    82536994.285    19879657.491 8  19879656.950 8  19879661.594 8
      5596.812        4353.071  
 114423784.006    89161401.3744   21774123.806 7  21774121.72742  21774126.95342
       -33.847         -26.321  
 112246235.946    87464616.5034   21359748.225 8  21359747.78446  21359753.93746
      5231.508        4076.496  
 120926032.785    94228103.5434   23011459.388 4  23011458.63042  23011465.38642
       329.084         256.450  
 117922038.865    91887316.5534   22439817.399 7  22439816.63945  22439821.41845
      2747.407        2140.830  
 120000996.508    93507284.8384   22835429.921 7  22835430.34644  22835435.06244
      2746.720        2140.320  
 120019583.140    93521780.0954   22838968.258 7  22838967.99845  22838970.15045
      5268.754        4105.540  
 121550738.315    94714880.7314   23130329.781 4  23130333.76441  23130344.03941
      6633.591        5169.062  
 123557358.013    96100188.573    23138323.928 6  23138323.012 6  23138329.610 6
      7279.025        5661.464  
 11  5 30 17  0 10.0000000  0 12R21R12R11R22G 9G25G27G14G 4G 2G29R13
 106920071.174    83160073.675    19980570.750 8  19980570.851 8  19980571.933 7
      1376.624        1070.706  
 104209249.208    81051658.001    19508190.395 8  19508190.032 8  19508194.500 7
      4805.715        3737.771  
 110026960.959    85576546.279    20590046.725 6  20590047.076 6  20590050.936 5
       583.373         453.724  
 106090992.175    82515235.013    19874416.210 8  19874415.890 8  19874420.764 8
      5593.630        4350.602  
 114423957.888    89161536.8454   21774156.654 7  21774155.60642  21774160.80543
       -35.547         -27.736  
 112220081.166    87444236.1604   21354771.815 9  21354770.71846  21354777.11346
      5230.476        4075.681  
 120924391.176    94226824.3604   23011147.560 5  23011145.33642  23011153.18642
       327.473         255.116  
 117908309.398    91876618.2574   22437204.469 7  22437203.63845  22437208.55345
      2744.476        2138.560  
 119987270.377    93496589.1444   22832817.817 7  22832818.05344  22832822.74744
      2743.680        2137.917  
 119993244.775    93501256.7114   22833956.280 7  22833955.70245  22833958.56045
      5266.869        4104.061  
 121517577.777    94689041.3654   23124024.942 4  23124023.82141  23124033.57941
      6631.919        5167.730  
 123520963.429    96071881.694    23131508.778 6  23131508.062 6  23131513.634 6
      7278.802        5661.282  
 11  5 30 17  0 15.0000000  0 12R21R12R11R22G 9G25G27G14G 4G 2G29R13
 106913195.570    83154725.990    19979286.487 8  19979286.126 8  19979287.286 7
      1373.648        1068.398  
 104185227.101    81032974.141    19503692.518 8  19503692.694 8  19503697.316 7
      4803.108        3735.756  
 110024049.956    85574282.157    20589501.593 7  20589502.421 6  20589506.328 5
       581.120         451.997  
 106063031.840    82493488.094    19869178.766 8  19869178.053 8  19869182.843 8
      5590.473        4348.161  
 114424139.523    89161678.3844   21774190.201 6  21774190.20042  21774195.31443
       -36.973         -28.816  
 112193931.749    87423859.9894   21349795.676 8  21349794.98346  21349800.94946
      5229.380        4074.850  
 120922754.315    94225548.8444   23010835.743 4  23010834.26242  23010841.88842
       326.557         254.472  
 117894594.264    91865931.1304   22434594.561 7  22434593.86144  22434598.46945
      2741.288        2136.075  
 119973559.134    93485905.0534   22830208.786 7  22830209.07944  22830213.28044
      2740.988        2135.828  
 119966915.488    93480740.3904   22828945.557 7  22828945.53045  22828948.45445
      5264.852        4102.478  
 121484421.269    94663205.1134   23117715.413 4  23117715.03241  23117724.04941
      6630.867        5166.919  
 123484568.632    96043574.628    23124692.756 6  23124692.825 6  23124697.599 6
      7279.007        5661.465  
 11  5 30 17  0 20.0000000  0 12R21R12R11R22G 9G25G27G14G 4G 2G29R13
 106906335.092    83149390.062    19978004.252 8  19978003.891 8  19978005.264 7
      1370.596        1066.021  
 104161218.377    81014300.697    19499198.365 8  19499197.744 8  19499202.410 7
      4800.345        3733.592  
 110021150.033    85572026.672    20588960.007 6  20588959.177 6  20588963.481 5
       578.775         450.146  
 106035087.171    82471753.369    19863944.206 8  19863943.480 8  19863947.857 8
      5587.362        4345.716  
 114424328.884    89161825.9144   21774226.225 6  21774225.83842  21774232.02743
       -38.778         -30.179  
 112167787.621    87403487.9554   21344820.880 8  21344819.97646  21344825.94646
      5228.272        4073.975  
 120921121.853    94224276.8044   23010524.922 5  23010524.26942  23010530.76942
       326.058         254.071  
 117880893.392    91855255.1224   22431988.065 7  22431986.76245  22431991.24045
      2738.718        2134.092  
 119959862.866    93475232.6404   22827602.260 7  22827602.71444  22827607.20144
      2737.718        2133.263  
 119940595.185    93460231.0724   22823936.907 7  22823936.72745  22823939.79345
      5263.296        4101.272  
 121451268.680    94637371.9434   23111406.259 4  23111406.19241  23111415.68641
      6630.190        5166.408  
 123448173.945    96015267.659    23117878.426 6  23117876.954 6  23117881.280 6
      7278.995        5661.460  
 11  5 30 17  0 25.0000000  0 12R21R12R11R22G 9G25G27G14G 4G 2G29R13
 106899489.998    83144066.094    19976724.637 8  19976724.644 8  19976726.020 7
      1367.401        1063.532  
 104137223.170    80995637.760    19494705.711 8  19494705.341 8  19494710.596 7
      4797.626        3731.491  
 110018261.375    85569779.913    20588418.595 6  20588417.929 6  20588423.770 5
       576.816         448.624  
 106007158.553    82450031.107    19858712.305 8  19858711.691 8  19858715.708 7
      5584.199        4343.256  
 114424526.134    89161979.6084   21774263.833 6  21774263.18042  21774268.58442
       -40.224         -31.347  
 112141649.013    87383120.1984   21339847.321 8  21339846.32146  21339851.95846
      5227.197        4073.143  
 120919494.236    94223008.5254   23010214.921 5  23010215.11542  23010221.68042
       325.143         253.330  
 117867206.985    91844590.3854   22429383.343 7  22429382.54245  22429387.03845
      2735.840        2131.818  
 119946181.709    93464571.9974   22824998.728 7  22824999.00744  22825003.76744
      2734.722        2130.961  
 119914284.140    93439728.9474   22818930.002 7  22818929.69245  22818932.88445
      5261.336        4099.744  
 121418120.178    94611541.9574   23105100.809 5  23105099.30141  23105106.80542
      6629.167        5165.555  
 123411779.380    95986960.799    23111063.814 6  23111062.110 6  23111066.191 6
      7278.831        5661.321  
 11  5 30 17  0 30.0000000  0 12R21R12R11R22G 9G25G27G14G 4G 2G29R13
 106892660.323    83138754.124    19975449.205 8  19975448.250 8  19975449.390 7
      1364.542        1061.318  
 104113241.811    80976985.579    19490216.336 8  19490216.015 8  19490221.422 7
      4794.870        3729.339  
 110015384.177    85567542.080    20587879.583 6  20587879.436 6  20587885.424 5
       574.333         446.707  
 105979246.163    82428321.476    19853483.706 8  19853483.036 8  19853486.554 8
      5580.894        4340.698  
 114424731.465    89162139.5824   21774303.085 6  21774302.45742  21774307.03642
       -41.738         -32.530  
 112115516.131    87362756.9234   21334873.952 8  21334873.36146  21334879.34446
      5225.983        4072.202  
 120917871.582    94221744.1094   23009906.738 4  23009906.12442  23009912.45841
       324.466         252.844  
 117853535.315    91833937.1264   22426781.777 7  22426780.94645  22426785.62445
      2732.949        2129.571  
 119932515.858    93453923.2754   22822398.794 7  22822398.81844  22822403.26644
      2731.428        2128.388  
 119887982.516    93419234.1934   22813924.809 7  22813924.60845  22813927.68845
      5259.416        4098.234  
 121384976.183    94585715.4854   23098792.630 5  23098793.07841  23098799.33842
      6628.158        5164.848  
 123375385.168    95958654.179    23104247.462 6  23104246.479 6  23104250.917 6
      7278.924        5661.402  
 11  5 30 17  0 35.0000000  0 12R21R12R11R22G 9G25G27G14G 4G 2G29R13
 106885845.557    83133453.750    19974175.241 8  19974174.963 8  19974175.831 7
      1361.289        1058.782  
 104089273.773    80958343.780    19485729.856 8  19485729.196 8  19485734.589 7
      4792.141        3727.217  
 110012518.006    85565312.819    20587343.054 6  20587342.485 6  20587349.221 6
       571.938         444.842  
 105951349.466    82406624.041    19848257.635 8  19848257.039 8  19848260.482 7
      5577.719        4338.232  
 114424944.449    89162305.5644   21774344.413 7  21774342.93442  21774348.00642
       -43.249         -33.722  
 112089388.474    87342397.7074   21329901.796 8  21329901.35046  21329907.27246
      5224.851        4071.301  
 120916253.451    94220483.2534   23009599.078 4  23009598.06742  23009604.08941
       323.005         251.709  
 117839877.769    91823294.8764   22424182.854 7  22424182.22145  22424186.50245
      2729.902        2127.192  
 119918864.845    93443286.1224   22819800.825 7  22819800.81244  22819805.80244
      2728.720        2126.283  
 119861689.829    93398746.3814   22808921.471 7  22808921.40145  22808924.28645
      5257.553        4096.813  
 121351835.964    94559891.9534   23092487.019 4  23092486.70441  23092493.14041
      6627.783        5164.581  
 123338990.819    95930347.487    23097431.479 6  23097430.852 6  23097436.051 6
      7278.870        5661.360  
 11  5 30 17  0 40.0000000  0 12R21R12R11R22G 9G25G27G14G 4G 2G29R13
 106879046.625    83128165.693    19972904.929 8  19972904.405 8  19972905.628 7
      1358.345        1056.490  
 104065319.821    80939712.924    19481245.999 8  19481245.431 8  19481250.465 7
      4789.392        3725.083  
 110009663.563    85563092.642    20586809.906 6  20586808.865 6  20586815.200 6
       569.959         443.305  
 105923469.230    82384939.418    19843034.375 8  19843033.901 8  19843037.350 7
      5574.533        4335.742  
 114425165.810    89162478.0334   21774386.535 6  21774384.72242  21774390.53042
       -45.059         -35.122  
 112063266.824    87322043.1754   21324930.504 8  21324930.38546  21324936.54646
      5223.799        4070.491  
 120914640.475    94219226.3164   23009289.443 4  23009291.36842  23009296.04941
       321.725         250.630  
 117826235.155    91812664.2644   22421586.764 7  22421586.12345  22421590.42745
      2727.169        2125.076  
 119905229.362    93432661.0664   22817206.148 7  22817206.14844  22817211.21544
      2725.795        2123.992  
 119835406.849    93378266.1494   22803920.123 7  22803919.87045  22803922.72245
      5255.628        4095.284  
 121318700.280    94534071.9644   23086182.157 5  23086181.86641  23086187.15441
      6626.925        5163.823  
 123302597.065    95902041.239    23090615.357 6  23090614.899 6  23090620.496 6
      7278.854        5661.326  
 11  5 30 17  0 45.0000000  0 12R21R12R11R22G 9G25G27G14G 4G 2G29R13
 106872262.823    83122889.396    19971636.678 8  19971636.254 8  19971637.591 7
      1355.255        1054.079  
 104041379.477    80921092.649    19476764.030 8  19476763.777 8  19476768.726 7
      4786.670        3722.968  
 110006820.345    85560881.237    20586278.712 6  20586277.361 6  20586283.332 6
       567.538         441.431  
 105895605.035    82363267.262    19837814.029 8  19837813.619 8  19837817.364 7
      5571.141        4333.108  
 114425394.916    89162656.5564   21774430.776 7  21774429.30142  21774434.28542
       -46.618         -36.345  
 112037150.632    87301692.9034   21319960.841 8  21319960.59946  21319966.77546
      5222.610        4069.564  
 120913032.190    94217973.1574   23008982.588 4  23008985.13741  23008990.35241
       320.892         250.065  
 117812606.964    91802044.9004   22418993.363 7  22418992.43645  22418996.98244
      2723.953        2122.558  
 119891608.931    93422047.7474   22814614.264 7  22814614.39744  22814619.36744
      2722.681        2121.562  
 119809133.097    93357793.0824   22798920.660 7  22798920.36245  22798922.80345
      5253.774        4093.858  
 121285568.909    94508255.2864   23079874.654 4  23079876.48041  23079882.88041
      6625.945        5163.057  
 123266203.535    95873735.162    23083799.587 6  23083799.715 6  23083804.565 6
      7278.956        5661.418  
 11  5 30 17  0 50.0000000  0 12R21R12R11R22G 9G25G27G14G 4G 2G29R13
 106865494.375    83117625.041    19970373.031 8  19970372.318 8  19970373.213 7
      1352.128        1051.651  
 104017452.761    80902482.988    19472285.427 8  19472285.087 8  19472289.541 7
      4783.866        3720.781  
 110003988.401    85558678.622    20585748.962 7  20585748.487 6  20585753.221 6
       565.144         439.552  
 105867756.841    82341607.562    19832596.845 8  19832596.522 8  19832600.275 7
      5568.046        4330.688  
 114425631.992    89162841.2684   21774475.457 7  21774474.39442  21774478.84642
       -48.228         -37.626  
 112011040.016    87281346.9654   21314992.177 8  21314991.90946  21314997.71646
      5221.591        4068.770  
 120911428.706    94216723.6464   23008679.038 4  23008679.83741  23008685.32141
       321.256         250.350  
 117798993.239    91791436.8094   22416402.736 7  22416402.06844  22416406.06844
      2721.313        2120.513  
 119878003.559    93411446.1754   22812025.422 7  22812025.13044  22812030.42144
      2719.644        2119.191  
 119782868.631    93337327.2814   22793922.632 7  22793922.34345  22793924.99945
      5252.032        4092.496  
 121252441.743    94482441.8934   23073573.051 5  23073573.24841  23073578.94341
      6624.630        5162.015  
 123229810.195    95845429.235    23076982.834 6  23076982.460 6  23076988.240 6
      7278.636        5661.154  
 11  5 30 17  0 55.0000000  0 12R21R12R11R22G 9G25G27G14G 4G 2G29R13
 106858741.189    83112372.574    19969110.974 8  19969110.181 8  19969111.438 7
      1349.117        1049.320  
 103993539.724    80883883.976    19467809.618 8  19467809.103 8  19467813.117 7
      4781.229        3718.746  
 110001167.689    85556484.733    20585220.077 7  20585219.913 6  20585225.429 5
       563.026         437.925  
 105839924.737    82319960.375    19827383.276 8  19827382.614 8  19827386.439 7
      5564.824        4328.199  
 114425876.978    89163032.1404   21774522.253 7  21774520.86742  21774525.61342
       -49.764         -38.824  
 111984935.006    87261005.4074   21310024.590 8  21310024.31146  21310030.19146
      5220.340        4067.795  
 120909829.984    94215477.8534   23008375.245 4  23008374.05441  23008381.60341
       319.771         249.176  
 117785394.039    91780840.0274   22413813.604 7  22413813.65545  22413818.60045
      2718.384        2118.228  
 119864413.499    93400856.5134   22809439.444 7  22809439.08144  22809444.15344
      2716.381        2116.652  
 119756613.551    93316868.7744   22788927.129 7  22788926.43545  22788929.26145
      5250.154        4091.034  
 121219318.718    94456631.7484   23067268.461 5  23067270.66241  23067274.43741
      6624.318        5161.786  
 123193417.104    95817123.538    23070168.671 6  23070168.659 6  23070174.275 6
      7278.360        5660.962  
 11  5 30 17  1  0.0000000  0 12R21R12R11R22G 9G25G27G14G 4G 2G29R13
 106852003.414    83107132.067    19967851.807 8  19967850.954 8  19967852.445 7
      1346.133        1046.986  
 103969640.556    80865295.733    19463335.145 8  19463334.867 8  19463339.340 7
      4778.688        3716.739  
 109998358.512    85554299.811    20584694.589 7  20584693.931 6  20584699.851 5
       560.700         436.134  
 105812108.890    82298325.817    19822172.325 8  19822171.550 7  19822175.346 7
      5561.660        4325.751  
 114426130.017    89163229.2844   21774569.961 6  21774569.06342  21774574.04142
       -51.402         -40.082  
 111958835.753    87240668.3244   21305057.641 8  21305057.47346  21305063.76346
      5219.296        4066.986  
 120908236.194    94214235.9194   23008071.798 4  23008070.02041  23008078.58641
       318.646         248.289  
 117771809.474    91770254.6434   22411228.905 7  22411228.83644  22411233.25644
      2715.642        2116.135  
 119850838.645    93390278.6934   22806855.061 7  22806855.40644  22806860.71944
      2713.586        2114.468  
 119730367.956    93296417.6524   22783932.624 7  22783932.34845  22783935.06745
      5248.333        4089.616  
 121186200.196    94430825.1134   23060964.917 5  23060967.94641  23060970.93141
      6623.436        5161.137  
 123157024.617    95788818.258    23063354.495 6  23063353.996 6  23063358.428 6
      7278.216        5660.841  
 11  5 30 17  1  5.0000000  0 12R21R12R11R22G 9G25G27G14G 4G 2G29R13
 106845280.839    83101903.398    19966595.048 8  19966594.394 8  19966595.946 7
      1342.921        1044.490  
 103945755.132    80846718.182    19458863.420 8  19458863.248 8  19458867.630 7
      4775.788        3714.508  
 109995560.583    85552123.608    20584171.091 7  20584170.917 6  20584176.517 5
       558.414         434.319  
 105784309.143    82276703.801    19816963.670 8  19816963.629 8  19816967.481 7
      5558.355        4323.180  
 114426390.908    89163432.5694   21774619.587 7  21774618.96342  21774623.17642
       -53.057         -41.356  
 111932742.076    87220335.5974   21300092.226 8  21300092.05046  21300098.49846
      5218.096        4066.044  
 120906647.207    94212997.7204   23007772.740 4  23007769.08241  23007776.05741
       317.631         247.532  
 117758239.382    91759680.5394   22408646.369 7  22408646.64644  22408650.70744
      2712.763        2113.856  
 119837278.905    93379712.6694   22804275.550 7  22804274.96444  22804280.38744
      2710.418        2112.012  
 119704131.706    93275973.8284   22778939.818 7  22778939.66845  22778941.93745
      5246.495        4088.180  
 121153085.923    94405021.8034   23054664.328 5  23054666.84541  23054669.37442
      6622.601        5160.490  
 123120632.410    95760513.211    23056540.012 6  23056538.970 6  23056543.169 6
      7278.367        5660.947  
 11  5 30 17  1 10.0000000  0 12R21R12R11R22G 9G25G27G14G 4G 2G29R13
 106838573.411    83096686.505    19965342.778 8  19965341.072 8  19965342.542 7
      1339.999        1042.214  
 103921883.276    80828151.187    19454394.670 8  19454394.036 8  19454398.533 7
      4773.146        3712.441  
 109992773.819    85549956.101    20583649.725 7  20583649.304 6  20583654.716 6
       556.171         432.564  
 105756525.404    82255094.226    19811759.282 8  19811758.941 8  19811762.459 7
      5555.245        4320.742  
 114426659.549    89163641.9324   21774670.018 6  21774669.78042  21774673.33642
       -54.638         -42.594  
 111906653.875    87200007.1304   21295128.006 8  21295127.74146  21295134.00646
      5217.223        4065.366  
 120905062.840    94211763.1144   23007469.705 4  23007467.63541  23007475.33341
       316.314         246.484  
 117744683.604    91749117.5854   22406067.947 7  22406067.24544  22406070.95644
      2709.668        2111.420  
 119823734.231    93369158.3734   22801697.580 7  22801697.63044  22801702.88044
      2707.560        2109.791  
 119677904.685    93255537.2004   22773949.627 7  22773948.78745  22773950.95745
      5244.296        4086.456  
 121119975.807    94379221.7124   23048365.885 5  23048366.54142  23048369.50842
      6621.651        5159.741  
 123084240.267    95732208.234    23049725.689 6  23049724.412 6  23049728.491 6
      7278.249        5660.848  
 11  5 30 17  1 15.0000000  0 12R21R12R11R22G 9G25G27G14G 4G 2G29R13
 106831881.269    83091481.508    19964090.892 8  19964090.444 8  19964092.074 7
      1336.882        1039.795  
 103898025.310    80809594.982    19449928.367 8  19449927.885 8  19449932.371 7
      4770.167        3710.131  
 109989998.339    85547797.381    20583130.189 7  20583130.070 7  20583135.070 6
       553.691         430.647  
 105728757.796    82233497.185    19806557.742 8  19806557.156 8  19806560.465 7
      5551.919        4318.155  
 114426936.111    89163857.4214   21774723.439 6  21774721.89542  21774725.27842
       -56.006         -43.629  
 111880571.333    87179683.0684   21290164.232 8  21290163.99446  21290170.47746
      5216.001        4064.409  
 120903483.318    94210532.2784   23007170.184 4  23007168.14641  23007174.73241
       315.504         245.889  
 117731142.417    91738566.0144   22403490.917 7  22403490.71344  22403494.00044
      2706.859        2109.260  
 119810204.748    93358615.9304   22799122.352 7  22799122.85544  22799128.23244
      2704.480        2107.380  
 119651687.099    93235107.9244   22768960.648 7  22768959.66445  22768962.12945
      5242.444        4085.027  
 121086870.034    94353424.9944   23042064.878 5  23042067.08942  23042070.06742
      6620.791        5159.022  
 123047848.585    95703903.592    23042907.999 6  23042908.186 6  23042913.780 6
      7278.479        5661.027  
